Guid,Title,Time,Duration,Postcode,Latitude,Longitude,Venue,Address,What3Words,Day,Hearing,Wheelchair,Chit,Open,OpenFormat,Format,Note,Region,Area,Country,Type
ad1bcb5a-cbb7-5804-8b53-a50725b93c78,Acharacle Strontian,14:30,1hr 30mins,PH36 4HZ,56.692732,-5.568288,Strontian Parish Church,Strontian Parish Church,surviving.ironclad.slogans,Friday,False,False,False,False,,,,,,England,Alcoholics Anonymous
d3790da8-bd5b-5600-9b4c-4cc1eb13f3b4,Atherstone,19:00,1hr 30mins,CV9 1EX,52.577886,-1.546742,St Mary's Church,"Market St,Sheepy Rd",backtrack.bleat.tilts,Wednesday,False,False,False,True,'Open' mtgs on request.,,,,,England,Alcoholics Anonymous
5f0cf41e-5e84-5eb8-a260-5ad4cd4a797c,Atherstone As Bill Sees It,13:30,1hr,CV9 1EX,52.577886,-1.546742,St Mary's Church,"Market St,Sheepy Rd",backtrack.bleat.tilts,Friday,False,False,False,True,'Open' mtgs on request.,,,,,England,Alcoholics Anonymous
ad27ce5a-8a17-5588-a241-2d6a94f3a66a,Bolton,19:30,1hr 30mins,BL1 2AS,53.580638,-2.430827,Bolton Victoria Hall Methodist Church,37 Knowsley St,venues.outfit.retire,Thursday,False,True,False,False,,,,,,England,Alcoholics Anonymous
bef23e62-bec2-53df-bdcc-1f2d8babc5d1,City Starters,07:30,1hr,EC3V 9EA,51.512477,-0.086272,St Edmund The King Church,Lombard St (Side Entrance In George Yard),calls.values.hooks,Thursday,False,True,False,True,All mtgs 'open'.,,,,,England,Alcoholics Anonymous
e81687c3-dc4c-5482-b2aa-610d8c566a9d,Godalming Gratitude,18:00,1hr,GU7 3DT,51.188376,-0.608334,Godalming United Church,Bridge Rd,trial.flesh.shine,Sunday,False,True,False,False,,,,,,England,Alcoholics Anonymous
7a54ee5d-44d9-5489-a285-f8796fb507fc,Kilburn Park Newcomers,19:30,1hr 30mins,NW6 5RS,51.530967,-0.195822,The Marian Community Centre,1 Stafford Rd,punt.shakes.pulled,Monday,False,True,False,True,All mtgs 'open'.,,Nearest station Kilburn Park & Queens Park. Free car parking in surrounding area after 7pm. Chip mtg.,,,England,Alcoholics Anonymous
29522784-b23b-5aa5-997e-05cdd3128af0,New Malden Step,14:00,2hrs,KT1 3SB,51.408622,-0.277148,St Pious X RC Church,"The Triangle,108 Orme Rd,Kingston",trail.fell.leaves,Saturday,False,True,False,False,,,,,,England,Alcoholics Anonymous
055649ad-4ab7-52da-a810-44ea705631d1,Newcastle George St Women,10:30,1hr 30mins,NE4 7JN,54.967175,-1.625817,George Street Social,45-51 George St,voter.groom.needed,Tuesday,False,False,True,False,,,Chit system available.,,,England,Alcoholics Anonymous
aa2587ea-188a-5635-8def-a120cdc2bc7d,Nottingham Step & Traditions,19:00,1hr 30mins,NG3 5HE,52.975826,-1.136744,St Jude's Church,405 Woodborough Rd,bags.mute.crash,Tuesday,False,True,False,True,'Open' mtgs on request.,,,,,England,Alcoholics Anonymous
13a5d4c7-b20a-5004-9f9d-78cd9b961d2d,Rhodes Town,10:30,,,36.4340533,28.2176379,Old Hospital,"Queen Olga,Red Cross St 3,Rhodes 85100 (Erithro Stavro)",chains.musician.cherry,Saturday,False,False,False,False,,,This meeting is through the summer only from 15th April til 15th November.,,,England,Alcoholics Anonymous
9fb43577-48e2-55b0-87eb-2385dd410e9c,Soho That Friday Feeling,16:00,1hr,WC2H 0EW,51.515109,-0.130276,Soho Recovery Centre,123 Charing Cross Rd,tuck.drum.transit,Friday,False,False,False,False,,,,,,England,Alcoholics Anonymous
9c159704-589b-5633-a3d5-97074674aad6,Southgate,20:00,1hr 30mins,N14 7EG,51.625021,-0.126729,Walker Hall,"The Green,Waterfall Rd",shine.boost.tamed,Wednesday,False,True,True,True,All mtgs 'open'.,,Chit system available.,,,England,Alcoholics Anonymous
f985ed94-d051-50ee-a8d1-cb64b79da88a,St Albans Big Book Study,12:00,1hr,AL1 3UD,51.751693,-0.332477,St Albans Quaker Meeting House,7 Upper Lattimore Rd,alone.peanut.kicked,Saturday,False,False,False,False,,,,,,England,Alcoholics Anonymous
90df854a-9d90-5f48-8b1f-c9d9215ecc18,Streatley Lunchtime Daily Reflections,13:00,1hr,RG8 9HT,51.523043,-1.144603,The Morrell Room,Church Lane,overpower.update.honey,Monday,False,True,False,True,All mtgs 'open'.,,,,,England,Alcoholics Anonymous
2933daee-7b18-52d1-89e4-cf0aa46e96bb,Thornbury Discussion,20:00,1hr 15mins,BS35 2QX,51.587796,-2.531049,Jubilee Hall,"Greenhill Rd,Alveston Nr Thornbury",abandons.websites.film,Sunday,False,True,False,False,,,,,,England,Alcoholics Anonymous
f1dd38b8-450c-579a-bd80-65824c811fb6,Tooting Bec Step,19:30,1hr 30mins,SW17 8BS,51.435688,-0.157566,St Anselms Church Hall,Tooting Bec Rd (Opp Tube - Metal Gate To Court Yard),adopt.lifts.flock,Friday,False,True,False,True,Last Fri each mnth 'open'.,,,,,England,Alcoholics Anonymous
fbac0a7f-3f21-59ff-8686-ecafdf4b0ca6,Uxbridge Step,20:00,1hr 30mins,UB8 1QW,51.548647,-0.474815,Friends Meeting House,"Friends Walk,York Rd,Off Belmont Rd",goal.today.holly,Monday,False,True,False,False,,,,,,England,Alcoholics Anonymous
3580245e-29e3-5825-afc6-023f5629642a,Weston-Super-Mare Emotional Sobriety,18:30,1hr 15mins,BS23 3SJ,51.331294,-2.965121,St Andrews Church/Locality Centre (Entrance At The Rear),68 Lonsdale Ave,oval.libraries.warns,Thursday,False,True,True,True,'Open' mtgs on request.,,Chit system available.,,,England,Alcoholics Anonymous
80e7639f-917c-569d-ab0e-9026dda6628a,Petts Wood Chip,20:00,1hr 30mins,BR5 1LH,51.388791,0.078424,Christ Church,"Willet Way,Petts Wood,Near Orpington",lifts.brands.label,Friday,False,False,False,True,Last Fri each mnth 'open'.,,,Armagh,Northern Ireland,England,Alcoholics Anonymous
e33ea967-8d84-55b4-9e2d-9b9a9bbf58e4,Petts Wood Principles Of Recovery,19:30,1hr,BR5 1QW,51.389699,0.084965,St Francis Assisi,Greencourt Rd,trees.badly.grabs,Monday,False,True,False,True,All mtgs 'open'.,,,Armagh,Northern Ireland,England,Alcoholics Anonymous
55d67669-c26b-5636-a717-38ca73c8a978,Bromley,19:00,1hr 15mins,BR1 1DG,51.409191,0.010068,Bromley Drug & Alcohol Service (BDAS),35 London Rd,spared.enhancement.spend,Monday,False,True,False,True,Last Mon each month 'open'.,,"Car parking is free after 18:30 in Blyth Rd, but please do check the signs when parking.",Birmingham,Midlands,England,Alcoholics Anonymous
e9c4555f-2b2a-52bf-8c85-3555eb96671b,Soho Sunday Gratitude,18:00,1hr,WC2H 0EW,51.515109,-0.130276,Soho Recovery Centre,123 Charing Cross Rd,tuck.drum.transit,Sunday,False,False,False,True,Last Sunday each month 'open'.,,,Birmingham,Midlands,England,Alcoholics Anonymous
7bace068-3e92-5ab9-80f1-e70a4c342a41,Keston Daily Reflections,09:00,1hr 15mins,TN14 7AH,51.336014,0.147019,Memorial Hall,"Highland Rd,Badgers Mount",money.milk.slate,Sunday,False,False,False,False,,,,Black Country,Midlands,England,Alcoholics Anonymous
e25ebaa3-6c3d-5d9e-9455-1a09c755905e,LGBTQ Broad Highway,10:30,1hr,WC2H 0EW,51.515109,-0.130276,Soho Recovery Centre,123 Charing Cross Rd,tuck.drum.transit,Saturday,False,False,False,False,,,,Black Country,Midlands,England,Alcoholics Anonymous
986288f1-9ae5-51ed-85e0-b82ffe1f7c31,Woking Sunday Salvation,09:00,1hr 15mins,GU21 3BE,51.323815,-0.582564,Salvation Army,"Sythwood Rd,Goldsworth Park",custom.lines.heats,Sunday,False,True,False,True,All mtgs 'open'.,,,Black Country,Midlands,England,Alcoholics Anonymous
c322aaa3-b838-52db-9f67-d66cc4565be2,St Albans Step,20:00,1hr 30mins,AL1 3UD,51.751693,-0.332477,St Albans Quaker Meeting House,7 Upper Lattimore Rd,alone.peanut.kicked,Wednesday,False,True,False,False,,,,"Blackpool, Fylde and Wyre",North West,England,Alcoholics Anonymous
daf5a41c-dcdf-5b93-8e9a-ef5ebdf1f7fd,Frimley Sobriety Sisters,19:00,1hr,GU16 9AR,51.31087,-0.733543,Frimley Baptist Church,Balmoral Drive,ironclad.forgotten.irritated,Tuesday,False,True,False,False,,,,Borders and East Lothian,Scotland,England,Alcoholics Anonymous
26f27341-3f7c-54b7-8970-db4dd5eb5f8b,Bournemouth Big Book Study,12:30,1hr 15mins,BH9 1DW,50.738154,-1.865421,St Albans Church,21 Linwood Rd  (Entrance Via Fitzharris Ave),hype.digits.divisions,Wednesday,False,True,False,False,,,,Bournemouth District,South West,England,Alcoholics Anonymous
377f3657-d082-55fc-9f4c-e807257c472b,Rye Step & Tradtion,12:30,1hr,TN31 7LB,50.950594,0.733769,St Mary's Parish Halls - The Kino,Lion St,hurray.steps.slurping,Wednesday,False,True,True,False,,,,Brighton Area,South East,England,Alcoholics Anonymous
b30ac748-02d5-5b47-8c62-adb427ea7054,AA & Our Mental Health,18:30,1hr,BS5 0RE,51.459051,-2.577412,St Nicholas Of Tolentino Church,Lawfords Gate,oldest.curvy.valley,Wednesday,False,True,False,False,,,,Bristol and District,South Midlands,England,Alcoholics Anonymous
54db5c31-4e74-5d9e-a0c4-f9c83b64378d,Bristol Courage To Change,19:30,1hr,BS48 3HQ,51.412436,-2.743521,West Town Methodist Church,"West Town Rd,Backwell",dissolves.crusaders.paths,Thursday,False,False,False,False,,,Shared platform AA & Al-Anon every week,Bristol and District,South Midlands,England,Alcoholics Anonymous
835b0699-3e4d-5181-ae7f-7535ce45061d,Bristol Newcomers Feelings,19:00,1hr,BS8 1LL,51.456315,-2.613331,University Catholic Chaplaincy,"103 Queens Rd,Clifton",drill.flank.pack,Saturday,False,False,False,False,,,,Bristol and District,South Midlands,England,Alcoholics Anonymous
c628ba0a-9f2c-54c2-8749-6ecedd886408,Bristol Newcomers Speaker,20:00,1hr,BS8 1LL,51.456315,-2.613331,University Catholic Chaplaincy,"103 Queens Rd,Clifton",drill.flank.pack,Monday,False,False,False,True,All mtgs 'open'.,,Open speaker meeting.,Bristol and District,South Midlands,England,Alcoholics Anonymous
daa67af9-57ab-5c5a-8622-1be866e07a56,Bristol Newcomers Step And Tradition,19:30,1hr,BS8 1LL,51.456315,-2.613331,University Catholic Chaplaincy,"103 Queens Rd,Clifton",drill.flank.pack,Wednesday,False,False,False,False,,,Email: Newcomers.clifton@gmail.com,Bristol and District,South Midlands,England,Alcoholics Anonymous
4d6810ff-aca6-5084-af4f-0639ae63a48b,Peterborough Krok Po Kroku Polish Speaking,17:00,1hr 30mins,PE1 1DY,52.569314,-0.242184,Aspire House,"1St Floor,102-104 Bridge St",object.papers.films,Sunday,False,False,True,True,All mtgs 'open'.,,,Bristol and District,South Midlands,England,Alcoholics Anonymous
90b08237-f66f-5d81-a733-2310912f420d,Redcar Daily Reflectons - How It Applies To Me,18:30,1hr,TS10 4BQ,54.604905,-1.070893,Westmorland Community Centre,Westmorland Rd,jumpy.edit.slurs,Tuesday,False,True,False,True,Last Tue each month 'open'.,,.,Cardiff and District,Wales and Borders,England,Alcoholics Anonymous
b34af303-c0ae-512a-b22c-462f2cc4964f,Wigan The Best Is Yet To Come,15:30,1hr,WN1 3SA,53.545914,-2.623392,Sunshine House Community Hub,Wellington St,entire.fully.organs,Monday,False,True,False,False,,,No mtg held on Bank Holidays.,Cheshire East,North West,England,Alcoholics Anonymous
eed778b9-5ebc-55cb-8d7e-bdeac8b4532b,Cheltenham No2,19:00,1hr 30mins,GL50 3ET,51.899171,-2.080883,Bayshill Unitarian Church,Royal Well Ln,skinny.orchestra.ranked,Tuesday,False,True,True,True,'Open' mtgs on request.,,,Chester City,North West,England,Alcoholics Anonymous
f2a1108f-291c-5947-a3f9-f17a1d79ff8a,Birmingham Jednosc Polish Speaking,12:00,1hr 30mins,B9 4DY,52.475965,-1.880982,SIFA,48-52 Allcock St,flap.delay.vocab,Sunday,False,False,False,True,All mtgs 'open'.,,,Chiltern and Thames,South Midlands,England,Alcoholics Anonymous
e35b4745-7d3c-5576-8557-70e45d5ce0d6,Heston AA Meeting,19:00,1hr,TW5 0DZ,51.484007,-0.380743,Heston Community Centre,Vicarage Farm Rd,bride.jets.trucks,Tuesday,False,True,False,False,,,Maximum of 30 attendees.,Chiltern and Thames,South Midlands,England,Alcoholics Anonymous
2dd8f8ae-f3da-5bc1-a0eb-5aa3b102a7e5,Black Women In AA,12:00,1hr,WC2H 0EW,51.515109,-0.130276,Soho Recovery Centre,123 Charing Cross Rd,tuck.drum.transit,Saturday,False,False,False,False,,,,Cork,Republic of Ireland,England,Alcoholics Anonymous
fc354c1f-f541-573e-8a6a-5bc2bd6f6aa5,Crieff Keep It Simple,19:00,1hr 30mins,PH7 3HR,56.369955,-3.842062,Crieff Cottage Hospital,King St,quits.handbag.cracks,Sunday,False,True,False,True,'Open' mtgs on request.,,There is a strict NHS No Smoking policy and we expect attendees to be responsible and not to smoke on hospital premises.,Cork,Republic of Ireland,England,Alcoholics Anonymous
064b77f9-4feb-54be-b998-63539412cbe7,Iver Recovery,19:30,1hr 30mins,SL0 9DD,51.50245,-0.506616,St Leonards Hall,"St Leonards Walk,Richings Park",turkey.oasis.relate,Sunday,False,True,True,True,'Open' mtgs on request.,,,Cork,Republic of Ireland,England,Alcoholics Anonymous
89d4af85-f271-5c60-a249-c96869302aa0,High Wycombe Road To Recovery,13:00,1hr,HP13 6SE,51.631166,-0.750881,Wesley Methodist Church,Priory Rd,hello.fuels.funded,Saturday,False,True,True,False,,,Chit system available.,Coventry and Warwickshire,Midlands,England,Alcoholics Anonymous
f0204749-b860-5669-995c-a35553d8c746,Soho Step Into Serenity,16:30,1hr,WC2H 0EW,51.515109,-0.130276,Soho Recovery Centre,123 Charing Cross Rd,tuck.drum.transit,Thursday,False,False,False,True,All mtgs 'open'.,,Numbers limited to 45 attendees.,Coventry and Warwickshire,Midlands,England,Alcoholics Anonymous
2e32f292-5fdf-54a8-9acf-106c8bd23161,Soho Womens Sobriety Chip,19:30,1hr,WC2H 0EW,51.515109,-0.130276,Soho Recovery Centre,123 Charing Cross Rd,tuck.drum.transit,Sunday,False,False,False,False,,,,Coventry and Warwickshire,Midlands,England,Alcoholics Anonymous
45768bb7-edea-5e8b-8962-b161251077ae,Derby Living Sober,19:30,1hr 30mins,DE1 3HZ,52.925054,-1.488607,St John The Evangelist Church,Mill St,loyal.each.idea,Sunday,False,True,False,True,All mtgs 'open'.,,Email: DerbycitycentreAA@gmail.com,Derry,Northern Ireland,England,Alcoholics Anonymous
58e4b6c6-7330-5f54-bd86-c6b8fa557455,Forest Of Dean Highnam Beginners,19:30,1hr 30mins,GL2 8DG,51.879164,-2.299733,Parish Rooms,"Highnam Community Centre,Newent Rd",cabbage.sweetener.bright,Monday,False,True,True,True,'Open' mtgs on request.,,Chit system available.,Derry,Northern Ireland,England,Alcoholics Anonymous
14fa1be8-0fee-5b7b-b2d0-b11326965263,Bethnal Green How It Works Newcomers,19:00,1hr,E2 9JP,51.532455,-0.050599,Bethnal Green Methodist Church,Approach Rd,latest.feed.sling,Friday,False,False,False,True,All mtgs 'open'.,,,Devon Central,South West,England,Alcoholics Anonymous
5c550f91-c021-513c-80eb-417ccee1d323,Shoeburyness 1St Physical & Online,18:00,1hr 30mins,SS3 8UT,51.542211,0.784481,The Salvation Army,Frobisher Way,tables.slips.lived,Monday,False,True,False,True,All mtgs 'open'.,,Also held on Zoom - meeting ID: 431 660 7201 Password: 105875,Devon Central,South West,England,Alcoholics Anonymous
31a831e3-0c6d-51bd-beac-3a3f143013c8,Carlisle,19:30,1hr 30mins,CA1 1BG,54.894791,-2.931089,The Hub,14 Spencer St,skins.bunk.again,Monday,False,False,False,True,All mtgs 'open'.,,,Donegal,Republic of Ireland,England,Alcoholics Anonymous
c9870c0f-4817-55e7-8064-ab5cc9c0a6fa,Baldock Topic,19:30,1hr,SG7 6PX,51.989973,-0.188671,Baldock Methodist Church,Whitehorse St,taken.export.found,Thursday,False,False,False,True,All mtgs 'open'.,,01438 747475 (24 hours),Dublin,Republic of Ireland,England,Alcoholics Anonymous
4d158b28-4b71-5bf9-b602-6e3f7e970d1e,Blackpool Hope In The Harbour,19:30,1hr 15mins,FY4 4FE,53.800395,-2.989624,The Harbour NHS Site,Preston New Rd,tight.chimp.lakes,Tuesday,False,True,False,True,All mtgs 'open'.,,,Dublin,Republic of Ireland,England,Alcoholics Anonymous
b0ec3822-b7e4-528e-b604-8a243da32254,Pudsey Big Book Study,09:00,1hr,LS28 7BN,53.796287,-1.661665,Cafe Lux,"Robin Lane,Pudsey",deal.awards.bounty,Sunday,False,True,False,True,All mtgs 'open'.,,,Dublin,Republic of Ireland,England,Alcoholics Anonymous
af242ba6-d285-5db8-b2e2-108248d8b461,Step Into Soho (12 X 12 Discussion),18:00,1hr,WC2H 0EW,51.515109,-0.130276,Soho Recovery Centre,123 Charing Cross Rd,tuck.drum.transit,Thursday,False,False,False,True,All mtgs 'open'.,,,Dublin,Republic of Ireland,England,Alcoholics Anonymous
7d454889-ce69-5bf1-8c0a-42c24e8f6cb5,Sunderland Unity,19:30,1hr 15mins,SR4 7TF,54.90134,-1.411542,St Gabriels Church Hall,St Gabriels Ave,sadly.affair.report,Wednesday,False,True,True,True,'Open' mtgs on request.,,Chit system available.,Dublin,Republic of Ireland,England,Alcoholics Anonymous
734e8e7e-52f7-5f61-babd-619163e8c0ca,Dudley Top Church,19:30,1hr 30mins,DY1 1QD,52.508839,-2.087337,Top Church,High St,slap.list.supply,Monday,False,True,True,True,'Open' mtgs on request.,,Chit system available.,Dumbarton,South West Scotland,England,Alcoholics Anonymous
c8c150df-5b16-5eec-9c56-53e0a6ee8dc3,Woking Big Book Step & Tradition,20:00,1hr 30mins,GU21 3BE,51.323815,-0.582564,Salvation Army,"Sythwood Rd,Goldsworth Park",custom.lines.heats,Tuesday,False,True,False,True,All mtgs 'open'.,,The meeting focuses on the twelve steps and traditions as detailed in the Big Book Of Alcoholics Anonymous.,Durham and Cleveland,North East,England,Alcoholics Anonymous
70348549-ce1b-5911-ba1a-196e8e61a215,Bromley Common Friends Of Bill Chip,20:00,1hr 30mins,BR2 9RZ,51.392665,0.034416,Bromley Common Methodist Church,Bloomfield Rd,chairs.crush.scenes,Wednesday,False,True,True,True,Last Wed each month 'open'.,,Free on street parking available.,East Herts or West Essex,Eastern,England,Alcoholics Anonymous
a80620e7-b85c-5a65-b659-8f64c1140b57,Huntingdon Godmanchester Living Sober,19:30,1hr 30mins,PE29 2AQ,52.320853,-0.175761,Rose & Crown Quaker Centre,"48A Post St,Godmanchester",ooze.clings.inflating,Wednesday,False,True,False,True,All mtgs 'open'.,,,East Kent,South East,England,Alcoholics Anonymous
fd6b3742-4495-5bb9-88a9-281e3373bf23,Worthing Morning Newcomers,12:00,1hr 30mins,BN11 3DN,50.810783,-0.369104,St Clare's Community Hub,6-8 Marine Place,hope.closet.sushi,Saturday,False,True,False,True,All mtgs 'open'.,,,East Kent,South East,England,Alcoholics Anonymous
26e4f990-198a-52d7-b579-83b11bec26ff,Bloomsbury Friends Of Bill W,13:00,1hr,WC2H 0EW,51.515109,-0.130276,Soho Recovery Centre,123 Charing Cross Rd,tuck.drum.transit,Wednesday,False,False,False,True,All mtgs 'open'.,,,East Lancs,North West,England,Alcoholics Anonymous
0e82b6c5-1894-5727-a7e2-fb7ac358b537,Hurstpierpoint Live & Let Live,20:00,1hr 30mins,BN6 9TH,50.944114,-0.180097,Court Bushes Community Hub,Willow Way,titles.hairstyle.outboard,Tuesday,False,True,True,True,1st Tue each month 'open'.,,,East London,London (North),England,Alcoholics Anonymous
8ec1936a-1585-55ba-91ab-f3382ae97e61,Polesworth Big Book,20:00,1hr 30mins,B78 1DU,52.620138,-1.612629,Polesworth Abbey,High St,plant.branched.monkey,Thursday,False,False,False,True,'Open' mtgs on request.,,,East London,London (North),England,Alcoholics Anonymous
9773f2e6-e77d-5832-a0d4-6bc9cd31a00c,Soho There Is A Solution - Big Book,18:00,1hr,WC2H 0EW,51.515109,-0.130276,Soho Recovery Centre,123 Charing Cross Rd,tuck.drum.transit,Wednesday,False,False,False,False,,,,East London,London (North),England,Alcoholics Anonymous
f16c67dc-616a-5273-b1df-b905b2c62cda,Weymouth Let's Keep It Simple,19:30,1hr 30mins,DT3 6SJ,50.648525,-2.456155,St Francis Of Assisi Church Hall,"Merredin Close,Littlemoor",concluded.dozed.plunge,Thursday,False,True,False,False,,,,East London,London (North),England,Alcoholics Anonymous
7cdacc25-c6f3-566a-850b-39b8e00bf2c2,Twickenham Men's,20:00,1hr 30mins,TW1 2EF,51.456121,-0.30994,Richmond Bridge Friendship Club,"The Arches,Richmond Bridge,Richmond Rd,Entrance Via Curved Iron Gate On Corner Of Willoughby Rd,East Twickenham",dust.candy.system,Wednesday,False,False,False,False,,,For venue directions please see richmondbridge.org,East Sussex,South East,England,Alcoholics Anonymous
6c30c128-d9b7-5fb6-8fe6-2811c09faeb6,City Breakfast: 3-7-11 Step Physical & Online,07:30,1hr,EC3V 9EA,51.512477,-0.086272,St Edmund The King Church,Lombard St (Side Entrance In George Yard),calls.values.hooks,Tuesday,False,True,False,False,,,Join URL: https://us06web.zoom.us/j/614220999?pwd=TGVLL0VZNW5pa1Bhejd0Q0E5Q0dUZz09,Essex,Eastern,England,Alcoholics Anonymous
bf3331f7-1fe8-56fa-b7a2-eb3cdb77621a,Hull Big Book,13:00,1hr 30mins,HU3 2EY,53.740699,-0.349091,Salvation Army (Ice House),80 Adelaide St,towns.mugs.flood,Friday,False,True,True,True,All mtgs 'open'.,,,Fenland,Eastern,England,Alcoholics Anonymous
7a14131c-2983-5536-8055-2a80a2348b15,Newcastle-Upon-Tyne Newcomers,12:30,1hr,NE4 7JN,54.967175,-1.625817,George Street Social,45-51 George St,voter.groom.needed,Friday,False,False,True,True,'Open' mtgs on request.,,,Fenland,Eastern,England,Alcoholics Anonymous
9f1424e6-c5f2-5a29-a546-4f6d44ec2bec,Stepps ODAAT,20:00,1hr 45mins,G69 9DL,55.904301,-4.104217,Cultural Centre,"Lyndseybeg Rd,Chryston",lines.sushi.driven,Monday,False,True,False,True,All mtgs 'open'.,,No meeting held on any Bank Holiday Monday.,Forth Valley,Scotland,England,Alcoholics Anonymous
90f1ee05-fc04-5f7d-87e2-a495ad5f0d82,Appleby Primary Purpose Big Book Study,19:00,1hr,CA16 6QR,54.578082,-2.492993,The Appleby Hub,Chapel St,thumb.usual.inched,Friday,False,True,False,True,All mtgs 'open'.,,Doors open 18.30.,Galway,Republic of Ireland,England,Alcoholics Anonymous
8ab55a38-64d6-55a6-9747-be830837fee7,Glasgow Dromader Polish Speaking,19:00,2hrs,G81 1BL,55.90173,-4.405902,New Beginning Rooms,45B Kilbowie Rd,needed.spring.shovels,Sunday,False,False,False,False,,,,Galway,Republic of Ireland,England,Alcoholics Anonymous
b0aa895f-ec32-5fbe-8930-71593e397bd3,Tunbridge Wells Chair & Share,11:00,1hr 30mins,TN1 2LY,51.131573,0.266848,St Augustines Catholic Church,Crescent Rd,broke.ready.return,Saturday,False,False,False,False,,,,Galway,Republic of Ireland,England,Alcoholics Anonymous
41f51644-20c3-59d7-87fc-fb1bf534eff9,Tunbridge Wells Chair & Share,19:45,1hr 15mins,TN1 2LY,51.131573,0.266848,St Augustines Catholic Church,Crescent Rd,broke.ready.return,Tuesday,False,True,False,True,All mtgs 'open'.,,Doors open 19.15.,Galway,Republic of Ireland,England,Alcoholics Anonymous
47c4bc32-8a9f-5a39-83ac-28dea3949344,Gorton Sacred Heart,20:00,1hr 30mins,M18 7NE,53.458041,-2.174058,Sacred Heart RC Church,"Levenshulme Rd,Gorton",divisions.salad.thick,Monday,False,True,False,False,,,,Glasgow South,Glasgow,England,Alcoholics Anonymous
18e19d4e-6437-5405-a3f6-ca151d7765a9,Pinner Discussion As Bill Sees It,20:15,1hr 15mins,HA5 3BL,51.595824,-0.379339,United Free Church,Paines Lane,drop.wrong.forum,Tuesday,False,False,False,True,2nd Tue each mnth 'open'.,,,Glasgow South,Glasgow,England,Alcoholics Anonymous
a9df5766-9cfe-54b1-aab1-2ad43a871fed,Huddersfield Rule 62,19:30,1hr 30mins,HD8 8RX,53.573607,-1.6531,Denby Dale Pie Hall,"297 Wakefield Road,Denby Dale",front.custodian.crusher,Sunday,False,True,False,False,,,,Hull and East Riding,North East,England,Alcoholics Anonymous
f93a89c8-e580-548f-be5a-23d403d567d7,Dewsbury Physical & Online,20:00,1hr,WF13 1LY,53.691003,-1.632177,Elim Church,Daisy Hill,arrow.skinny.narrow,Thursday,False,False,False,True,1st Thursday each month 'open'.,,Also held on Zoom - Meeting  ID: 817 8798 5829 Passcode: 630419,Inverness and District,Highland and Islands,England,Alcoholics Anonymous
e63b34c5-5fa8-548c-bcbc-4c1bd94e2800,Whitley Bay Step,19:15,1hr 30mins,NE26 2TQ,55.042103,-1.448119,St Pauls Church,1 Park View,lows.skinny.test,Sunday,False,True,False,True,1st Sun each month 'open'.,,,Inverness and District,Highland and Islands,England,Alcoholics Anonymous
fc6e065b-9125-5bad-84b0-d14c65faa8e3,Halesworth Back To Basics,17:00,1hr,IP19 8LR,52.338914,1.499124,Rifle Hall,47 London Rd,stolen.edgy.clays,Sunday,False,True,False,False,,,,Lanarkshire,Scotland,England,Alcoholics Anonymous
61caa05c-da61-51c2-89e3-ec855595e59d,York Women In Recovery,19:15,1hr 15mins,YO1 9PZ,53.95524,-1.075405,St George's Church,Peel St,paid.volume.nest,Wednesday,False,False,False,True,'Open' mtgs on request.,,"The entrance for the church is at the side, adjacent to the car park",Lanarkshire,Scotland,England,Alcoholics Anonymous
eb2acacc-9d2f-58ec-b1a9-d9075f6c8474,Bolton,19:30,1hr 30mins,BL1 2AS,53.580638,-2.430827,Bolton Victoria Hall Methodist Church,37 Knowsley St,venues.outfit.retire,Tuesday,False,True,False,True,Last Tue each month 'open'.,,,Lea Valley,Eastern,England,Alcoholics Anonymous
36a6501b-2c02-5393-becb-8151e4e52ec7,Haslemere Evening Physical & Online,20:00,1hr,GU27 1LD,51.087511,-0.731273,Haslemere Methodist Church,Lion Green,overjoyed.hound.splinters,Wednesday,False,True,False,False,,,Also held on Zoom - Meeting ID:  864-7060-5009 No password.,Lea Valley,Eastern,England,Alcoholics Anonymous
43b643c8-b383-58d7-99da-b29c0120f007,"Dzialanie, Dzialanie, Dzialanie (Polish Speaking)",09:30,1hr,KT6 7QU,51.379085,-0.288494,Hughes Room B,"Tolworth Hospital,Red Lion Rd",bits.zips.exile,Sunday,False,True,True,True,All mtgs 'open'.,,Chit system available. All mtgs are Polish speaking only.,London Chelsea,London (North),England,Alcoholics Anonymous
65e6517e-b32b-56ee-890b-c80c49cac669,Soho The Sun Will Rise,09:00,1hr,WC2H 0EW,51.515109,-0.130276,Soho Recovery Centre,123 Charing Cross Rd,tuck.drum.transit,Saturday,False,False,False,True,All mtgs 'open'.,,,London Croydon Epsom and Sutton,London (South),England,Alcoholics Anonymous
80758fa3-47a7-5357-bb28-5ba9d3df4b69,Isle Of Lewis: First Stornoway,20:00,2hrs,HS1 2NF,58.209191,-6.38359,AA Hall,Francis St (Behind Free Church Seminary),butterfly.visit.rich,Monday,False,True,False,False,,,,London North East,London (North),England,Alcoholics Anonymous
cda8d219-ca06-5861-8cdf-f0f8830642bc,Isle Of Lewis: First Stornoway,13:00,2hrs,HS1 2NF,58.209191,-6.38359,AA Hall,Francis St (Behind Free Church Seminary),butterfly.visit.rich,Wednesday,False,True,False,False,,,,London North East,London (North),England,Alcoholics Anonymous
b80bd2b1-8cf6-5c64-a951-f89dfbba9709,Isle Of Lewis: First Stornoway,20:00,2hrs,HS1 2NF,58.209191,-6.38359,AA Hall,Francis St (Behind Free Church Seminary),butterfly.visit.rich,Saturday,False,True,False,False,,,,London North East,London (North),England,Alcoholics Anonymous
8a4f1ea9-233b-5599-9e31-71c41a95d343,Isle Of Lewis: First Stornoway,20:00,2hrs,HS1 2NF,58.209191,-6.38359,AA Hall,Francis St (Behind Free Church Seminary),butterfly.visit.rich,Sunday,False,True,False,False,,,,London North East,London (North),England,Alcoholics Anonymous
589d2157-4e8c-5274-b01b-97b0db6aeb00,Isle Of Lewis: First Stornoway,20:00,2hrs,HS1 2NF,58.209191,-6.38359,AA Hall,Francis St (Behind Free Church Seminary),butterfly.visit.rich,Friday,False,True,False,False,,,,London North East,London (North),England,Alcoholics Anonymous
7de360ee-794c-590c-abb8-4798592f39bf,Chesterfield Big Book Reading,19:30,1hr 30mins,S40 1QU,53.233684,-1.428356,Chesterfield Community Centre,Tontine Rd,rarely.wiped.onion,Tuesday,False,True,False,True,Last Tues each month 'open'.,,,London North Kent,London (South),England,Alcoholics Anonymous
e3306c04-4bd9-552c-8ba0-d4fba1eb0004,Shipston-On-Stour,19:30,1hr 30mins,CV36 4DY,52.066217,-1.632041,Parish Centre,"Catholic Church Of Our Lady & St Michael,Darlingscote Rd",dumpling.gadget.operated,Friday,False,True,False,True,'Open' mtgs on request.,,,London North Kent,London (South),England,Alcoholics Anonymous
2eea0797-449b-5ea3-bdda-d7f79291230d,Hampstead,20:00,1hr,NW3 7SU,51.557435,-0.193101,St Lukes Church,12 Kidderpore Ave,hang.monday.loving,Thursday,False,True,False,False,,,,London North West,London (North),England,Alcoholics Anonymous
796683d4-9e08-516c-81f9-4757d9b4dca9,Soho The Sun Will Rise,07:30,1hr,WC2H 0EW,51.515109,-0.130276,Soho Recovery Centre,123 Charing Cross Rd,tuck.drum.transit,Thursday,False,False,False,True,All mtgs 'open'.,,,London South,London (South),England,Alcoholics Anonymous
64eab555-e207-5207-80d3-dd11b735bce6,Soho The Sun Will Rise,07:30,1hr,WC2H 0EW,51.515109,-0.130276,Soho Recovery Centre,123 Charing Cross Rd,tuck.drum.transit,Friday,False,False,False,True,All mtgs 'open'.,,,London South,London (South),England,Alcoholics Anonymous
e1e51492-65e2-5e4f-b43a-868fc596db1a,Soho The Sun Will Rise,07:30,1hr,WC2H 0EW,51.515109,-0.130276,Soho Recovery Centre,123 Charing Cross Rd,tuck.drum.transit,Monday,False,False,False,True,All mtgs 'open'.,,,London South,London (South),England,Alcoholics Anonymous
85c9bc85-6350-5432-bd81-6a2a8a1a3089,Uttoxeter Big Book Study,18:30,1hr,ST14 8EY,52.897565,-1.867241,Friends Meeting House,Carter St,laugh.strutted.moth,Thursday,False,True,False,False,,,,London South,London (South),England,Alcoholics Anonymous
a7df8c9e-69b6-5e8a-b43b-290fcd8b2f1d,West End Step,15:00,1hr,W1U 2QJ,51.517293,-0.151201,Hinde Street Methodist Church,19 Thayer St,thus.tune.rivers,Saturday,False,False,False,True,All mtgs 'open'.,,Mtg held in parlour.,London South,London (South),England,Alcoholics Anonymous
668c70fd-b7d7-5b62-b621-1d20b7b41b90,Lewes Daily Reflections Hybrid,07:30,1hr,BN7 2NS,50.873688,0.011874,House Of Friendship,208 High St,reboot.resort.handover,Thursday,False,False,False,True,All mtgs 'open'.,,Also held on Zoom - Meeting ID: 955 4584 9677 Passcode: 470777,London South East (East),London (South),England,Alcoholics Anonymous
2e5223bd-c6f8-55d3-8132-6d2a3c220ca5,West End Source Of Power Russian Speaking,19:30,1hr,W1U 2QJ,51.517293,-0.151201,Hinde Street Methodist Church,19 Thayer St,thus.tune.rivers,Friday,False,False,False,False,,,"Russian speaking International AA group. We meet at 19.15, meeting starts at 19.30. Please bring your coffee/tea with you.",London South East (East),London (South),England,Alcoholics Anonymous
e04efaec-5ed7-5d31-bf91-efe5398da984,Chesterfield Daily Reflection,13:00,1hr 30mins,S40 1QU,53.233684,-1.428356,Chesterfield Community Centre,Tontine Rd,rarely.wiped.onion,Monday,False,True,False,True,'Open' mtgs on request.,,,London South Middlesex,London (North),England,Alcoholics Anonymous
19d3fdaa-dc54-58ea-84eb-ad88b58cee87,Durham Multi-Mtg,12:15,1hr,DH1 4SQ,54.777058,-1.580636,Shakespeare Hall (Green Door- Above Parkins Clothing),"Durham Community Association,North Rd",lion.energy.blows,Wednesday,False,False,False,True,1st Wed each month 'open'.,,,London South Middlesex,London (North),England,Alcoholics Anonymous
49dc1d41-2ed3-5560-bd73-4c950b14f3ad,Grays Step & Tradition,20:00,1hr 30mins,RM17 6LN,51.474086,0.321477,The Church Hall,West St,leans.fine.spends,Monday,False,True,True,True,All mtgs 'open'.,,Chit system available.,London South Middlesex,London (North),England,Alcoholics Anonymous
f84826e8-f487-5180-8fb2-a347419b7df2,Hampstead Newcomers Hybrid,18:30,1hr,NW3 7SU,51.557435,-0.193101,St Lukes Church,12 Kidderpore Ave,hang.monday.loving,Thursday,False,False,False,True,All mtgs 'open'.,,Also held on Zoom: https://us02web.zoom.us/j/81941054154ID: 819 4105 4154Find your local number: https://us02web.zoom.us/u/kbGAzz3chy,London South Middlesex,London (North),England,Alcoholics Anonymous
f1d8f7d5-175b-5f03-928a-14d43d0e3854,Kentish Town Newcomers,18:30,1hr,NW5 2XT,51.551567,-0.137598,Our Lady Of Help Church,4 Lady Margaret Rd,appear.puns.extra,Wednesday,False,True,True,True,All mtgs 'open'.,,Chit system available.,London South West,London (South),England,Alcoholics Anonymous
754345d0-dcc0-5541-80b4-2ac25b9244b2,Ringwood,19:45,1hr 15mins,BH24 1DN,50.845414,-1.789998,Wesley Centre,34A Christchurch Rd,slogans.interlude.airstrip,Wednesday,False,False,True,True,All mtgs 'open'.,,Chit system available.,London South West,London (South),England,Alcoholics Anonymous
d0db0ed0-6acc-5bd0-998f-78df92b0603f,Tunbridge Wells Later Recovery,08:30,1hr,TN1 2LY,51.131573,0.266848,St Augustines Catholic Church,Crescent Rd,broke.ready.return,Saturday,False,False,False,True,All mtgs 'open'.,,,London South West,London (South),England,Alcoholics Anonymous
dc1dbf51-e8aa-5127-a3cc-c84758753b24,Tunbridge Wells Step & Tradition,20:00,1hr,TN1 2LY,51.131573,0.266848,St Augustines Catholic Church,Crescent Rd,broke.ready.return,Thursday,False,False,True,False,,,,London South West,London (South),England,Alcoholics Anonymous
52392954-a443-5724-a819-09a2e86d967f,Wimbledon As Bill Sees It,19:30,1hr 30mins,SW19 1SB,51.41968,-0.194508,Holy Trinity Church,234 The Broadway,pulse.glad.zoom,Thursday,False,True,False,True,All mtgs 'open'.,,,London South West,London (South),England,Alcoholics Anonymous
6089d05a-cc42-5da1-8934-04b873e3f64e,Slough Lunchtime,13:00,1hr 15mins,SL1 1PJ,51.506702,-0.594621,St Marys Church,Church St,acid.makes.stuck,Tuesday,False,False,True,True,All mtgs 'open'.,,Chit system available.,London West End,London (North),England,Alcoholics Anonymous
6f583958-6235-5984-8c09-3858fc009781,Soho Chips At 6,18:00,1hr,WC2H 0EW,51.515109,-0.130276,Soho Recovery Centre,123 Charing Cross Rd,tuck.drum.transit,Monday,False,False,False,True,All mtgs 'open'.,,,London West End,London (North),England,Alcoholics Anonymous
85f96bba-6746-58bd-8da5-12aa5997d99e,Soho Early Days,13:00,1hr,WC2H 0EW,51.515109,-0.130276,Soho Recovery Centre,123 Charing Cross Rd,tuck.drum.transit,Friday,False,False,False,True,All mtgs 'open'.,,,London West End,London (North),England,Alcoholics Anonymous
9140cab9-c51a-5b45-a95e-f7e3e91507bc,Soho Friday 6Pm,18:00,1hr,WC2H 0EW,51.515109,-0.130276,Soho Recovery Centre,123 Charing Cross Rd,tuck.drum.transit,Friday,False,False,False,True,Al mtgs 'open'.,,,London West End,London (North),England,Alcoholics Anonymous
b322ad92-dba9-519e-a530-faff478bee2c,Soho La Puerta Negra Spanish Speaking,16:30,1hr,WC2H 0EW,51.515109,-0.130276,Soho Recovery Centre,123 Charing Cross Rd,tuck.drum.transit,Sunday,False,False,False,False,,,,London West End,London (North),England,Alcoholics Anonymous
37a2e132-bbe9-5832-adb8-78f4844b5ff9,Soho Live & Let Live LGBT,18:00,1hr,WC2H 0EW,51.515109,-0.130276,Soho Recovery Centre,123 Charing Cross Rd,tuck.drum.transit,Saturday,False,False,True,True,All mtgs 'open'.,,,London West End,London (North),England,Alcoholics Anonymous
d8e7b5e3-58b6-5215-ad2f-93cf326b269a,Soho Spiritual Concepts LGBTQI Physical & Online,12:00,1hr,WC2H 0EW,51.515109,-0.130276,Soho Recovery Centre,123 Charing Cross Rd,tuck.drum.transit,Sunday,False,False,False,True,All mtgs 'open'.,,Also held on zoom - https://us02web.zoom.us/j/85112097867,London West End,London (North),England,Alcoholics Anonymous
66e19257-68c8-5d2b-ab74-a48b01e2e303,Soho St Giles,14:30,1hr,WC2H 0EW,51.515109,-0.130276,Soho Recovery Centre,123 Charing Cross Rd,tuck.drum.transit,Monday,False,True,False,False,,,,London West End,London (North),England,Alcoholics Anonymous
9fa61b89-068f-5c43-b451-e6607a3e3887,West End Live And Let Live LGBT,15:00,1hr,WC2H 0EW,51.515109,-0.130276,Soho Recovery Centre,123 Charing Cross Rd,tuck.drum.transit,Sunday,False,False,False,False,,,,London West End,London (North),England,Alcoholics Anonymous
969420d0-f57a-5c29-b848-65f0622a6a30,Chesterfield Step & Tradition,19:30,1hr 30mins,S40 1QU,53.233684,-1.428356,Chesterfield Community Centre,Tontine Rd,rarely.wiped.onion,Thursday,False,False,False,True,All mtgs 'open'.,,,London Westway,London (North),England,Alcoholics Anonymous
015424d2-f6a2-5e06-92ff-16e4b7e578e6,Ashford Prayer & Meditation,20:00,1hr 30mins,TW15 2QR,51.435234,-0.467797,Methodist Church Hall,Clarendon Rd,palm.pizza.grabs,Friday,False,True,True,True,All mtgs 'open'.,,,Manchester,North West,England,Alcoholics Anonymous
37ff246f-03cb-5960-aefd-726329d0043c,Ockley Discussion,19:45,1hr 15mins,RH5 5SY,51.15178,-0.357884,Ockley Village Hall,Stane St (A29),daytime.ambushed.resources,Sunday,False,True,False,True,All mtgs 'open'.,,,Merseyside and South West Lancs,North West,England,Alcoholics Anonymous
936ca5d1-483e-53cc-b891-98fd6f6130c8,Guildford Just For Today,12:00,1hr,GU1 3JH,51.236111,-0.55837,The Spike,Warren Rd,pitch.transmitted.remind,Thursday,False,True,False,True,All mtgs 'open'.,,,Mid Surrey,South East,England,Alcoholics Anonymous
222973a9-1206-5845-a318-c7d8e7de0508,Waltham Cross,20:00,,EN8 7DP,51.689157,-0.032847,St Josephs Church Hall,204 High St (Access Is At The Rear Of The Church Via The Car Park),evenly.puzzle.worth,Sunday,False,False,False,True,All mtgs 'open'.,,Meeting will be open from 19.30 for 20.00 start.,Mid Surrey,South East,England,Alcoholics Anonymous
b7d6f22e-88f1-5d60-8179-811bd0d9931c,Grays Chair & Chip,20:00,1hr 30mins,RM17 6LN,51.474086,0.321477,The Church Hall,West St,leans.fine.spends,Thursday,False,True,False,True,All mtgs 'open'.,,,North East Anglian,Eastern,England,Alcoholics Anonymous
8523a825-7079-502d-a3e5-c7a593b46745,Hull Afternoon Step,13:15,1hr,HU3 2EY,53.740699,-0.349091,Salvation Army (Ice House),80 Adelaide St,towns.mugs.flood,Wednesday,True,True,True,True,All mtgs 'open'.,,Chit system available.,North East Anglian,Eastern,England,Alcoholics Anonymous
d225ddbf-8008-5006-961c-bd0d8b4c8e61,Lourdes Big Book Study,11:00,1hr 30mins,G52 3QU,55.845663,-4.336523,Lourdes Chapel Hall,"51 Lourdes Ave,Paisley Rd West",tricky.tunes.loft,Tuesday,False,True,False,False,,,Doors open at 10. We are in the church hall to the left of church.,North East Anglian,Eastern,England,Alcoholics Anonymous
5b3fd404-62c1-554d-b8fc-4f845d506913,Northampton Francis St,19:00,1hr,NN1 2NZ,52.242443,-0.902944,20 Francis St,Just Off Grafton St,modest.apples.lost,Friday,False,False,False,False,,,,North East Anglian,Eastern,England,Alcoholics Anonymous
416b2b67-2552-518c-868e-6cc8304f0c67,Northampton Francis St Reflections,19:00,1hr,NN1 2NZ,52.242443,-0.902944,20 Francis St,Just Off Grafton St,modest.apples.lost,Monday,False,False,True,True,All mtgs 'open'.,,,North East Anglian,Eastern,England,Alcoholics Anonymous
36b5d7a3-5b21-5ecb-8a0f-00455a6ff862,Northampton Francis St: A Vision For You,19:00,1hr,NN1 2NZ,52.242443,-0.902944,20 Francis St,Just Off Grafton St,modest.apples.lost,Saturday,False,True,True,True,All mtgs 'open'.,,Chit system available.,North East Anglian,Eastern,England,Alcoholics Anonymous
21b8c0b0-adc2-53ea-9ecb-8af5e1302150,Reading Is Fundamental LGBTQIA+ Big Book Study,19:30,1hr,N16 7UE,51.556499,-0.07229,St Paul's West Hackney,184 Stoke Newington Rd,matter.camera.fever,Monday,False,True,False,False,,,Access is via the side entrance of the Church Hall on Amhurst Rd.,North East Surrey,South East,England,Alcoholics Anonymous
076d1dbc-9713-59bf-a98f-d12b37d24200,Walworth Balfour Street,19:00,1hr 15mins,SE17 1PL,51.493225,-0.091398,67 Balfour St,"Off New Kent Rd,Elephant & Castle",richer.areas.pools,Sunday,False,True,False,True,All mtgs 'open'.,,,North East Surrey,South East,England,Alcoholics Anonymous
c6e6036f-d380-5bf8-baf2-675fd3942f07,Chertsey Men's Feelings,19:30,1hr 30mins,KT16 9AS,51.390974,-0.504787,Above Revive Coffee Shop,99 Guildford St,ports.pipes.moods,Thursday,False,True,False,True,'Open' mtgs on request.,,,North East Wales,North West,England,Alcoholics Anonymous
9aa22a00-3a9c-5dd8-8f8d-6befd5ef06df,Soho The Sun Will Rise,09:00,1hr,WC2H 0EW,51.515109,-0.130276,Soho Recovery Centre,123 Charing Cross Rd,tuck.drum.transit,Sunday,False,False,False,True,All mtgs 'open'.,,,North Thames,Eastern,England,Alcoholics Anonymous
10e19272-0385-586a-89fb-64843c07f940,Cardigan Newcomers,17:00,1hr 30mins,SA43 1BU,52.083483,-4.658882,Mount Zion Baptist Church,Priory St,responded.alleyway.subject,Saturday,False,False,False,True,'Open' mtgs on request.,,,North West,North West,England,Alcoholics Anonymous
73acec9b-bc0d-5e32-909f-6adec952d65f,Chippenham Big Book Study,18:30,1hr,SN15 1HB,51.459956,-2.118986,Salvation Army Hall,Froghamshire,elections.skewing.spacing,Monday,False,False,False,True,'Open' mtgs on request.,,,North West,North West,England,Alcoholics Anonymous
1e51597a-7aae-5b84-b025-2a2d6ffb93aa,Wimbledon Three Legacies,19:30,1hr 30 mins,SW19 1SB,51.41968,-0.194508,Holy Trinity Church,234 The Broadway,pulse.glad.zoom,Wednesday,False,True,False,True,All mtgs 'open'.,,,Northdown,South East,England,Alcoholics Anonymous
11a4d1b1-f1ec-5b9a-92a5-310673dfd494,Leicester Daily Reflections,20:00,1hr 30mins,LE2 1WP,52.619534,-1.117306,Friends Meeting House,16 Queen's Rd,burst.river.after,Tuesday,False,False,False,False,,,,Nottinghamshire or Leicestershire,Midlands,England,Alcoholics Anonymous
06339a4f-dcaf-55bd-8fd5-fde162be6bb4,Norwich Slonecznik Polish Speaking,18:00,1hr,NR5 8ND,52.631425,1.235428,West Earlham Community Centre,8 Wilberforce Rd,repay.punks.stars,Monday,False,False,True,True,All mtgs 'open'.,,Chit system available.,Nottinghamshire or Leicestershire,Midlands,England,Alcoholics Anonymous
e4ff01de-7d1d-5a81-8577-bc91609cb153,Nottingham,19:30,,NG1 5AE,52.954581,-1.156353,St Barnabus Cathedral Hall,Off Derby Rd,owners.full.rang,Saturday,False,False,False,True,Last Sat each mnth 'open'.,,,Nottinghamshire or Leicestershire,Midlands,England,Alcoholics Anonymous
91e535a3-75c6-5f35-9ec9-ec376b4a8b4f,Bordon,20:00,1hr 15mins,GU35 0AU,51.11271,-0.863941,Sacred Heart Church,High St,headset.thankful.materials,Friday,False,True,False,True,Last Fri each month 'open'.,,,Poole and District,South West,England,Alcoholics Anonymous
34e72b98-4293-5e6a-8e6d-63d0468ebd41,Crediton Big Book Study,19:30,1hr,EX17 3AW,50.790097,-3.655873,Crediton Methodist Church,Union Rd,buzzing.gossiping.usual,Friday,False,True,False,False,,,,Potteries and District,Midlands,England,Alcoholics Anonymous
d1d60099-ba11-5256-9d4a-40f3b8cc1812,Newcastle George St,10:30,1hr 30mins,NE4 7JN,54.967175,-1.625817,George Street Social,45-51 George St,voter.groom.needed,Monday,False,False,False,False,,,,Potteries and District,Midlands,England,Alcoholics Anonymous
b2fda7b2-f54a-52eb-8607-03b732e2b566,Newcastle George St General Chair & Share,10:30,1hr 15mins,NE4 7JN,54.967175,-1.625817,George Street Social,45-51 George St,voter.groom.needed,Thursday,False,False,False,False,,,,Potteries and District,Midlands,England,Alcoholics Anonymous
7567cb24-039b-5b8a-acb5-46254d4b9a25,Newcastle LGBTQ (Intimacy In Recovery),10:30,1hr 30mins,NE4 7JN,54.967175,-1.625817,George Street Social,45-51 George St,voter.groom.needed,Sunday,False,False,False,False,,,,Potteries and District,Midlands,England,Alcoholics Anonymous
1ec07b15-1e1c-521b-b2bc-53488a87ea61,Stockport It Works - It Really Does,19:00,1hr 30mins,SK3 9DX,53.403366,-2.165094,York St Community Centre,York St,office.resist.riding,Friday,False,True,False,False,,,,Potteries and District,Midlands,England,Alcoholics Anonymous
28cfa180-97f7-54aa-b7fa-a92584c91636,Milton Keynes Topic,20:00,1hr,MK9 1LR,52.033925,-0.77208,The Old Bus Station,401 Elder Gate,organist.riding.bravest,Wednesday,False,True,False,True,All mtgs 'open'.,,,Somerset,South West,England,Alcoholics Anonymous
1ef686da-04a7-5cad-8a00-b692032658e8,Oxford Bonn Square,19:30,1hr 30mins,OX1 1LQ,51.751901,-1.260296,New Road Baptist Church,"Bonn Sq,Westgate",steps.newly.stove,Wednesday,False,False,False,False,,,"Access is at the back of Bonn Sq, to the right hand side of the church.",South Devon,South West,England,Alcoholics Anonymous
40dc83dc-1da1-5ec9-875c-585e8014f1d0,City Breakfast,07:30,1hr,EC3V 9EA,51.512477,-0.086272,St Edmund The King Church,Lombard St (Side Entrance In George Yard),calls.values.hooks,Monday,False,True,True,True,All mtgs 'open'.,,No mtg Bank Holiday.,South East Anglian,Eastern,England,Alcoholics Anonymous
d0b93600-1522-56cb-85f0-9ee60fcedfa7,Ormskirk Trudge The Road To Happy Destiny,18:15,1hr,L39 7JE,53.564077,-2.969335,Haskayne Village Hall,109 School Ln,noun.unto.disprove,Tuesday,False,True,False,False,,,,South Midlands,South Midlands,England,Alcoholics Anonymous
3f6a0117-1e05-5c7e-a566-3b6ee53eab0a,Sheerwater A Desire To Stop Drinking,19:30,1hr,GU21 5PJ,51.333789,-0.528021,St Michael's Church,"Dartmouth Avenue,Sheerwater",bleak.filer.grid,Monday,False,True,False,False,,,,South Yorkshire and North East Derbyshire,North East,England,Alcoholics Anonymous
83a169b2-cdf5-5654-abe3-f2656067c419,Pershore Big Book Study,19:30,1hr 30mins,WR10 1DT,52.111436,-2.076369,St Andrew's Centre (Opp The Abbey),Church Walk,tiny.catchers.intention,Tuesday,False,False,False,True,'Open' mtgs on request.,,,Southdown,South East,England,Alcoholics Anonymous
050a7e11-dd4b-5859-a01d-814ffda34f04,Sutton-In-Ashfield Story's To Maintain Recovery,19:30,1hr 30mins,NG17 4HN,53.129429,-1.241666,Pretty Polly Bowls Club,Unwin Rd,window.reef.nuns,Thursday,False,True,False,True,All mtgs 'open'.,,,Swansea and District,Wales and Borders,England,Alcoholics Anonymous
364ebccb-8ffd-5a79-ac64-e437ac5bd6df,Newbury Chair Hybrid,20:00,1hr 30mins,RG14 5DS,51.398529,-1.32303,Friends Meeting House,1 Highfield Ave,birds.depend.sorry,Thursday,False,True,False,True,1st Thur each mnth 'open'.,,Zoom Meeting ID: 882 5620 9173 Password: Thursday21,Thames Valley,South Midlands,England,Alcoholics Anonymous
ab02cf2d-0c4a-5516-88f8-be20c5ebada7,Chesham,11:00,1hr,HP5 1DS,51.704914,-0.61389,Chesham Town Hall,Parsonage Ln,farm.intent.wiring,Sunday,False,True,True,True,All mtgs 'open'.,,Chit system available.,Tyne and Northumbria,North East,England,Alcoholics Anonymous
a4c5c0e2-578d-5aeb-9b89-ef1cbaf60d55,Newcastle Saturday Clubhouse,10:30,1hr,NE4 7JN,54.967175,-1.625817,George Street Social,45-51 George St,voter.groom.needed,Saturday,False,False,False,False,,,Topic meeting. Fellowship before and after in the cafe downstairs (open 9.30am - 12.30pm),Tyne and Northumbria,North East,England,Alcoholics Anonymous
a6ade1b9-ea0e-5986-999c-5ba275ac5b41,Soho The Sun Will Rise,07:30,1hr,WC2H 0EW,51.515109,-0.130276,Soho Recovery Centre,123 Charing Cross Rd,tuck.drum.transit,Tuesday,False,False,False,True,All mtgs 'open'.,,,Tyne and Northumbria,North East,England,Alcoholics Anonymous
66824344-1b42-5646-8adf-a438010094a7,Stroud Women In Recovery,18:30,1hr,GL5 1DF,51.746861,-2.213281,The Exchange,Brick Row,reheat.charts.replied,Thursday,False,False,False,False,,,,Tyne and Northumbria,North East,England,Alcoholics Anonymous
e2a0d583-7eba-5be5-b702-8ba775294722,Colwyn Bay Lunchtime,13:30,1hr 30mins,LL29 7UU,53.296218,-3.73626,St Joseph's Community Centre,6 Brackley Ave,fits.chips.return,Tuesday,False,True,False,True,'Open' mtgs on request.,,,Tyrone,Northern Ireland,England,Alcoholics Anonymous
42c045dc-71d9-5ab2-bdb2-d8fab00744a7,Gatley Hill House,10:00,1hr 30mins,SK8 4EY,53.390423,-2.239836,Gatley Hill House Community Centre,"Church Rd,Gatley",spill.apple.roses,Saturday,False,True,False,False,,,,West Kent,South East,England,Alcoholics Anonymous
e9d83128-abf5-5bf2-867c-463cc2d04678,Gatley Hill House,19:30,1hr 30mins,SK8 4EY,53.390423,-2.239836,Gatley Hill House Community Centre,"Church Rd,Gatley",spill.apple.roses,Monday,False,True,False,False,,,Open Bank Holiday Mondays,West Kent,South East,England,Alcoholics Anonymous
e180ab96-fa15-5248-8991-2a19289420ac,Tunbridge Wells,19:30,1hr 30mins,TN1 2LY,51.131573,0.266848,St Augustines Catholic Church,Crescent Rd,broke.ready.return,Monday,False,False,True,True,2nd Mon each month 'open'.,,Chit system available.,West Kent,South East,England,Alcoholics Anonymous
da4e4772-93d9-56be-8126-f341a1c927dd,Tunbridge Wells,19:30,1hr,TN1 2LY,51.131573,0.266848,St Augustines Catholic Church,Crescent Rd,broke.ready.return,Wednesday,False,False,False,True,'Open' mtgs on request.,,,West Kent,South East,England,Alcoholics Anonymous
4dfc535e-1c79-5818-bd97-d8f1f044f2d0,Tunbridge Wells,19:15,1hr,TN1 2LY,51.131573,0.266848,St Augustines Catholic Church,Crescent Rd,broke.ready.return,Sunday,False,False,True,True,1st Sun each mnth 'open'.,,Chit system available.,West Kent,South East,England,Alcoholics Anonymous
d7c8ecc8-a027-5ae8-bf7f-309d3c057e63,Weymouth Littlemoor,19:30,1hr 30mins,DT3 6SJ,50.648525,-2.456155,St Francis Of Assisi Church Hall,"Merredin Close,Littlemoor",concluded.dozed.plunge,Saturday,False,True,False,False,,,,West Lothian,Scotland,England,Alcoholics Anonymous
6e0334f1-3eca-5d02-9044-a31157da64c6,Ilford Barkingside Recovery Hybrid,12:30,1hr 30mins,IG2 6TU,51.580873,0.072123,Gants Hill Methodist Church,"18 Gants Hill Cres,Barkingside (Cranbrook Rd End)",cowboy.backs.ranks,Thursday,False,False,False,True,All mtgs 'open'.,,This is a physical & Zoom mtg with a camera in the room broadcasting to those attending the mtg online. https://us04web.zoom.us/j/3091060680 P/w 1234.,West Riding,North East,England,Alcoholics Anonymous
4edc5e95-2916-5261-8359-1713beed0265,Leeds Cross Gates - There Is A Solution,19:30,1hr,LS15 8JB,53.811142,-1.446204,Manston St James Church Hall,Off Sandbed Ln,wells.clues.admire,Thursday,False,True,False,True,All mtgs 'open'.,,,West Riding,North East,England,Alcoholics Anonymous
1d8bd91c-a61f-55b0-b0ef-d1a50961d743,Leeds Cross Gates - There Is A Solution,19:00,1hr,LS15 8JB,53.811142,-1.446204,Manston St James Church Hall,Off Sandbed Ln,banana.junior.cabin,Saturday,False,True,False,True,All mtgs 'open'.,,,West Riding,North East,England,Alcoholics Anonymous
56499ded-3d44-5c61-bd3d-c83cbf8abf4d,Leeds Droga Do Trzezwosci/Road To Sobriety Polish Spoken,12:30,1hr,LS7 4JE,53.823322,-1.531128,Room 4,"Polish Catholic Centre,Newton Hill Rd",refers.foods.supply,Sunday,False,False,False,True,1st Sun each month 'open'.,,,West Riding,North East,England,Alcoholics Anonymous
833ec6f8-b875-567c-b21d-acc7088ad689,Horden,19:30,1hr,SR8 4JY,54.76363,-1.312195,The Salvation Army,"Dene St,Horden",scare.hype.cards,Thursday,False,True,False,False,,,,West Sussex,South East,England,Alcoholics Anonymous
96596b29-b9c4-5147-be7e-577de8cf9436,Hadleigh,20:00,1hr 30mins,IP7 5AG,52.042136,0.954842,The Seminar Room,"Hadleigh Library,29 High St",reporter.quantity.differ,Friday,False,True,True,True,All mtgs 'open'.,,Chit system available.,West Yorkshire,North East,England,Alcoholics Anonymous
31206d03-baf2-5f82-973f-8b23ac115c8d,Newcastle George St,10:30,1hr 30mins,NE4 7JN,54.967175,-1.625817,George Street Social,45-51 George St,voter.groom.needed,Wednesday,False,False,True,True,All mtgs 'open'.,,,Wicklow,Republic of Ireland,England,Alcoholics Anonymous
778aaddd-e7b0-5deb-8d07-13cc31c17a83,Market Harborough Women In Sobriety,12:00,1hr 30mins,LE16 7JD,52.481151,-0.922196,Market Harborough Congregational Church,"High St,Bowden Ln",nuptials.printouts.loitering,Saturday,True,True,False,True,Closed 'Open' on request.,,"Enter the meeting on the Bowden Lane entrance, through the glass doors, up the stairs and turn left into the Langton Room.",Wiltshire and Bath,South Midlands,England,Alcoholics Anonymous
4f15fdfe-be80-51db-9dbe-3f5125d4e030,Thornbury: Discussion,20:00,,BS35 2QX,51.587796,-2.531049,Jubilee Hall,"Greenhill Rd,Alveston Nr Thornbury",abandons.websites.film,Tuesday,False,True,False,False,,,,Wiltshire and Bath,South Midlands,England,Alcoholics Anonymous
25cd9817-71dd-51f1-a5d2-3f51f392a1b4,Timsbury Traditions,19:30,1hr,BA2 0JQ,51.32842,-2.476722,Conygre Hall,"North Rd,Timsbury",media.barstool.chat,Monday,False,True,True,True,All mtgs 'open'.,,Chit system available.,Wiltshire and Bath,South Midlands,England,Alcoholics Anonymous
7e3d1073-8d59-5da2-bd0b-e854d0d0c082,Castlewellan,20:00,,BT31 9JR,54.282458,-5.904451,Kilmegan Centre,"Main Street,Castlewellan,Co. Down",rhino.helped.whizzing,Monday,False,False,False,False,,,"Last Friday of Month Tradition Meeting
To request link to online meeting, email U113@alcoholicsanonymous.ie",,,Northern Ireland,Alcoholics Anonymous
62889bff-94bc-5abb-964c-813e4c19286f,Castlewellan,20:00,,BT31 9JR,54.282458,-5.904451,Kilmegan Centre,"Main Street,Castlewellan,Co. Down",rhino.helped.whizzing,Wednesday,False,False,False,False,,,"Last Friday of Month Tradition Meeting
To request link to online meeting, email U113@alcoholicsanonymous.ie",,,Northern Ireland,Alcoholics Anonymous
f7e8bf47-b04a-5db2-9b9b-a58b71a251cb,Downpatrick,20:30,,BT30 6DN,54.32469,-5.713084,St. Patrick's Church,"St Patrick's Avenue,Downpatrick,Co. Down",taxed.under.park,Friday,False,False,False,False,,,,,,Northern Ireland,Alcoholics Anonymous
694ad5b5-f46b-5f72-a195-440fda607b95,Kilkeel,20:30,,BT34 4HB,54.068753,-6.034792,St. Colman's Hall,"Drumcro Road,Kilkeel,Co. Down",loved.fuzz.register,Tuesday,False,False,False,False,,Steps,,,,Northern Ireland,Alcoholics Anonymous
9b30055d-480b-5154-8f8e-e889c8b0d851,Kilkeel,20:30,,BT34 4HB,54.068753,-6.034792,St. Colman's Hall,"Drumcro Road,Kilkeel,Co. Down",loved.fuzz.register,Sunday,False,False,False,False,,,,,,Northern Ireland,Alcoholics Anonymous
d70d2210-ce17-5e37-94d0-dc58e50e9a43,North Down,20:30,,BT23 4AS,54.59374,-5.706072,Lough House,"Ards Hospital,Church Street,Newtownards,Co. Down",erupt.slid.viewer,Monday,False,False,False,False,,,,,,Northern Ireland,Alcoholics Anonymous
89f79430-d348-5d61-a68f-ef97fc227624,Newry Trevor Hill Group,19:30,,BT34 1DN,54.178255,-6.334944,,"11C Trevor Hill,3Rd Floor,Newry,Co. Down",tells.cake.chats,Friday,False,False,False,False,,,,Armagh,Northern Ireland,Northern Ireland,Alcoholics Anonymous
aad16a19-bd65-5871-8aba-29ae8254a6cd,Warrenpoint Burren AA Group,20:30,,BT34 3PU,54.127607,-6.26376,,"84 Milltown Street,Burren,Warrenpoint,Co. Down",traders.fatigued.tree,Tuesday,False,False,False,False,,,,Birmingham,Midlands,Northern Ireland,Alcoholics Anonymous
e3d6e57a-66cf-547f-a751-3db107d3fec4,Warrenpoint Burren AA Group,13:00,,BT34 3PU,54.127607,-6.26376,,"84 Milltown Street,Burren,Warrenpoint,Co. Down",traders.fatigued.tree,Thursday,False,False,False,False,,,,Birmingham,Midlands,Northern Ireland,Alcoholics Anonymous
dd6b45cb-e56f-5e65-a109-d4d3383edda7,North Down,20:30,,BT23 4AS,54.59374,-5.706072,Lough House,"Ards Hospital,Church Street,Newtownards,Co. Down",erupt.slid.viewer,Friday,False,False,False,False,,,,Cheshire East,North West,Northern Ireland,Alcoholics Anonymous
2aca310e-8987-5374-8fce-ac91e27becfa,North Down,20:30,,BT23 4AS,54.59374,-5.706072,Lough House,"Ards Hospital,Church Street,Newtownards,Co. Down",erupt.slid.viewer,Saturday,False,False,False,False,,,,Cheshire East,North West,Northern Ireland,Alcoholics Anonymous
c4fad49c-dd3d-54d6-8904-839df1fe8215,North Down,11:30,,BT23 4AS,54.59374,-5.706072,Lough House,"Ards Hospital,Church Street,Newtownards,Co. Down",erupt.slid.viewer,Sunday,False,False,False,False,,,,Cheshire East,North West,Northern Ireland,Alcoholics Anonymous
f4616da3-3b25-50ae-80c3-358ea9f42d69,North Down,19:00,,BT23 4AS,54.59374,-5.706072,Lough House,"Ards Hospital,Church Street,Newtownards,Co. Down",erupt.slid.viewer,Sunday,False,False,False,False,,,,Cheshire East,North West,Northern Ireland,Alcoholics Anonymous
48cd300a-bbd7-57f3-b1c4-2cd19c14e32d,Ballynahinch,20:30,,BT24 8JH,54.401662,-5.917103,,"22 Edenvaddy Road,Ballynahinch,Co. Down",spindles.football.square,Tuesday,False,False,False,False,,,,Cork,Republic of Ireland,Northern Ireland,Alcoholics Anonymous
13b26f60-c449-5558-aea6-18621672668f,Ballynahinch,19:30,,BT24 8JH,54.401662,-5.917103,,"22 Edenvaddy Road,Ballynahinch,Co. Down",spindles.football.square,Friday,False,False,False,False,,,,Cork,Republic of Ireland,Northern Ireland,Alcoholics Anonymous
138eb13f-2def-506f-a32b-7913663ce1d2,Ballynahinch,20:30,,BT24 8JH,54.401662,-5.917103,,"22 Edenvaddy Road,Ballynahinch,Co. Down",spindles.football.square,Saturday,False,False,False,False,,Steps,,Cork,Republic of Ireland,Northern Ireland,Alcoholics Anonymous
e66ec986-b526-5342-8b8c-1a0d028d5b09,Banbridge,20:00,,BT32 4PD,54.359982,-6.27357,,"2A Kiln Lane,Havelock Park,Lurgan Road,Banbridge,Co. Down",covertly.installs.presented,Tuesday,False,False,False,False,,,,Cork,Republic of Ireland,Northern Ireland,Alcoholics Anonymous
1114764b-ef42-5c7f-9720-37acaa911001,Banbridge,13:00,,BT32 4PD,54.359982,-6.27357,,"2A Kiln Lane,Havelock Park,Lurgan Road,Banbridge,Co. Down",covertly.installs.presented,Wednesday,False,False,False,False,,,,Cork,Republic of Ireland,Northern Ireland,Alcoholics Anonymous
32f16630-7b06-59a1-89b1-2a0cb49ee640,Banbridge,19:00,,BT32 4PD,54.359982,-6.27357,,"2A Kiln Lane,Havelock Park,Lurgan Road,Banbridge,Co. Down",covertly.installs.presented,Friday,False,False,False,False,,,,Cork,Republic of Ireland,Northern Ireland,Alcoholics Anonymous
30d8bae7-f4c1-5261-98bb-9fa010f15729,Banbridge,19:00,,BT32 4PD,54.359982,-6.27357,,"2A Kiln Lane,Havelock Park,Lurgan Road,Banbridge,Co. Down",covertly.installs.presented,Saturday,False,False,False,False,,Beginner,,Cork,Republic of Ireland,Northern Ireland,Alcoholics Anonymous
b91367fe-b2e6-577b-9bc8-9dfba0146cef,Banbridge,10:00,,BT32 4PD,54.359982,-6.27357,,"2A Kiln Lane,Havelock Park,Lurgan Road,Banbridge,Co. Down",covertly.installs.presented,Sunday,False,False,False,False,,Big Book,,Cork,Republic of Ireland,Northern Ireland,Alcoholics Anonymous
90d32513-8086-557a-be70-733a34ebeef2,Banbridge,20:00,,BT32 4PD,54.359982,-6.27357,,"2A Kiln Lane,Havelock Park,Lurgan Road,Banbridge,Co. Down",covertly.installs.presented,Sunday,False,False,False,False,,Steps,,Cork,Republic of Ireland,Northern Ireland,Alcoholics Anonymous
407c40cf-7c6e-5b95-acbc-7fcbf3f99e8b,Sion Mills,20:30,,BT82 9NR,54.783774,-7.481274,Sion Mills Community Association,"2 Garden Road,Strabane,Co. Tyrone",generals.galleries.lifeboats,Tuesday,False,False,False,False,,Steps,,Cork,Republic of Ireland,Northern Ireland,Alcoholics Anonymous
2466c39a-5f4c-55ff-a79c-7293427b15e0,Warrenpoint Burren AA Group,20:00,,BT34 3PU,54.127607,-6.26376,,"84 Milltown Street,Burren,Warrenpoint,Co. Down",traders.fatigued.tree,Saturday,False,False,False,False,,Steps,,Coventry and Warwickshire,Midlands,Northern Ireland,Alcoholics Anonymous
4197e4b4-13f1-534d-98cc-2dcf90c1fee0,Donaghadee,19:30,,BT21 0BL,54.639286,-5.535934,,"24A Killaughey Road,Donaghadee,Co. Down",thumps.tins.discloses,Monday,False,False,False,False,,,Zoom Meeting: To request link to online meeting email u114@alcoholicsanonymous.ie,Donegal,Republic of Ireland,Northern Ireland,Alcoholics Anonymous
de436d63-5e5c-56c6-85d4-fd32beae1a5c,Newry Trevor Hill Group,20:00,,BT34 1DN,54.178255,-6.334944,,"11C Trevor Hill,3Rd Floor,Newry,Co. Down",tells.cake.chats,Monday,False,False,False,False,,,,Donegal,Republic of Ireland,Northern Ireland,Alcoholics Anonymous
545dc0ce-856c-5a2e-9454-65e3b12e05f4,Newry Trevor Hill Group,20:00,,BT34 1DN,54.178255,-6.334944,,"11C Trevor Hill,3Rd Floor,Newry,Co. Down",tells.cake.chats,Wednesday,False,False,False,False,,,,Donegal,Republic of Ireland,Northern Ireland,Alcoholics Anonymous
62dda496-9f74-5c9d-ae8b-6a0bd02df782,Ballynahinch,20:30,,BT24 8JH,54.401662,-5.917103,,"22 Edenvaddy Road,Ballynahinch,Co. Down",spindles.football.square,Sunday,False,False,False,False,,,,Dublin,Republic of Ireland,Northern Ireland,Alcoholics Anonymous
76122b7d-5de5-5abf-9b6c-106d42bede4e,Donaghadee,19:30,,BT21 0BL,54.639286,-5.535934,,"24A Killaughey Road,Donaghadee,Co. Down",thumps.tins.discloses,Wednesday,False,False,False,False,,,Zoom Meeting: To request link to online meeting email u114@alcoholicsanonymous.ie,Dublin,Republic of Ireland,Northern Ireland,Alcoholics Anonymous
4f3db0ee-6a56-5cb5-bfb0-82451abef702,Donaghadee,19:30,,BT21 0BL,54.639286,-5.535934,,"24A Killaughey Road,Donaghadee,Co. Down",thumps.tins.discloses,Friday,False,False,False,False,,,Zoom Meeting: To request link to online meeting email u114@alcoholicsanonymous.ie,Dublin,Republic of Ireland,Northern Ireland,Alcoholics Anonymous
b59b817b-bce3-51c5-bfeb-ed5f563544f0,Donaghadee,19:30,,BT21 0BL,54.639286,-5.535934,,"24A Killaughey Road,Donaghadee,Co. Down",thumps.tins.discloses,Sunday,False,False,False,False,,,Zoom Meeting: To request link to online meeting email u114@alcoholicsanonymous.ie,Dublin,Republic of Ireland,Northern Ireland,Alcoholics Anonymous
9f53cd75-ab2f-5bf0-b72b-8103c3261dd5,Newcastle,12:30,,BT33 0EY,54.198889,-5.888792,,"5 Causeway Road,Newcastle,Co. Down",horseshoe.barefoot.mergers,Thursday,False,False,False,False,,,To request a link to an online meeting please send an email to U120@alcoholicsanonymous.ie,Dublin,Republic of Ireland,Northern Ireland,Alcoholics Anonymous
ba991e37-9e94-545e-95a6-97686dcb9c90,Newcastle,20:30,,BT33 0EY,54.198889,-5.888792,,"5 Causeway Road,Newcastle,Co. Down",horseshoe.barefoot.mergers,Thursday,False,False,False,False,,,To request a link to an online meeting please send an email to U120@alcoholicsanonymous.ie,Dublin,Republic of Ireland,Northern Ireland,Alcoholics Anonymous
95071c75-55fb-5e93-8f73-2772188fbddb,Bangor,20:30,,BT20 4LF,54.660892,-5.665399,Hamilton Road Community Hub,"39 Hamilton Road,Bangor,Co. Down",edges.former.submit,Friday,False,False,False,True,,,Note - Last Friday of the Month 20.30 Open Meeting & Physical,Durham and Cleveland,North East,Northern Ireland,Alcoholics Anonymous
ad308f8c-6041-5951-b9a2-420abe35ba4a,Bangor,20:30,,BT20 4LF,54.660892,-5.665399,Hamilton Road Community Hub,"39 Hamilton Road,Bangor,Co. Down",edges.former.submit,Tuesday,False,False,False,True,,,Note - Last Friday of the Month 20.30 Open Meeting & Physical,East London,London (North),Northern Ireland,Alcoholics Anonymous
734fdef3-0017-5783-8ff4-99564a85e817,Holywood Group,19:00,,BT18 9DP,54.640637,-5.834955,,"52A Church View,Holywood,Co. Down",scale.performed.stubble,Saturday,False,False,False,False,,,"Zoom Meeting: Meeting ID - 7306243475
Password - R3covery20",East London,London (North),Northern Ireland,Alcoholics Anonymous
757a0b0c-86ca-5486-909d-95f7ed0b2eb7,Bangor,20:30,,BT20 4LF,54.660892,-5.665399,Hamilton Road Community Hub,"39 Hamilton Road,Bangor,Co. Down",edges.former.submit,Thursday,False,False,False,True,,,Note - Last Friday of the Month 20.30 Open Meeting & Physical,Galway,Republic of Ireland,Northern Ireland,Alcoholics Anonymous
237b9ae4-cf81-5240-824a-eaa8d6cba618,Bangor,12:30,,BT20 4LF,54.660892,-5.665399,Hamilton Road Community Hub,"39 Hamilton Road,Bangor,Co. Down",edges.former.submit,Wednesday,False,False,False,True,,,Note - Last Friday of the Month 20.30 Open Meeting & Physical,Inverness and District,Highland and Islands,Northern Ireland,Alcoholics Anonymous
6ff3f442-2f0e-5b76-8be9-f9762bbc87e9,Holywood Group,20:00,,BT18 9DP,54.640637,-5.834955,,"52A Church View,Holywood,Co. Down",scale.performed.stubble,Tuesday,False,False,False,False,,,"Zoom Meeting: Meeting ID - 7306243475
Password - R3covery20",Lincolnshire,Midlands,Northern Ireland,Alcoholics Anonymous
4f47e5ac-8438-52ab-a62e-786e3e1c812d,Belfast Rosetta,20:30,,BT7 3HX,54.569472,-5.913593,Newtownbreda Presbyterian Church,"374 - 378 Ormeau Road,Belfast,Co. Antrim",units.march.smoke,Friday,False,False,False,False,,,,London Chelsea,London (North),Northern Ireland,Alcoholics Anonymous
a2862c23-0fad-5e36-810e-66ac8d7a857e,Belfast Rosetta,20:30,,BT7 3HX,54.569472,-5.913593,Newtownbreda Presbyterian Church,"374 - 378 Ormeau Road,Belfast,Co. Antrim",units.march.smoke,Sunday,False,False,False,False,,,,London Chelsea,London (North),Northern Ireland,Alcoholics Anonymous
ea240e2b-2f16-5aff-bc31-e8a7524349ef,Crossgar,20:00,,BT30 9EQ,54.391054,-5.754939,Tobar Mhuire Retreat & Conference Centre,"16A Downpatrick Road,Crossgar,Down",furniture.vote.nourished,Thursday,False,False,False,False,,,Step meetings each last Thursday of the month.,London Croydon Epsom and Sutton,London (South),Northern Ireland,Alcoholics Anonymous
196ba19e-c68d-5150-9139-3b122a8e2129,Rostrevor,19:30,,BT34 3BB,54.102505,-6.194955,Harmony Hall,"Church Street,Rostrevor,Co. Down",quilting.highlighted.kingpin,Tuesday,False,False,False,False,,,Behind School House Restaurant,London North Middlesex,London (North),Northern Ireland,Alcoholics Anonymous
c1ea9255-2a18-534e-b813-daba777b9f58,Rostrevor,20:30,,BT34 3BB,54.102505,-6.194955,Harmony Hall,"Church Street,Rostrevor,Co. Down",quilting.highlighted.kingpin,Friday,False,False,False,False,,Steps,Behind School House Restaurant,London North Middlesex,London (North),Northern Ireland,Alcoholics Anonymous
9c7995bb-6969-535f-921f-0f00c3c269b7,Bangor,12:30,,BT20 4LF,54.660892,-5.665399,Hamilton Road Community Hub,"39 Hamilton Road,Bangor,Co. Down",edges.former.submit,Sunday,False,False,False,True,,,Note - Last Friday of the Month 20.30 Open Meeting & Physical,London South West,London (South),Northern Ireland,Alcoholics Anonymous
c0569bba-8f44-5a52-ba9a-c593fe08567b,Rostrevor,10:30,,BT34 3BB,54.102505,-6.194955,Harmony Hall,"Church Street,Rostrevor,Co. Down",quilting.highlighted.kingpin,Sunday,False,False,False,False,,,Behind School House Restaurant,Merseyside and South West Lancs,North West,Northern Ireland,Alcoholics Anonymous
156666b5-f0c2-5aa1-bcd2-407a91a38c03,Rostrevor,20:30,,BT34 3BB,54.102505,-6.194955,Harmony Hall,"Church Street,Rostrevor,Co. Down",quilting.highlighted.kingpin,Sunday,False,False,False,False,,,Behind School House Restaurant,Merseyside and South West Lancs,North West,Northern Ireland,Alcoholics Anonymous
74bd9384-1f2c-5db4-b398-e221662d9f1d,Warrenpoint,20:00,,BT34 3NG,54.099365,-6.253704,St. Peter's Church,"Parish Centre,St. Peter's Street,Warrenpoint,Co. Down",clubs.speeded.paler,Thursday,False,False,False,False,,,Step meeting 1st Thursday of month,Merseyside and South West Lancs,North West,Northern Ireland,Alcoholics Anonymous
e2e5086f-715b-539c-b8f8-225b21c9e75a,Ardglass,20:30,,BT30 7RS,54.262295,-5.609063,Dudsford Old School,"Tollumgrange Road,Ardglass,Co. Down",hitters.bordering.call,Monday,False,False,False,False,,,,North and East Ayrshire,South West Scotland,Northern Ireland,Alcoholics Anonymous
2c60c4f4-3fd9-594b-83da-06e590aedc81,Ardglass,20:30,,BT30 7RS,54.262295,-5.609063,Dudsford Old School,"Tollumgrange Road,Ardglass,Co. Down",hitters.bordering.call,Thursday,False,False,False,False,,Steps,,North and East Ayrshire,South West Scotland,Northern Ireland,Alcoholics Anonymous
d9bf655f-1bb5-5f98-a597-e829f0503cc7,North Down,20:30,,BT23 4AS,54.59374,-5.706072,Lough House,"Ards Hospital,Church Street,Newtownards,Co. Down",erupt.slid.viewer,Tuesday,False,False,False,False,,,,North East Wales,North West,Northern Ireland,Alcoholics Anonymous
efb39a54-ed9c-5813-a053-d57cd5348bbc,Hilltown Group,20:30,,BT34 5UY,54.201049,-6.131519,Parochial House,"17 Castlewellan Road,Ballymaghery,Hilltown,Co. Down",migrants.amid.expressed,Sunday,False,False,False,False,,,,North Herts and North Beds,Eastern,Northern Ireland,Alcoholics Anonymous
33524e07-4fe3-5f70-b341-e710794e2296,Holywood Group,19:00,,BT18 9DP,54.640637,-5.834955,,"52A Church View,Holywood,Co. Down",scale.performed.stubble,Sunday,False,False,False,False,,Tradition,"Zoom Meeting: Meeting ID - 7306243475
Password - R3covery20",North Thames,Eastern,Northern Ireland,Alcoholics Anonymous
92653b98-d0b3-508d-a660-24978e71511d,South Down Recover,18:30,,BT33 0SJ,54.213373,-5.888221,,"1 Savoy Lane,Newcastle,Down",portable.earphones.delivers,Friday,False,False,False,True,,,New groups opens on Friday 22nd September 2023,Solent,South East,Northern Ireland,Alcoholics Anonymous
66a0b27b-9d5f-52f1-905d-209466e23638,Newcastle,12:30,,BT33 0EY,54.198889,-5.888792,,"5 Causeway Road,Newcastle,Co. Down",horseshoe.barefoot.mergers,Monday,False,False,False,False,,,To request a link to an online meeting please send an email to U120@alcoholicsanonymous.ie,Tyne and Northumbria,North East,Northern Ireland,Alcoholics Anonymous
23f0f8f6-bdab-578a-ba29-79be49e877fc,Newcastle,12:30,,BT33 0EY,54.198889,-5.888792,,"5 Causeway Road,Newcastle,Co. Down",horseshoe.barefoot.mergers,Tuesday,False,False,False,False,,,To request a link to an online meeting please send an email to U120@alcoholicsanonymous.ie,Tyne and Northumbria,North East,Northern Ireland,Alcoholics Anonymous
165f352c-7696-529f-96d2-690fbe75d65a,Newcastle,12:30,,BT33 0EY,54.198889,-5.888792,,"5 Causeway Road,Newcastle,Co. Down",horseshoe.barefoot.mergers,Friday,False,False,False,False,,,To request a link to an online meeting please send an email to U120@alcoholicsanonymous.ie,Tyne and Northumbria,North East,Northern Ireland,Alcoholics Anonymous
a60ea6c7-9452-5b64-8559-1912af483f93,Newcastle,12:30,,BT33 0EY,54.198889,-5.888792,,"5 Causeway Road,Newcastle,Co. Down",horseshoe.barefoot.mergers,Saturday,False,False,False,False,,,To request a link to an online meeting please send an email to U120@alcoholicsanonymous.ie,Tyne and Northumbria,North East,Northern Ireland,Alcoholics Anonymous
a3df5e78-aa29-5f62-bbd3-bea3e9d021c4,Newcastle,20:30,,BT33 0EY,54.198889,-5.888792,,"5 Causeway Road,Newcastle,Co. Down",horseshoe.barefoot.mergers,Saturday,False,False,False,False,,Steps,To request a link to an online meeting please send an email to U120@alcoholicsanonymous.ie,Tyne and Northumbria,North East,Northern Ireland,Alcoholics Anonymous
156ccebe-7549-55ea-8674-ab078f3775c5,Newcastle,12:00,,BT33 0EY,54.198889,-5.888792,,"5 Causeway Road,Newcastle,Co. Down",horseshoe.barefoot.mergers,Sunday,False,False,False,False,,,To request a link to an online meeting please send an email to U120@alcoholicsanonymous.ie,Tyne and Northumbria,North East,Northern Ireland,Alcoholics Anonymous
8f66fc45-3d7b-5ca7-9b42-004b59c4c6dd,Newcastle,12:30,,BT33 0EY,54.198889,-5.888792,,"5 Causeway Road,Newcastle,Co. Down",horseshoe.barefoot.mergers,Wednesday,False,False,False,False,,,To request a link to an online meeting please send an email to U120@alcoholicsanonymous.ie,Wicklow,Republic of Ireland,Northern Ireland,Alcoholics Anonymous
b2ac973a-e542-5ba1-a524-ee2eae7c96ff,Ardara,11:00,,,54.7643862,-8.4078801,Community Centre Hillhead,"Ardara,Co. Donegal",innovations.blinders.dimmed,Thursday,False,False,False,False,,,,,,Republic of Ireland,Alcoholics Anonymous
faa1d8c5-e94b-5983-8526-4356ab112eac,Athboy Group,20:30,,C15 P280,53.6202232,-6.9213359,Àthboy Convent Community Centre,"(Formaly Mercy Convent),Beechgrove,Athboy,Co. Meath",suspecting.fairly.postmodern,Sunday,False,False,False,False,,,Ring Bell to gain entry,,,Republic of Ireland,Alcoholics Anonymous
6b8f6fd0-a167-5403-b09a-d92c8aa9d4a7,Kildysart,20:30,,,52.6739738,-9.1075349,Rear Of Community Centre,"Main Street,Kildysart,Co. Clare",setting.consulted.demanding,Sunday,False,False,False,False,,,,,,Republic of Ireland,Alcoholics Anonymous
1bfa78a7-6cef-5994-a368-11602e9550aa,Kilkee,12:00,,,52.6828228,-9.6444116,Sacristy,"Rear Of RC Church,Kilkee,Co. Clare",yellowing.absorbent.appealed,Sunday,False,False,False,False,,,"Sacristy, Rear of RC Church",,,Republic of Ireland,Alcoholics Anonymous
01dfae5c-b9a7-559d-9c79-f629e882cb65,Kilkenny Friends Of Bill & Bob,20:30,,R95 P5HC,52.6487598,-7.2539984,Desart Hall,"Lower New Street,Kilkenny,Kilkenny",sending.tangerine.protruding,Wednesday,False,False,False,True,,Steps,"Open Meeting First Saturday 6.00pm
Extra Christmas Meetings:
•	11am Monday 25th December 2023
•	11am Tuesday 26th December 2023
•	11am Monday 1st January 2024",,,Republic of Ireland,Alcoholics Anonymous
92bb3ed5-9253-5fd7-ab66-4fdc64e3edc3,Kilkenny Friends Of Bill & Bob,20:30,,R95 P5HC,52.6487598,-7.2539984,Desart Hall,"Lower New Street,Kilkenny,Kilkenny",sending.tangerine.protruding,Friday,False,False,False,True,,,"Open Meeting First Saturday 6.00pm
Extra Christmas Meetings:
•	11am Monday 25th December 2023
•	11am Tuesday 26th December 2023
•	11am Monday 1st January 2024",,,Republic of Ireland,Alcoholics Anonymous
759cee27-7876-520c-9adf-d405780ca0d7,Kilkenny Friends Of Bill & Bob,18:00,,R95 P5HC,52.6487598,-7.2539984,Desart Hall,"Lower New Street,Kilkenny,Kilkenny",sending.tangerine.protruding,Saturday,False,False,False,True,,,"Open Meeting First Saturday 6.00pm
Extra Christmas Meetings:
•	11am Monday 25th December 2023
•	11am Tuesday 26th December 2023
•	11am Monday 1st January 2024",,,Republic of Ireland,Alcoholics Anonymous
77bc7df9-ceea-500e-b209-4ff7be4e179d,Kilkenny Friends Of Bill & Bob,11:00,,R95 P5HC,52.6487598,-7.2539984,Desart Hall,"Lower New Street,Kilkenny,Kilkenny",sending.tangerine.protruding,Sunday,False,False,False,True,,,"Open Meeting First Saturday 6.00pm
Extra Christmas Meetings:
•	11am Monday 25th December 2023
•	11am Tuesday 26th December 2023
•	11am Monday 1st January 2024",,,Republic of Ireland,Alcoholics Anonymous
d0dc54fe-faee-5d79-a691-99e313790c12,Knocknaheeney,20:15,,,51.9033026,-8.5051381,We The People,"U4 Hollyhill Shopping Centre,Knocknaheny,Cork City",mini.spicy.save,Sunday,False,False,False,False,,,,,,Republic of Ireland,Alcoholics Anonymous
8d76d0f9-faf3-5567-bd9e-45bd19f0b3b9,Navan Acceptance,20:30,,,53.647092,-6.6966605,St. Ann's Resource Centre,"Chapel Yard,St. Mary's Church,Fairgreen,Navan,Co. Meath",breed.pushed.curtains,Sunday,False,False,False,False,,,,,,Republic of Ireland,Alcoholics Anonymous
c359fc8d-52c1-5fa6-96bc-f9ffe3e43b4b,Newcastle Group 4,20:30,,D22 A2C8,53.2994661,-6.5014007,St Finians Church,"Main Street Upper,Newcastle,Dublin",academy.plop.mindlessly,Tuesday,False,False,False,True,,,Meeting in old school house on church grounds,,,Republic of Ireland,Alcoholics Anonymous
28c72046-de16-5f5e-8a33-3c1b40c70072,Newcastle Group 4,20:30,,D22 A2C8,53.2994661,-6.5014007,St Finians Church,"Main Street Upper,Newcastle,Dublin",academy.plop.mindlessly,Thursday,False,False,False,False,,Steps,Meeting in old school house on church grounds,,,Republic of Ireland,Alcoholics Anonymous
4c0670bd-6b93-5aba-8f95-dbca9e88722f,Newmarket,20:30,,,52.2140232,-9.0030815,James O'keefe Memorial Institute,"Newmarket,Co. Cork",ovens.genres.fixtures,Tuesday,False,False,False,True,,,,,,Republic of Ireland,Alcoholics Anonymous
b7bed540-0293-5b0e-8bc5-b178a78e4508,Newmarket,20:30,,,52.2140232,-9.0030815,James O'keefe Memorial Institute,"Newmarket,Co. Cork",ovens.genres.fixtures,Thursday,False,False,False,True,,,,,,Republic of Ireland,Alcoholics Anonymous
acc8ce44-dd31-55ee-a712-73b34f845534,Wexford Big Book,20:30,,,52.3374214,-6.4651255,FDYS Centre,"Francis Street,Wexford,Wexford",revert.electrics.hide,Sunday,False,False,False,False,,Big Book,,,,Republic of Ireland,Alcoholics Anonymous
6fbe71f0-c00c-5297-98c2-7d92f6104d31,Ballybunion,20:00,,V31 C440,52.5028381,-9.6677656,Respond Community Room,"Gleann Na Mara,Marconi Avenue,Ballybunion,Co. Kerry",metabolism.sentimental.windup,Saturday,False,False,False,False,,,,Antrim,Northern Ireland,Republic of Ireland,Alcoholics Anonymous
65f35d3d-48c8-5e4d-9155-9c0582b75a5b,Macroom,20:30,,,51.9056537,-8.96377,Pitch And Putt Club House,"Town Park,Macroom,Co. Cork",tall.referral.induce,Wednesday,False,False,False,False,,,1st Monday of Month Step meeting,Armagh,Northern Ireland,Republic of Ireland,Alcoholics Anonymous
2b5ac573-9021-53cf-bb50-9650c95785d0,Trim Mustard Seed,20:30,,C15 V205,53.5524133,-6.7922728,Below Snooker Club,"Patrick Street,Trim,Co. Meath",redesigned.hospitals.clustering,Monday,False,False,False,False,,Tradition,"Open Online Public Meeting 1st Monday of month at 20.30
To request link to online meeting email L216@alcoholicsanonymous.ie",Ayrshire and South West Scotland,South West Scotland,Republic of Ireland,Alcoholics Anonymous
8a856504-e866-510f-b2c7-aa36f8e9b1e8,Hospital Town AA Group,20:30,,,52.4671988,-8.4313325,Family Resource,"Centre Knockainey Road,Hospital,Co. Limerick",framed.wingspan.imitators,Wednesday,False,False,False,False,,,"Entry by back door
Hospital",Brighton Area,South East,Republic of Ireland,Alcoholics Anonymous
3bc75880-bfa0-5ffe-bff3-f7c35782d8d6,Churchtown Church Group,13:00,,,53.2942745,-6.2793871,Community Centre,"Nutgrove Avenue,Churchtown,Dublin 14",hang.trick.highs,Tuesday,False,False,False,False,,,Behind Good Shepherd Church,City Of London,London (North),Republic of Ireland,Alcoholics Anonymous
a83aedc1-bd00-5934-9a97-9ff673bad725,Churchtown Church Group,20:30,,,53.2942745,-6.2793871,Community Centre,"Nutgrove Avenue,Churchtown,Dublin 14",hang.trick.highs,Tuesday,False,False,False,False,,,Behind Good Shepherd Church,City Of London,London (North),Republic of Ireland,Alcoholics Anonymous
2bd3f0a3-0608-5ddc-9a65-02cf9d4460d2,Churchtown Church Group,18:30,,,53.2942745,-6.2793871,Community Centre,"Nutgrove Avenue,Churchtown,Dublin 14",hang.trick.highs,Thursday,False,False,False,False,,,Behind Good Shepherd Church,City Of London,London (North),Republic of Ireland,Alcoholics Anonymous
2cbfe34a-7bee-5558-a452-43a8c98a52b7,Churchtown Church Group,20:30,,,53.2942745,-6.2793871,Community Centre,"Nutgrove Avenue,Churchtown,Dublin 14",hang.trick.highs,Saturday,False,False,False,False,,Big Book,Behind Good Shepherd Church,City Of London,London (North),Republic of Ireland,Alcoholics Anonymous
df9019c8-ddb5-5a17-b668-c2f5f8a7fe6d,Churchtown Church Group,20:30,,,53.2942745,-6.2793871,Community Centre,"Nutgrove Avenue,Churchtown,Dublin 14",hang.trick.highs,Sunday,False,False,False,False,,,Behind Good Shepherd Church,City Of London,London (North),Republic of Ireland,Alcoholics Anonymous
37a0a1b6-e7a3-5c48-a49e-8c63283f02c0,Aghada AA,20:00,,P25 C576,51.8376377,-8.208432,Curragh,"Aghada District Community Centre,Aghada,Cork",friendly.whoops.theatrical,Wednesday,False,False,False,False,,,,Cork,Republic of Ireland,Republic of Ireland,Alcoholics Anonymous
86154612-5639-5de5-9e70-8cb3fddc2f87,Cork City Mayfield,20:30,,,51.9086181,-8.4479514,Roseville House,"Old Youghal Road,Mayfield,Cork City",names.draw.olive,Monday,False,False,False,False,,Steps,No meetings on a Bank Holiday.,Cork,Republic of Ireland,Republic of Ireland,Alcoholics Anonymous
25f8bd8a-0c97-522a-8c8d-5a41809d3f67,Cork City Mayfield,20:30,,,51.9086181,-8.4479514,Roseville House,"Old Youghal Road,Mayfield,Cork City",names.draw.olive,Tuesday,False,False,False,False,,,No meetings on a Bank Holiday.,Cork,Republic of Ireland,Republic of Ireland,Alcoholics Anonymous
9589693c-cd52-5797-b8b1-1fd171f2512e,Cork City Mayfield,20:30,,,51.9086181,-8.4479514,Roseville House,"Old Youghal Road,Mayfield,Cork City",names.draw.olive,Wednesday,False,False,False,False,,,No meetings on a Bank Holiday.,Cork,Republic of Ireland,Republic of Ireland,Alcoholics Anonymous
025eea0d-dc12-5cf2-8657-8074290eda81,Cork City Mayfield,20:30,,,51.9086181,-8.4479514,Roseville House,"Old Youghal Road,Mayfield,Cork City",names.draw.olive,Thursday,False,False,False,False,,,No meetings on a Bank Holiday.,Cork,Republic of Ireland,Republic of Ireland,Alcoholics Anonymous
03af6682-377b-5bb6-b253-bc2fe6fe5b41,Cork City Mayfield,20:30,,,51.9086181,-8.4479514,Roseville House,"Old Youghal Road,Mayfield,Cork City",names.draw.olive,Friday,False,False,False,False,,,No meetings on a Bank Holiday.,Cork,Republic of Ireland,Republic of Ireland,Alcoholics Anonymous
7c7f2838-5f62-5eba-8791-168b5c0c3b43,Cork City Mayfield,15:45,,,51.9086181,-8.4479514,Roseville House,"Old Youghal Road,Mayfield,Cork City",names.draw.olive,Saturday,False,False,False,False,,,No meetings on a Bank Holiday.,Cork,Republic of Ireland,Republic of Ireland,Alcoholics Anonymous
d79ce2b7-714f-5a3f-b1b0-5c9b23596ce3,Cork City Mayfield,12:30,,,51.9086181,-8.4479514,Roseville House,"Old Youghal Road,Mayfield,Cork City",names.draw.olive,Sunday,False,False,False,False,,,No meetings on a Bank Holiday.,Cork,Republic of Ireland,Republic of Ireland,Alcoholics Anonymous
57d07745-e6cd-567b-b5fd-4e33abb7f1c7,Cork City Mayfield,20:30,,,51.9086181,-8.4479514,Roseville House,"Old Youghal Road,Mayfield,Cork City",names.draw.olive,Sunday,False,False,False,False,,,No meetings on a Bank Holiday.,Cork,Republic of Ireland,Republic of Ireland,Alcoholics Anonymous
44cd8edf-ecd3-5c5a-b0e2-6efeb111502f,Cork City Rock Steps,18:00,,T23 F577,51.9018241,-8.481367,Rock Steps Community Centre,"Blarney Street,Cork City",market.enable.brand,Tuesday,False,False,False,False,,,,Cork,Republic of Ireland,Republic of Ireland,Alcoholics Anonymous
212fa0d6-7f79-575c-a65d-80873f7d4889,Cork City Rock Steps,18:00,,T23 F577,51.9018241,-8.481367,Rock Steps Community Centre,"Blarney Street,Cork City",market.enable.brand,Friday,False,False,False,False,,,,Cork,Republic of Ireland,Republic of Ireland,Alcoholics Anonymous
8de0077c-b072-5b6d-8d90-c0f84429195f,Rooskey AA Group,21:00,,N41 Y6V2,53.8330003,-7.9224941,Rooskey Community Centre,"Rooskey,Co. Roscommon",reversed.footer.stubbornly,Tuesday,False,False,False,False,,,,Cork,Republic of Ireland,Republic of Ireland,Alcoholics Anonymous
369ac295-cfe9-582c-ac3f-38eda06d5e31,Macroom,20:30,,,51.9056537,-8.96377,Pitch And Putt Club House,"Town Park,Macroom,Co. Cork",tall.referral.induce,Friday,False,False,False,False,,,1st Monday of Month Step meeting,Derry,Northern Ireland,Republic of Ireland,Alcoholics Anonymous
fc520342-8eda-5927-9f04-4cea705a595d,Macroom,19:00,,,51.9056537,-8.96377,Pitch And Putt Club House,"Town Park,Macroom,Co. Cork",tall.referral.induce,Saturday,False,False,False,False,,,1st Monday of Month Step meeting,Derry,Northern Ireland,Republic of Ireland,Alcoholics Anonymous
832c6e10-4b73-5d17-bc23-4f965d2f89e1,Macroom,19:00,,,51.9056537,-8.96377,Pitch And Putt Club House,"Town Park,Macroom,Co. Cork",tall.referral.induce,Sunday,False,False,False,False,,,1st Monday of Month Step meeting,Derry,Northern Ireland,Republic of Ireland,Alcoholics Anonymous
2cc266f4-8e32-553a-839f-763f72c083cf,Dromore West,20:30,,,54.276723,-8.4748435,Health Centre,"Sligo Road,Dromore West,Co. Sligo",observer.area.hurray,Wednesday,False,False,False,False,,Tradition,,Dublin,Republic of Ireland,Republic of Ireland,Alcoholics Anonymous
ca2f94f4-681f-5376-9b90-781071759ad0,Dublin Airport 1St,14:00,,,53.4258624,-6.2404618,The Sacristy,"Our Lady Queen Of Heaven Church,Dublin Airport,Swords,Co. Dublin",unwell.edgy.dreary,Wednesday,False,False,False,False,,,"Physical Meetings effective from March 1st 2023 onwards.
Zoom Meeting 
To request link to online meeting email L18@alcoholicsanonymous.ie",Dublin,Republic of Ireland,Republic of Ireland,Alcoholics Anonymous
7e362332-5977-50b2-9a5e-e12c7bcf289d,Dublin City Od Nowa,19:30,,,53.3436186,-6.2740661,St. Audeons Church,"High Street,Dublin City,Dublin 8",rocky.moment.pasta,Monday,False,False,False,True,,Steps & Tradition,"Polish spoken at this meeting.
First Monday of month is an Open meeting",Dublin,Republic of Ireland,Republic of Ireland,Alcoholics Anonymous
7e46a511-8aec-52de-8363-2fc2dcf8963a,Kinsale Red Cross,20:30,,,51.706402,-8.526701,Kinsale Red Cross Centre,"Butchers Row,Kinsale,Co. Cork",nerve.arrives.indigo,Sunday,False,False,False,False,,,,Fife,East of Scotland,Republic of Ireland,Alcoholics Anonymous
5c5ee136-f260-51f9-ad28-fb9793020da0,Kilrane,20:30,,,52.2414522,-6.3513653,Kilrane Community Centre,"Kilrane,Co. Wexford",fanatical.newcomer.handful,Thursday,False,False,False,False,,,,Forth Valley,Scotland,Republic of Ireland,Alcoholics Anonymous
79844b2b-c331-5e78-b806-2dc6f2d6cae7,Terenure Kimmage Manor,20:00,,,53.3084199,-6.3092362,Kimmage Manor,"Whitehall Road,Terenure,Dublin 12",exam.spend.case,Wednesday,False,False,False,False,,Steps,"Past the church, last building on the right.
To request link to online meeting email L109@alcoholicsanonymous.ie",Glasgow North West,Glasgow,Republic of Ireland,Alcoholics Anonymous
2c6e1236-575f-518c-bd92-2fedd38de00e,Ardee Recovery Group,20:30,,,53.8580131,-6.5343351,Cappocksgreen,"Seán O'carroll Street,Ardee,Co. Louth",opener.communal.returning,Tuesday,False,False,False,False,,,"Zoom Meeting: : 
To request link to online meeting email L188@alcoholicsanonymous.ie
Physical Meetings: Small building to the left of McCabes Car Sales",Kerry,Republic of Ireland,Republic of Ireland,Alcoholics Anonymous
b785f551-8f26-506d-8a53-dfcda3e94340,Ardee Recovery Group,20:30,,,53.8580131,-6.5343351,Cappocksgreen,"Seán O'carroll Street,Ardee,Co. Louth",opener.communal.returning,Saturday,False,False,False,False,,,"Zoom Meeting: : 
To request link to online meeting email L188@alcoholicsanonymous.ie
Physical Meetings: Small building to the left of McCabes Car Sales",Kerry,Republic of Ireland,Republic of Ireland,Alcoholics Anonymous
3c0cf9cb-4408-5358-a9c5-a3e4b32f75db,Ballybunion,20:00,,V31 C440,52.5028381,-9.6677656,Respond Community Room,"Gleann Na Mara,Marconi Avenue,Ballybunion,Co. Kerry",metabolism.sentimental.windup,Monday,False,False,False,False,,Steps,,Kerry,Republic of Ireland,Republic of Ireland,Alcoholics Anonymous
97abc441-769d-5a12-a875-7446d5de419a,Galway City Tir Na Nóg 3,22:00,,H91 H992,53.2723509,-9.0512706,,"4 St. Augustine Street,Youth Service,Galway City,Co. Galway",faces.every.wings,Saturday,False,False,False,False,,,,Liverpool City,North West,Republic of Ireland,Alcoholics Anonymous
971f185a-231e-5295-8e70-e01ce127175a,Terenure Kimmage Manor,20:00,,,53.3084199,-6.3092362,Kimmage Manor,"Whitehall Road,Terenure,Dublin 12",exam.spend.case,Sunday,False,False,False,False,,,"Past the church, last building on the right.
To request link to online meeting email L109@alcoholicsanonymous.ie",London Chelsea,London (North),Republic of Ireland,Alcoholics Anonymous
ffacad74-abad-5a9b-b1c0-71c8849bbccf,Sligo Town Ransboro,21:00,,,54.243611,-8.5405466,Sacristy,"Ransboro Church,Knocknahur,Sligo",glam.broads.trekker,Sunday,False,False,False,False,,,,London North,London (North),Republic of Ireland,Alcoholics Anonymous
dde4e0bd-2b8b-58ff-bc6b-e8e61b5e6845,Sligo Town Downtown AA Group,13:00,,,54.2696418,-8.4812469,St. Michael's Family Life Centre,"Churchill,Sligo Town,Sligo",string.gagging.copper,Saturday,False,False,False,False,,,"Tuesdays Meeting is in St Anns Church, Cranmore.",London North West,London (North),Republic of Ireland,Alcoholics Anonymous
5142d276-71a6-52c2-9cbe-363d9934cfbe,Terenure Kimmage Manor,20:00,,,53.3084199,-6.3092362,Kimmage Manor,"Whitehall Road,Terenure,Dublin 12",exam.spend.case,Monday,False,False,False,False,,,"Past the church, last building on the right.
To request link to online meeting email L109@alcoholicsanonymous.ie",London South,London (South),Republic of Ireland,Alcoholics Anonymous
1f28c717-1641-547e-8696-f064a92960ed,Knocknaheeney,20:15,,,51.9033026,-8.5051381,We The People,"U4 Hollyhill Shopping Centre,Knocknaheny,Cork City",mini.spicy.save,Tuesday,False,False,False,False,,,,London Westway,London (North),Republic of Ireland,Alcoholics Anonymous
77d4d289-f0e5-5460-9c79-1853e4af0407,Sligo Town Downtown AA Group,13:00,,,54.2696418,-8.4812469,St. Michael's Family Life Centre,"Churchill,Sligo Town,Sligo",string.gagging.copper,Tuesday,False,False,False,False,,,"Tuesdays Meeting is in St Anns Church, Cranmore.",London Westway,London (North),Republic of Ireland,Alcoholics Anonymous
61a4c18f-811d-56d0-b373-843305ac40d8,Monkstown Homecomers,18:30,,,53.293139,-6.1491962,Quaker Hall,"Packenham Road,Monkstown,Co. Dublin",stem.drag.thanks,Saturday,False,False,False,False,,,,Manchester,North West,Republic of Ireland,Alcoholics Anonymous
bcea5514-07b1-507a-9e91-10c95b344508,Youghal,11:00,,F36 F704,51.94609,-7.8458696,Colaiste Scoil Eoin,"(ETB),Golf Links Road,Youghal,Co. Cork",undertakes.fills.punks,Sunday,False,False,False,False,,,Tradition meeting 3rd Thursday of the month.,Mid Surrey,South East,Republic of Ireland,Alcoholics Anonymous
17a3d5d0-303b-5fc0-9dd7-3925fa891655,Kinsale Red Cross,20:30,,,51.706402,-8.526701,Kinsale Red Cross Centre,"Butchers Row,Kinsale,Co. Cork",nerve.arrives.indigo,Friday,False,False,False,False,,,,North Yorkshire,North East,Republic of Ireland,Alcoholics Anonymous
8c124a3d-eeac-5f64-81b1-f185edd36c90,Naas St David’S,20:30,,,53.2183375,-6.6631619,Porta Cabin Rear Of St. David's Church Of Ireland Church,"Main Street,Naas,Co. Kildare",cultivation.warrior.director,Monday,False,False,False,False,,,Meetings take place on Bank Holidays,Severn,South Midlands,Republic of Ireland,Alcoholics Anonymous
313a52f2-dbc0-502a-a02a-3bcf07f69c49,Templemore Monday Night,20:30,,,52.7973084,-7.8284609,Mcauley Community Centre Church Road,"Templemore,Co. Tipperary",complain.ulcer.recklessly,Monday,False,False,False,False,,,Across the road from St. Joseph's Primary School,Severn,South Midlands,Republic of Ireland,Alcoholics Anonymous
39305b38-97a9-5866-840d-1f8eab6335ec,Ballyroan,20:30,,,53.2925578,-6.3089033,Church Annex,"Ballyroan,Dublin 14",flames.puppy.gown,Thursday,False,False,False,False,,,Please note that the meeting is now in The ANNEX on the left hand side of the church.,South Midlands,South Midlands,Republic of Ireland,Alcoholics Anonymous
5b6ea28a-eb74-593e-9a59-fc94a03fce63,Newmarket,11:30,,,52.2140232,-9.0030815,James O'keefe Memorial Institute,"Newmarket,Co. Cork",ovens.genres.fixtures,Sunday,False,False,False,True,,,,Southdown,South East,Republic of Ireland,Alcoholics Anonymous
1915beb0-93c4-53f7-9295-6a0e61b3233d,Macroom,20:30,,,51.9056537,-8.96377,Pitch And Putt Club House,"Town Park,Macroom,Co. Cork",tall.referral.induce,Monday,False,False,False,False,,,1st Monday of Month Step meeting,Swansea and District,Wales and Borders,Republic of Ireland,Alcoholics Anonymous
61998bfb-07b9-576e-a50d-30f09bfdd24b,Galway City Tir Na Nóg 3,10:00,,H91 H992,53.2723509,-9.0512706,,"4 St. Augustine Street,Youth Service,Galway City,Co. Galway",faces.every.wings,Sunday,False,False,False,False,,,,Tyne and Northumbria,North East,Republic of Ireland,Alcoholics Anonymous
14b23ed3-4bac-5a3d-a66d-943c23414def,Monkstown Homecomers,20:30,,,53.293139,-6.1491962,Quaker Hall,"Packenham Road,Monkstown,Co. Dublin",stem.drag.thanks,Monday,False,False,False,False,,,,Welsh Borders,Wales and Borders,Republic of Ireland,Alcoholics Anonymous
02f34a3c-dccb-5e3c-8f12-94f1407cfac3,Monkstown Homecomers,20:30,,,53.293139,-6.1491962,Quaker Hall,"Packenham Road,Monkstown,Co. Dublin",stem.drag.thanks,Tuesday,False,False,False,False,,,,Welsh Borders,Wales and Borders,Republic of Ireland,Alcoholics Anonymous
f3e829a1-b4f9-5ce3-a97c-6f74cc56c9cb,Castlebar Group 1,21:00,,F23 XK68,53.858661,-9.3008024,Room 1,"The Parish Centre,Upper Chapel Street,Castlebar,Co. Mayo",desire.infects.amuse,Saturday,False,False,False,False,,,Meeting Downstairs,West Riding,North East,Republic of Ireland,Alcoholics Anonymous
a6754439-0388-52b9-9a3b-1315c6f8798b,Kinsale Red Cross,20:30,,,51.706402,-8.526701,Kinsale Red Cross Centre,"Butchers Row,Kinsale,Co. Cork",nerve.arrives.indigo,Tuesday,False,False,False,False,,,,West Riding,North East,Republic of Ireland,Alcoholics Anonymous
6fb75647-cb56-50ca-99f9-cdcf87b9dff7,Howth,20:30,,,53.3851444,-6.0652498,Parish Hall,"12 Main Street,Howth,Co. Dublin",middlemen.screwball.impound,Wednesday,False,False,False,False,,,2 Doors left of Post Office,West Yorkshire,North East,Republic of Ireland,Alcoholics Anonymous
f62dc285-8e6b-5770-afca-5a2b7acccd00,Trim Mustard Seed,20:30,,C15 V205,53.5524133,-6.7922728,Below Snooker Club,"Patrick Street,Trim,Co. Meath",redesigned.hospitals.clustering,Wednesday,False,False,False,False,,Steps,"Open Online Public Meeting 1st Monday of month at 20.30
To request link to online meeting email L216@alcoholicsanonymous.ie",Wiltshire and Bath,South Midlands,Republic of Ireland,Alcoholics Anonymous
2a04b4bd-212c-5889-9551-49c9073f7044,Aberdeen Citadel,13:30,1hr 30mins,AB11 5BG,57.148318,-2.09178,Aberdeen Citadel,Castle St,nails.scale.frost,Sunday,False,True,False,False,,,,Aberdeen and District,East of Scotland,Scotland,Alcoholics Anonymous
df994a0d-19ee-56d9-b8cf-90c02a4e3f55,Aberdeen Odrodzeni Polish Speaking,20:00,1hr 30mins,AB24 5QQ,57.16098,-2.094548,Linksfield Centre,8 Linksfield Pl,energy.clear.beard,Sunday,False,False,False,False,,,,Aberdeen and District,East of Scotland,Scotland,Alcoholics Anonymous
abd6cb9e-24f3-54f4-b278-926f4ca5b1c7,Aberdeen Salvation Army,13:00,1hr,AB11 5BG,57.148318,-2.09178,Aberdeen Citadel,Castle St,nails.scale.frost,Wednesday,False,True,True,False,,,Chit system available.,Aberdeen and District,East of Scotland,Scotland,Alcoholics Anonymous
d33aed82-55ff-5dc0-a0db-460c980163b3,Linlithgow,20:00,1hr 30mins,EH49 7DY,55.975429,-3.604972,St John's Church,Union Rd,cooks.apartment.gratitude,Tuesday,False,False,False,False,,,St John's Church is between New Well Wynd and Lion Well Wynd.,Antrim,Northern Ireland,Scotland,Alcoholics Anonymous
06311c57-243b-5781-8098-4172f94a373f,Cambuslang Courage To Change,20:00,1hr 30mins,G72 8PX,55.81344,-4.162037,Kirkhill Church Hall,4 Cairns Rd,alert.save.item,Saturday,False,True,False,True,All mtgs 'open'.,,,Armagh,Northern Ireland,Scotland,Alcoholics Anonymous
76f5c3d3-c452-5b47-9816-54b24d45dad7,Tillicoultry Living Sober,18:30,1hr,FK13 6DT,56.153184,-3.739917,The Annexe (Next To The Baptist Church),Murray Sq,rejects.signs.competing,Tuesday,False,False,False,True,'Open' mtgs on request.,,,Black Country,Midlands,Scotland,Alcoholics Anonymous
44760f7b-83bb-58cd-913c-c931ba648d9f,Paisley Abbey,20:00,1hr 30mins,PA1 1EP,55.845971,-4.421163,Methodist Central Hall,2 Gauze St(Side Door Entrance On Smithshill St),piano.even.fund,Friday,False,False,False,True,All mtgs 'open'.,,,Cork,Republic of Ireland,Scotland,Alcoholics Anonymous
68f86dc1-daca-59a4-8f7c-e17819faf24c,Cumbernauld 12 Step Recovery,20:00,,G67 2PR,55.945205,-3.978687,Carbrain Baptist Church,Greenrigg Rd,agent.trials.refers,Sunday,False,True,False,True,All mtgs 'open'.,,,Cumbernauld and District,Scotland,Scotland,Alcoholics Anonymous
c40ed946-aec0-50ff-98ae-d4a3a8468007,Erskine Young In Sobriety Big Book Study,19:30,1hr 15mins,PA8 6HS,55.903989,-4.453575,Erskine Parish Church - The Hub,1 Rashielee Ave,owner.claims.shed,Thursday,False,True,False,True,All mtgs 'open'.,,,Devon Central,South West,Scotland,Alcoholics Anonymous
1a7f4335-87f5-519a-b02d-0dff089ca46c,Campbeltown You Are Not Alone,18:00,1hr,PA28 6BQ,55.423115,-5.604218,St Keirans Church Hall,6 St John St,views.systems.robes,Monday,False,False,False,False,,,,East Kent,South East,Scotland,Alcoholics Anonymous
520ce9b1-e991-5142-b02c-336238ebb15e,Huntly,19:30,1hr 30mins,AB54 8BR,57.447553,-2.78582,Square Deal,The Square,heckler.tricky.caked,Tuesday,False,True,False,True,'Open' mtgs on request.,,,East Kent,South East,Scotland,Alcoholics Anonymous
45d4ec90-15fd-5630-b218-63ff3f090ec9,Ibrox,20:00,1hr 30mins,G41 5AD,55.844048,-4.299175,Sherbrooke Mosspark Parish Church,"240 Nithsdale Rd,Bellahouston",fixed.riders.hills,Monday,False,False,False,True,Al mtgs 'open'.,,,East London,London (North),Scotland,Alcoholics Anonymous
0fb73a17-a5e2-5285-ace4-8a1603802fe9,East Kilbride Newcomers 1St Step,20:00,1hr 30mins,G74 4JW,55.765863,-4.177193,West Kirk,"48 Kittoch St,Village",axed.first.jump,Saturday,False,True,True,True,All mtgs 'open'.,,Chit system available.,East Sussex,South East,Scotland,Alcoholics Anonymous
5fab5d2b-4d49-5ddb-b593-0d67a6d81c15,East Kilbride Thursday Morning,11:00,1hr 30mins,G74 3YA,55.771539,-4.141653,St Leonards Church,"Brancumhall Rd,St Leonards",nurse.mutual.proud,Thursday,False,True,True,False,,,,East Sussex,South East,Scotland,Alcoholics Anonymous
176e3557-a6dd-50fd-b3e0-039619cc6c64,1St Edinburgh,20:00,1hr 20mins,EH3 9JD,55.944077,-3.201439,Church Of The Sacred Heart,28 Lauriston St (Enter Blue Door Adjacent To Main Church),enter.critic.joins,Tuesday,False,True,False,True,Last Tues each month 'open',,,Edinburgh and Midlothian,Scotland,Scotland,Alcoholics Anonymous
ca219e73-ef76-5e65-a962-e854ae2d1134,Edinburgh Cluny,20:00,1hr 30mins,EH10 6BQ,55.924393,-3.208047,Morningside Parish Church,2 Cluny Gardens,riding.dates.shift,Sunday,False,True,False,True,All mtgs 'open'.,,1m distancing Face coverings unless sharing Track & Trace details kept for 21 days.,Edinburgh and Midlothian,Scotland,Scotland,Alcoholics Anonymous
8d297e1c-dfe5-58fd-8713-71c79113c729,Edinburgh LGBTQ Live & Let Live Physical & Online,20:00,45mins,EH6 8HW,55.969452,-3.167874,LGBT Heath & Wellbeing,"4 Duncan Pl,Leith",index.link.stud,Tuesday,False,False,False,True,4th Tuesday of the month is online only.,,"Meeting is also held online via Zoom Meeting ID: 787 8099 5604 passcode 000000 Social time from 745pm, meeting starts at 8pm",Edinburgh and Midlothian,Scotland,Scotland,Alcoholics Anonymous
f0d4de67-e884-59fd-a8d2-5afba1b472bc,Elderslie,12:00,,PA5 9AS,55.837268,-4.479493,Village Hall,Stoddard Sq,upon.city.friend,Thursday,False,True,False,False,,,,Fenland,Eastern,Scotland,Alcoholics Anonymous
38e58d38-e8cf-5b99-af17-20a675f6cd50,Larbert,10:00,1hr 30mins,FK5 4AB,56.020082,-3.834612,Salvation Army Community Church,Main St,washable.courts.accented,Monday,False,True,False,True,'Open' mtgs on request.,,,Lanarkshire,Scotland,Scotland,Alcoholics Anonymous
1a5a25a6-6e1c-5781-8022-533f39d71a00,Old Rosslynlee,20:00,1hr 30mins,EH22 3ND,55.880233,-3.090146,Midlothian Community Hospital,70 Eskbank Rd,speeds.love.print,Thursday,False,True,False,True,All mtgs 'open'.,,,London North Kent,London (South),Scotland,Alcoholics Anonymous
9b2fb9f1-a2b9-5701-aa51-0cb2a092b79f,Deans,20:00,2hrs,EH54 8BE,55.901174,-3.567199,St Andrews Church,"4A Glen Rd,Deans",wings.glee.means,Saturday,False,True,False,True,All mtgs 'open'.,,,London South East (East),London (South),Scotland,Alcoholics Anonymous
b3cb7957-c142-5179-8b98-74a48dc692a1,Whiteinch Big Book Discussion,20:00,1hr 30mins,G13 4EJ,55.89086,-4.38207,Yoker Parish Church,"10 Hawick St,Yoker",slowly.spike.rewarding,Friday,False,True,False,True,'Open' mtgs on request.,,,London South West,London (South),Scotland,Alcoholics Anonymous
126ab719-1e53-5134-a44e-463a4929a623,Airdrie St Edward's Afternoon,13:00,2hrs,ML6 9PZ,55.862163,-3.96579,St Edwards Church Hall,Lady Ann Cres,friend.tricky.occupy,Monday,False,True,False,True,All mtgs 'open'.,,,Monklands,Glasgow,Scotland,Alcoholics Anonymous
f969c0df-8167-5448-a874-8c381039d745,Inverurie,19:30,1hr 30mins,AB51 3SA,57.284187,-2.375965,Inveruire West Parish Church Hall,"Acorn Centre,West High St",inform.cobbles.gossiped,Thursday,False,True,False,False,,,what3 words: ///support.orbited.disarmed,South East Anglian,Eastern,Scotland,Alcoholics Anonymous
74e0e981-4ead-5030-a6fd-73935273423f,Bridge Of Weir,20:00,,PA11 3AE,55.855399,-4.576428,Freeland Church,Main St,loom.qualify.bids,Wednesday,False,True,False,True,All mtgs 'open'.,,,West Dorset,South West,Scotland,Alcoholics Anonymous
80918a33-9ffa-59bf-8c8f-0ff6c3708b88,"Tullibody Experience, Strength & Hope",19:30,1hr 15mins,FK10 2RY,56.130263,-3.842431,Tullisbody Leisure Centre,Abercromby Place,alarmed.lyricist.fuss,Friday,False,True,False,True,1st Friday of each month 'open'.,,,West Kent,South East,Scotland,Alcoholics Anonymous
5d5516b6-d651-5c19-9738-dbd16afc5f1e,Telford Daily Reflections,19:30,1hr 30mins,TF1 3AP,52.702651,-2.516882,St Patricks Church,"King St,Wellington",stuck.coping.hacking,Monday,False,False,False,True,4th Mon each mnth 'open'.,,,,,Wales,Alcoholics Anonymous
467574a4-e2d7-5e77-bee0-34c7213c4644,Newport Newcomers Big Book,19:30,1hr,NP20 0UU,51.5882553,-2.9880271,Rodney Parade,Rodney Rd,repay.ranked.atom,Tuesday,False,False,False,False,,,,Armagh,Northern Ireland,Wales,Alcoholics Anonymous
8b9c80e6-ebd9-5c3c-bc02-4d2f094b3df0,Cardiff,20:00,1hr,CF14 4XW,51.507156,-3.189855,Chapel - B-Block,"Heath Hospital (UHW),Heath Park Way",train.alarm.couches,Wednesday,False,False,False,False,,,,Cardiff and District,Wales and Borders,Wales,Alcoholics Anonymous
18bb4f26-fbdb-5441-84f9-75dd4793e8ac,Chepstow,20:00,1hr 15mins,NP16 5LH,51.640991,-2.67592,Room Above Town Arch,Town Centre,warp.rockets.laying,Thursday,False,False,False,True,'Open' mtgs on request.,,,Chester City,North West,Wales,Alcoholics Anonymous
3159f911-2006-5fac-9e08-421aca32eb2e,Neath,19:00,1hr,SA11 1AA,51.65657,-3.806237,Neath Methodist Church,12 Briton Ferry Rd,calms.ports.rent,Thursday,False,False,False,False,,,,East Lancs,North West,Wales,Alcoholics Anonymous
92446141-6d6e-535c-8135-857b39e89cc9,Bangor Penrhyn Hybrid,18:00,1hr,LL57 1PZ,53.228432,-4.113074,Penrhyn House,Llandegai Rd,mimed.ignore.coolest,Friday,False,False,False,True,All mtgs 'open'.,,Zoom Meeting ID: 555 675 5698 Password: 5698,London South West,London (South),Wales,Alcoholics Anonymous
3106fbdd-3e2f-5821-b970-55b83b4fffc5,Llandovery Lunchtime,12:30,1hr,SA20 0BD,51.994337,-3.801798,Church Of Our Lady's Church Hall,College View,twee.exile.truth,Monday,False,True,False,True,'Open' on request.,,,North West Wales,Wales and Borders,Wales,Alcoholics Anonymous
31ca8758-4ca7-5c7b-aab3-1b87973ce0b8,Llandrindod Wells Big Book,19:00,1hr,LD1 5HW,52.236758,-3.379052,Play Radnor,Temple St,sparkle.glorified.shelved,Friday,False,True,False,False,,,Meeting is held in the meeting room (through wooden gate),North West Wales,Wales and Borders,Wales,Alcoholics Anonymous
1269bb4f-7f5e-5ab7-8f3a-bda29c8cf97a,Newtown Step Hybrid,19:00,1hr 30mins,SY16 2BJ,52.517528,-3.316956,Catholic Church,"Bridge End,Long Bridge St",committee.allows.thinker,Wednesday,False,True,False,True,'Open' mtgs on request.,,Also held on Zoom - Meeting ID: 942 6154 5691 Passcode: 018968,Northamptonshire,Midlands,Wales,Alcoholics Anonymous
3b181482-cac2-59f4-a4d8-fd8202c6d88b,Abergavenny Beginners Open/Big Book,20:00,1hr,NP7 5ND,51.821395,-3.016455,Music Rm,"Priory Centre,St Mary's Priory Church,Monk St",quiet.outdone.equivocal,Wednesday,False,False,False,True,'Open' mtgs on request.,,Mtg is upstairs - stairlift available.,South East Wales,Wales and Borders,Wales,Alcoholics Anonymous
7035c3ec-1c8d-5463-a112-a6a971fda12d,Hay On Wye Powys,19:30,1hr,HR3 5RW,52.074023,-3.11914,Cusop Village Hall,"Lower Mead,Cusop",parsnips.downturn.skater,Friday,False,True,False,False,,,What3word address: rosier.spice.prominent,West Sussex,South East,Wales,Alcoholics Anonymous
