Guid,Title,Time,Duration,Postcode,Latitude,Longitude,Venue,Address,What3Words,Day,Hearing,Wheelchair,Chit,Open,OpenFormat,Format,Note,Code,Region,RegionArea,RegionAreaOrder,RegionIdentifier,RegionIdentifierType,Country,MeetingType,MeetingTypeNamespace,ScrapedDetails
e324e510-415b-5120-b976-0ac42e7f5ca5,Bath On Awakening Online,07:30,1hr,,0,0,Https://Us02web.Zoom.Us/J/82451216785?Pwd=Dezztc9edwnicjvlt0zddvjib3h1qt09 Meeting ID: 82451216785 Passcode:  445526,Https://Us02web.Zoom.Us/J/82451216785?Pwd=Dezztc9edwnicjvlt0zddvjib3h1qt09meeting ID: 82451216785 Passcode:  445526,prosecuted.amplification.showings,Monday,False,False,False,False,,,,14094,Wiltshire and Bath,South Midlands,1,11,Intergroup,England,Alcoholics Anonymous,AA,True
a5224dde-32d7-5115-ae6b-c23810de42f0,Bath On Awakening Online,07:30,1hr,,0,0,Https://Us02web.Zoom.Us/J/82451216785?Pwd=Dezztc9edwnicjvlt0zddvjib3h1qt09 Passcode 445526,Https://Us02web.Zoom.Us/J/82451216785?Pwd=Dezztc9edwnicjvlt0zddvjib3h1qt09 Passcode 445526,prosecuted.amplification.showings,Friday,False,False,False,False,,,,17676,Wiltshire and Bath,South Midlands,1,11,Intergroup,England,Alcoholics Anonymous,AA,True
a43e3295-6889-508c-9ff6-f07a76e174aa,Belfast Ireland Dublin,,,,53.7797554,-7.3055309,This Website Does Not List AA Groups In Ireland. For Details Of Irish Meetings,Please Visit:Http://Www.Alcoholicsanonymous.Ie/,lightening.outlined.adventurer,Sunday,False,False,False,False,,,,13877,,,0,,,England,Alcoholics Anonymous,AA,True
7fb6b588-e6db-54f0-8b2c-4f868aa1856e,Berlin Trans /Nonbinary/Inter Online Only,,,,52.5200066,13.404954,Zoom Link (Created 30 Min Before Meeting Starts). Password By Contact. Https://Www.Alcoholics-Anonymous-Berlin.De/Meetings/Trans-Non-Binary-Inter-Aa-Meeting,Zoom Link (Created 30 Min Before Meeting Starts). Password By Contact. Https://Www.Alcoholics-Anonymous-Berlin.De/Meetings/Trans-Non-Binary-Inter-Aa-Meeting,wharfs.straws.proceeds,Monday,False,False,False,False,,,LGBTQI+Non-BinaryTransgender,15361,,,0,,,England,Alcoholics Anonymous,AA,True
4ddeed94-a096-58cf-b5d9-0551b9cd1952,Bow Newcomers,,,E2 6JL,51.5243,-0.058889,The Good Shepherd Mission,17 Three Colts Ln,tame.launch.fruit,Monday,False,True,False,True,All mtgs 'open'.,,,11252,East London,London (North),7,36,Intergroup,England,Alcoholics Anonymous,AA,True
53c8d429-04f8-5fc8-aafb-c39dc94b6d26,Brentwood Pilgrims Hatch,,,CM15 9RD,51.639089,0.280237,Pilgrims Hatch Parish Hall,Orchard Lane/Ongar Rd,blocks.slip.hello,Sunday,False,True,False,True,All mtgs 'open'.,,,8191,North Thames,Eastern,2,37,Intergroup,England,Alcoholics Anonymous,AA,True
35a99787-8e78-5a90-8a79-122ef942b39b,Castletown As Bill Sees It,17:00,1hr,IM0 1EB,0,0,St Marys RC Church,24 Bowling Green Rd,prosecuted.amplification.showings,Saturday,False,True,False,False,,,,17518,Liverpool City,North West,4,52,Intergroup,England,Alcoholics Anonymous,AA,True
ebc3a825-55df-5e86-ad6d-6e3b736873dd,Clydebank As Bill Sees It,,,G81 1BL,55.90173,-4.405902,New Beginning Rooms,45B Kilbowie Rd,needed.spring.shovels,Monday,False,True,False,True,All mtgs 'open'.,,,17531,Glasgow North West,Glasgow,14,97,Intergroup,Scotland,Alcoholics Anonymous,AA,True
35bc3f3d-7ab6-58d5-982d-285ef7d0b160,Crawley Morning,,,RH11 0NB,51.127067,-0.210486,Quaker Meeting Hall,"Langley Lane,Ifield Green (Off Rusper Rd)",clay.late.riders,Saturday,False,True,False,True,All mtgs 'open'.,,,9836,West Sussex,South East,6,76,Intergroup,England,Alcoholics Anonymous,AA,True
ce515746-8f68-5bb7-b0c6-fdfccfe5ad27,Govan,,,G51 2AJ,55.860857,-4.303557,Riverside Hall,"29-31 Clydebrae St,Govan",deals.learns.below,Sunday,False,True,True,True,All mtgs 'open'.,,Chit system available.,10682,Glasgow South,Glasgow,14,102,Intergroup,Scotland,Alcoholics Anonymous,AA,True
61cffdea-6ee9-560b-920f-70ba152a4305,Inverkeithing,,,KY11 1LW,56.029211,-3.399488,Saint Peter In Chains,28 Hope St,overhear.ended.example,Thursday,False,True,False,True,1st Thur each mnth 'open'.,,,16793,Fife,East of Scotland,11,100,Intergroup,Scotland,Alcoholics Anonymous,AA,True
f2e7a43a-3fda-522e-8db9-df39ea4cf324,Lavenham Lunchtime,,,CO10 9QT,52.106684,0.79442,Lavenham Village Hall,Church St,tacky.shorthand.replaces,Tuesday,False,False,False,False,,,,17879,South East Anglian,Eastern,2,39,Intergroup,England,Alcoholics Anonymous,AA,True
ec2c29bb-af54-5fcf-960f-d317ce0c48f6,Lye,,,DY9 8BQ,52.463514,-2.115167,Atlantic House,Dudley Rd,grit.strain.stove,Monday,False,True,True,True,All mtgs 'open'.,,Chit system available. No mtgs held on Bank Holidays.,13068,Black Country,Midlands,3,72,Intergroup,England,Alcoholics Anonymous,AA,True
22433965-cb40-57ba-a4ae-3fa681c4f87f,One Day At A Time Big Book Study Online,,,,39.5152784,-9.1179465,Hosted From Sao Martinho Do Porto,Portugal ID: 196406401 PW: Promises,swats.lingers.overcoming,Wednesday,False,False,False,False,,,,16924,,,0,,,England,Alcoholics Anonymous,AA,True
7145a2fb-12e3-59fa-9d90-8c874bbbdb61,Popup Recovery Daily Meeting Online,10:30,1hr 45mins,,0,0,Zoom Meeting ID: 571 853 2196 Passcode: 193535 Https://Us02web.Zoom.Us/J/5718532196?Pwd=Wgu4dlpqruplv1r5q0dot3ltauxwdz09,Zoom Meeting ID: 571 853 2196 Passcode: 193535Https://Us02web.Zoom.Us/J/5718532196?Pwd=Wgu4dlpqruplv1r5q0dot3ltauxwdz09,prosecuted.amplification.showings,Saturday,False,False,False,True,All mtgs 'open'.,,Email: popuprecovery@outlook.com,17422,,,0,,,England,Alcoholics Anonymous,AA,True
032e81b6-72f2-523c-ba59-5fd69cec57f6,Romford Serenity,,,RM7 0PH,51.564977,0.184353,YMCA,Rush Green Rd,brands.stay.avoid,Saturday,False,True,False,True,All mtgs 'open'.,,,12816,North Thames,Eastern,2,37,Intergroup,England,Alcoholics Anonymous,AA,True
6641510f-17e0-54da-baf0-645305be9072,Rutherglen,,,G73 1JQ,55.829668,-4.223405,Rutherglen West & Wardlawhill Church,1 Weston Ave,mimic.meals.danger,Tuesday,False,True,False,True,All mtgs 'open'.,,,10548,Glasgow East,Glasgow,14,101,Intergroup,Scotland,Alcoholics Anonymous,AA,True
2b41758c-a01d-5b51-a6fa-bd51a0e3119a,Southampton Step,,1hr 30mins,SO15 5LG,50.922934,-1.432295,Shirley Baptist Church,"Keeble Centre,Church St",stir.hunter.locate,Thursday,False,False,False,False,,,,8535,Solent,South East,6,48,Intergroup,England,Alcoholics Anonymous,AA,True
86ec2fac-aab1-5aec-93e5-18cd29635ba0,Stansted Womens Mixed Topic,,,CM24 8AQ,51.903373,0.194756,Stansted Day Centre,"Crafton Green House,Stansted Mountfitchet",bulldozer.vacancies.flamingo,Sunday,False,True,False,False,,,,16186,East Herts or West Essex,Eastern,2,40,Intergroup,England,Alcoholics Anonymous,AA,True
e79ad6ca-7411-5da4-a07d-dd4cb05bd9fe,Tipperary Town Group AA,20:30,,,0,0,Community Service Centre,"Michael Street,Tipperary Town",prosecuted.amplification.showings,Monday,False,False,False,False,,Steps & Tradition,Entrance at rear on Blind St.,,Tipperary,UK,0,TIPPERARY,Region,Republic of Ireland,Alcoholics Anonymous,AA,True
f72d2d59-bcd9-52fd-8fbc-2c0d8dcaee26,Tipperary Town Group AA,20:30,,,0,0,Community Service Centre,"Michael Street,Tipperary Town",prosecuted.amplification.showings,Thursday,False,False,False,False,,,Entrance at rear on Blind St.,,Tipperary,UK,0,TIPPERARY,Region,Republic of Ireland,Alcoholics Anonymous,AA,True
4f67fa6b-bf4c-503f-ae2f-fc9ddde4ca20,Tipperary Town Group AA,20:30,,,0,0,Community Service Centre,"Michael Street,Tipperary Town",prosecuted.amplification.showings,Sunday,False,False,False,False,,,Entrance at rear on Blind St.,,Tipperary,UK,0,TIPPERARY,Region,Republic of Ireland,Alcoholics Anonymous,AA,True
