Guid,Title,Time,Duration,Postcode,Latitude,Longitude,Venue,Address,What3Words,Day,Hearing,Wheelchair,Chit,Open,OpenFormat,Format,Note,Region,Area,Country,Type
1237124c-b85e-5e98-a7a4-3b0b8b861b81,Rhodes Town,10:30,,,37.9919459,23.772459,Old Hospital,"Queen Olga,Red Cross St 3,Rhodes 85100 (Erithro Stavro)",stencil.plodded.cheaper,Saturday,False,False,False,False,,,This meeting is through the summer only from 15th April til 15th November.,,,England,Alcoholics Anonymous
0600d4a8-fddf-589a-95e4-ee5fe8a10f7d,Sutton Coldfield,18:30,1hr 30mins,B74 2NU,52.570359,-1.8232,Holy Trinity RC Church,69 Lichfield Rd,bend.asset.shield,Sunday,False,True,False,True,'Open' mtgs on request.,,Step and Tradition Meeting 1st Sunday of every month (corresponding to the 12 steps i.e. January = Step 1),Birmingham,Midlands,England,Alcoholics Anonymous
1203d27b-ea06-59e1-9722-99bd7e5bba54,Blackpool Sunday Lunch Physical & Online,12:30,1hr 30mins,FY4 2AP,53.797491,-3.042816,Victory Baptist Church,St Anne's Rd,plays.drops.smart,Sunday,False,True,True,True,All mtgs 'open'.,,Mtg also on Zoom ID: 811 9501 0122.Contact email: sundaylunch.bfwig@gmail.comMembers in room are not visible online.Chit system available.,"Blackpool, Fylde and Wyre",North West,England,Alcoholics Anonymous
154f81a8-4ba9-519a-b3da-34d8e499ec58,Bournemouth Big Book Study,12:00,1hr 15mins,BH2 6NU,50.729388,-1.875591,St Augustins,"Cemetery Junction,Wimborne Rd",grabs.puns.tour,Wednesday,False,True,False,True,Last Wed each month 'open'.,,,Bournemouth District,South West,England,Alcoholics Anonymous
3c88f422-a0f5-57ce-b1a3-394799c64af4,Brighton Live & Let Live,19:30,1hr 30mins,BN1 1EA,50.822634,-0.13946,Chapel Royal,164 North St,lifts.pokers.clip,Tuesday,False,False,True,False,,,Chit system available. Doors open 19.00. Step & Tradition mtg.,Brighton Area,South East,England,Alcoholics Anonymous
7501553c-22c0-5556-8848-3a8962e603fd,Portslade Discussion,19:30,1hr 30mins,BN41 1LB,50.832265,-0.213633,South Portslade Community Centre,"Church Rd,Portslade",shades.stump.audio,Wednesday,False,True,True,True,3rd Wed each mnth 'open'.,,Chit system available.,Brighton Area,South East,England,Alcoholics Anonymous
0d1d2071-734e-5fa7-afff-3bb7d15a4ca1,Bristol Mens - The Dog House,17:30,1hr,BS8 1NU,51.458581,-2.608394,Victoria Methodist Church,1A Whiteladies Rd,stand.saves.hobby,Tuesday,False,True,False,True,All mtgs 'open'.,,This is a Men's Meeting but all are welcome as per Tradition 3,Bristol and District,South Midlands,England,Alcoholics Anonymous
ccbca417-7b16-5438-80f1-8eae0428e06d,Bristol Young People,19:45,,BS6 7HE,51.472561,-2.60534,Redland Parish Church Hall,Redland Green Rd,pops.royal.waddle,Tuesday,False,True,False,True,All mtgs 'open'.,,,Bristol and District,South Midlands,England,Alcoholics Anonymous
0c679cca-28dd-5c06-8b1a-6b266d9f6c1c,City Big Book Study,13:00,1hr,EC4V 2AF,51.511112,-0.093705,St James Garlickhythe,Garlick Hill,gender.elder.detail,Tuesday,False,True,False,False,,,,City Of London,London (North),England,Alcoholics Anonymous
61508648-850b-5d57-ac79-7cfa19e88ebf,City Promises,12:30,1hr,EC4V 2AF,51.511112,-0.093705,St James Garlickhythe,Garlick Hill,gender.elder.detail,Wednesday,False,True,False,False,,,,City Of London,London (North),England,Alcoholics Anonymous
e8339be4-2d42-5360-8875-df55d96e9c97,Leamington Spa,20:00,1hr 30mins,CV31 1HP,52.285992,-1.528355,St Peter's Church Hall,3A Dormer Pl,store.sunk.woods,Thursday,False,True,True,False,,,,Coventry and Warwickshire,Midlands,England,Alcoholics Anonymous
c777743f-d17f-559e-a75d-7f2c922cfc72,Durham,19:30,1hr,DH1 4DU,54.772261,-1.591991,St Johns Church,"Crossgate Peth, Nevilles Cross",salads.unable.atomic,Monday,False,False,False,False,,,,Durham and Cleveland,North East,England,Alcoholics Anonymous
a7eb9c6a-6153-57f1-94b9-536fe0a8cca2,Durham,19:30,1hr,DH1 4PR,54.776212,-1.580334,Antioch House,66 Crossgate,notes.tried.lived,Friday,False,False,False,False,,,,Durham and Cleveland,North East,England,Alcoholics Anonymous
08107f3e-c0db-5de0-9d23-494e80831b8e,Durham,12:15,1hr,DH1 4SQ,54.777058,-1.580636,Shakespeare Hall,North Rd,lion.energy.blows,Wednesday,False,False,False,False,,,,Durham and Cleveland,North East,England,Alcoholics Anonymous
85a4e98f-dd7b-5e81-b7c7-f2e5f726170e,Middlesbrough Coulby Newham 12X12,18:30,1hr,TS8 0TF,54.529385,-1.216933,Community Centre,"Langdon Sq,Coulby Newham (Meeting Is Held In The Room Upstairs)",improvise.rosier.trap,Wednesday,False,False,True,False,,,Chit system available.,Durham and Cleveland,North East,England,Alcoholics Anonymous
e871b253-2b83-5c74-91e6-489d63aee1fb,Harlow,11:00,1hr 30mins,CM20 3AF,51.775116,0.1127,Back Of St Andrews Church,The Stow,found.forced.badly,Saturday,False,False,False,True,All mtgs 'open'.,,"Face coverings are mandatory. No parking in the church car park available, there are public car parks available within a short walking distance.",East Herts or West Essex,Eastern,England,Alcoholics Anonymous
30ee49e3-2a7f-58bb-a4ba-d5e5a4a1d449,Birchington Step & Tradition,20:00,1hr 30mins,CT7 9PB,51.3736038,1.3084582,Methodist Church Hall,Canterbury Road.,butchers.promise.utter,Thursday,False,True,False,False,,,,East Kent,South East,England,Alcoholics Anonymous
d124260b-b1b5-534e-af3f-110c9d1206f3,Faversham Road To Recovery,20:00,1hr 15mins,ME13 8EH,51.313869,0.893649,Faversham Baptist Church,St Mary's Rd,smiles.spoiled.troll,Tuesday,False,True,False,True,All mtgs 'open'.,,,East Kent,South East,England,Alcoholics Anonymous
88b6751a-ef1f-5bd5-9975-766e0742cf53,Todmorden,19:30,1hr 30mins,OL14 7LD,53.712226,-2.099201,The Kindness Hub,36 Rochdale Rd,voucher.gobblers.intruders,Wednesday,False,True,False,False,,,,East Lancs,North West,England,Alcoholics Anonymous
1d1a6f67-6de9-537d-acd3-f87b38bc0c2d,Whalley,19:45,1hr 15mins,BB7 9TD,53.820913,-2.404916,Whalley Village Hall,"Accrington Rd,Whalley",wasps.hindering.nags,Friday,False,False,False,True,All mtgs 'open'.,,,East Lancs,North West,England,Alcoholics Anonymous
52b96c5d-790b-58bc-ae97-692d9bc01eaf,Chingford,20:00,1hr 30mins,E4 7HP,51.628411,0.004082,St Theresa's Hall,Station Rd,online.hurls.alarm,Thursday,False,False,False,True,Last Thur each mnth 'open'.,,,East London,London (North),England,Alcoholics Anonymous
1edd0734-d434-5c20-b517-191659457c46,Newhaven How It Works Discussion,19:15,1hr 15mins,BN9 9LH,50.791432,0.049091,Hillcrest Community Centre,Bay Vue Rd,flaking.baking.precluded,Thursday,False,True,False,False,,,Plenty of free parking.,East Sussex,South East,England,Alcoholics Anonymous
2d77f15a-6a78-5f44-95c1-476bf76b143a,Rayleigh Recovery,18:00,1hr 30mins,SS6 7HP,51.589501,0.606606,Bethenay Rm,"Our Lady Of Ransom RC Church,50 London Hill",hoping.cried.trash,Thursday,False,True,False,True,'Open' mtgs on request.,,,Essex,Eastern,England,Alcoholics Anonymous
5ec648ad-4696-5b00-90d9-9224983f7a29,"Spalding Experience, Strength & Hope",12:30,1hr,PE12 9SA,52.768812,0.189962,The Curlew Centre,"Memorial Park,Bridge Rd,Sutton Bridge",redeemed.biked.impulsive,Thursday,True,True,False,True,All mtgs 'open'.,,No meeting held on 21st Dec & 28th Dec 2023.,Lincolnshire,Midlands,England,Alcoholics Anonymous
a929e861-a19e-586f-ad27-b30e8134e7f3,Castletown As Bill Sees It,17:00,1hr,IM0 1EB,52.3955445,-0.7257167,St Marys RC Church,24 Bowling Green Rd,clubs.record.expect,Saturday,False,True,False,False,,,,Liverpool City,North West,England,Alcoholics Anonymous
c0adef93-41f6-57d8-84bf-3132fceb18ff,Chelsea Step,19:00,1hr,SW10 0DR,51.481643,-0.179662,Chelsea Theatre,7 World's End Place,beans.banana.bounty,Friday,False,False,False,False,,,,London Chelsea,London (North),England,Alcoholics Anonymous
43736078-bdd0-58fb-8809-81ce8bf0bc2a,Archway To Recovery,18:00,1hr 15mins,N19 5JN,51.5639145,-0.1402152,Harry Rice Hall,"72-74 Hargrave Park,Archway",skirt.wooden.region,Friday,False,True,True,True,All mtgs 'open'.,,,London North East,London (North),England,Alcoholics Anonymous
29584502-eb8c-57cb-a45e-9c46084d7910,Finsbury Park Arts Club In The Park,11:00,1hr 15mins,N4 2SW,51.564721,-0.102086,Finsbury Park Art Club,Finsbury Park Art Club,vent.solid.silk,Sunday,False,True,False,False,,,,London North East,London (North),England,Alcoholics Anonymous
e768c756-4c89-5f6f-97dd-db7dd8708824,Holloway Road To Recovery,20:00,1hr 30mins,N19 5JN,51.5639145,-0.1402152,Harry Rice Hall,"72-74 Hargrave Park,Archway",dips.tuned.rally,Wednesday,False,False,True,True,All mtgs 'open'.,,,London North East,London (North),England,Alcoholics Anonymous
50b272b2-b542-577a-b3a3-95b03d9238f2,Kennington Step Study,18:00,1hr,SE11 4JQ,51.488611,-0.105231,St Mary Newington Church,57A Kennington Park Rd,veal.intelligible.wacky,Saturday,False,True,False,True,All mtgs 'open'.,,,London South,London (South),England,Alcoholics Anonymous
6afc497c-ebb9-58db-a568-c97ce2c7272c,Deptford Hybrid,11:00,1hr 30mins,SE8 3EZ,51.481707,-0.025268,Armada Court Community Hall,21 Mcmillan St,traded.chair.factor,Sunday,False,True,False,True,All mtgs 'open'.,,Also on Zoom - https://us02web.zoom.us/j/81439287958?pwd=V2F0SlgwR2g4QjZDYmovdTBCRGlNZz09 Meeting ID: 814-3928-7958Password: Deptford,London South East (East),London (South),England,Alcoholics Anonymous
45f2ab25-f86c-5bd7-a063-c608fdbfd683,Walworth Balfour Street,18:45,1hr 15mins,SE17 1PL,51.493225,-0.091398,67 Balfour St,"Off New Kent Rd,Elephant & Castle",richer.areas.pools,Sunday,False,True,False,True,All mtgs 'open'.,,,London South East (West),London (South),England,Alcoholics Anonymous
1a84ecc7-ba12-5d9c-9252-8ae06016dcc8,Surbiton As Bill Sees It,20:00,1hr 30mins,KT6 7QU,51.379085,-0.288494,Hughes Room B,"Tolworth Hospital,Red Lion Rd",bits.zips.exile,Wednesday,False,True,False,True,All mtgs 'open'.,,,London South West,London (South),England,Alcoholics Anonymous
26e2d3b1-ecab-5807-a673-c447695a8df9,Tolworth Newcomers,20:00,1hr 30mins,KT6 7QU,51.379085,-0.288494,Hughes Room B,"Tolworth Hospital,Red Lion Rd",bits.zips.exile,Friday,False,True,False,False,,,,London South West,London (South),England,Alcoholics Anonymous
9a3431c7-b5bc-510d-a63a-e338e986596b,Wimbledon As Bill Sees It,20:00,1hr,SW19 1SB,51.41968,-0.194508,Holy Trinity Church,234 The Broadway,pulse.glad.zoom,Thursday,False,True,False,True,All mtgs 'open'.,,,London South West,London (South),England,Alcoholics Anonymous
58411cc9-7bf3-5ba1-938d-fc33f0beded7,Bloomsbury The Weekend Starts Here,16:00,1hr,WC2H 0EW,51.515109,-0.130276,Soho Recovery Centre,123 Charing Cross Rd,tuck.drum.transit,Friday,False,False,False,True,All mtgs 'open'.,,,London West End,London (North),England,Alcoholics Anonymous
5c11549c-a4e3-5aed-a418-954595b45104,Soho Brunch,10:30,1hr,WC2H 0EW,51.515109,-0.130276,Soho Recovery Centre,123 Charing Cross Rd,tuck.drum.transit,Thursday,False,False,False,False,,,,London West End,London (North),England,Alcoholics Anonymous
3f433554-d358-57e5-9c07-66965f698858,Soho St Giles Step & Tradition,14:30,1hr,WC2H 0EW,51.515109,-0.130276,Soho Recovery Centre,123 Charing Cross Rd,tuck.drum.transit,Tuesday,False,True,False,True,All mtgs 'open'.,,,London West End,London (North),England,Alcoholics Anonymous
20866166-5dbe-599d-bc5d-ffd91069ed92,Step 11 LGBTQ+ Meditation,19:00,1hr,W1D 6AF,51.512437,-0.131899,Upstairs Room,"St Annes Church,55 Dean St",badge.back.cross,Wednesday,False,False,False,False,,,,London West End,London (North),England,Alcoholics Anonymous
493f9148-b609-5ec9-aab6-f427c2ca28f2,West End LGBTQ Newcomers,19:00,1hr,EC1Y 8LE,51.522278,-0.090633,Church Of St Joseph,"15 Lamb's Passage,Off Bunhill Row",slope.risks.plots,Thursday,False,False,False,False,,,,London West End,London (North),England,Alcoholics Anonymous
853c4aaa-f0eb-57cc-98ab-b2436b81ac09,Llandudno Living Sober,11:00,1hr 30mins,LL30 1YT,53.321026,-3.814424,St Paul's Church,"Craig Y Don,Mostyn Broadway",orbited.spiking.skims,Sunday,False,True,False,False,,,,North East Wales,North West,England,Alcoholics Anonymous
fb480a84-cd0c-5dff-9133-e88d3e25fe64,Bedford Primary Purpose,20:00,1hr,MK40 2TX,52.140513,-0.466435,St Peter De Merton Church,De Parys Ave,raced.packet.spine,Sunday,False,False,False,True,1st Sunday each month 'open'.,,,North Herts and North Beds,Eastern,England,Alcoholics Anonymous
676dde06-bfde-5f06-8c4b-d850a441628e,Welwyn Garden City Chair & Traditions,19:45,1hr 15mins,AL7 4JS,51.78556,-0.195116,St Mary Magdalene Church,Hollybush Lane,remind.finger.orchestra,Tuesday,False,False,False,False,,,,North Herts and North Beds,Eastern,England,Alcoholics Anonymous
c6f394b1-e188-5361-98d6-a8ae74552c29,Maryport Physical & Online,19:30,1hr 30mins,CA15 6EX,54.715753,-3.498087,Our Lady & St Patrick Church Hall,Kirkby St,retire.midwinter.lessening,Sunday,False,True,False,False,,,Also held on Zoom - https://us02web.zoom.us/j/84419727732?pwd=R3p1bVFKeUdQUS90WFU3QVNvenFNZz09  Meeting ID: 844 1972 7732 Passcode: 060592,North West,North West,England,Alcoholics Anonymous
5169e5c9-bc93-5661-8dfa-cf1aaeeca93b,Thirsk AA,19:30,1hr,YO7 1PL,54.233706,-1.344905,Friends Meeting House,24 Kirkgate,siesta.opts.wedge,Thursday,False,True,False,True,All mtgs 'open'.,,Facemasks to be worn. Social distancing in place.,North Yorkshire,North East,England,Alcoholics Anonymous
ddd9f1a1-a66f-5aa9-b12e-328b7453ed13,Thirsk Discuss The Steps,19:00,1hr,YO7 1PL,54.233706,-1.344905,Friends Meeting House,24 Kirkgate,siesta.opts.wedge,Sunday,False,True,False,False,,,,North Yorkshire,North East,England,Alcoholics Anonymous
c231955b-fefb-5acc-b268-407b86385f0d,Flore Tradition 5 Big Book Study,12:30,1hr,NN7 4LF,52.235167,-1.055196,Chapel Schoolroom,"Flore Chapel,15 Chapel Lane,Flore",pity.worksheet.crumples,Sunday,False,False,False,False,,,This meeting will not be held on Sunday 24th December 2023.,Northamptonshire,Midlands,England,Alcoholics Anonymous
57f4ef75-01e8-5ad7-8f4f-11cb862a7665,Northampton Francis St,19:00,1hr,NN1 2NZ,52.242443,-0.902944,20 Francis St,Just Off Grafton St,modest.apples.lost,Saturday,False,False,True,True,All mtgs 'open'.,,Chit system available.,Northamptonshire,Midlands,England,Alcoholics Anonymous
0dbdd1dc-1e10-582a-96bd-25e243d3cfb0,Alton,20:00,1hr 10mins,GU34 1NP,51.145203,-0.977929,Alton Baptist Church,Grove Rd,warms.lunch.wimp,Tuesday,False,True,False,True,Last Tue each mnth 'open'.,,,Northdown,South East,England,Alcoholics Anonymous
dedc57a6-78d3-5889-90af-5b4c2acb08cb,Beeston Lenton Abbey Dr Bob,19:45,1hr,NG9 2AR,52.926915,-1.21074,Middle Street Resource Centre,"74 Middle St,Beeston",storms.dated.zeal,Friday,False,True,False,False,,,,Nottinghamshire or Leicestershire,Midlands,England,Alcoholics Anonymous
a7cdb6d3-f915-57b9-86ad-7122231e93f7,Leicester Los Angels Recovery,19:30,1hr 30mins,LE9 9GN,52.630531,-1.297938,Village Hall 12 Lindridge Ln,Desford,clock.reconnect.politics,Monday,False,True,False,False,,,,Nottinghamshire or Leicestershire,Midlands,England,Alcoholics Anonymous
ca5d01ee-5add-5513-b399-256dc42898b6,Nottingham Spiritual Awakening,12:00,1hr 15mins,NG5 2EN,52.978756,-1.150777,Methodist Church,Devon Dr,sweat.needed.reform,Friday,False,True,False,True,All mtgs 'open'.,,,Nottinghamshire or Leicestershire,Midlands,England,Alcoholics Anonymous
0b212c48-7ec7-570e-8ff5-91c9d8cc1870,Plymouth Happy Hour,12:00,1hr,PL2 3BY,50.387721,-4.16632,Wolseley Trust Community Resource Building,27 Wolseley Close,mull.tens.basis,Saturday,False,True,False,True,All mtgs 'open'.,,,Plymouth,South West,England,Alcoholics Anonymous
75bf411a-1a84-5fdc-a292-aa25c0413094,Dursley Hybrid,20:00,1hr,GL11 4BS,51.681931,-2.354184,Side Entrance,"Upstairs Room,Dursley Methodist Church,Castle St",apes.likewise.reliving,Thursday,False,False,True,True,'Open' mtgs on request.,,Zoom meeting starts at 19.50 - Meeting ID: 392 832 3800 Passcode: Yellow,Severn,South Midlands,England,Alcoholics Anonymous
403cae34-7fda-5447-9ef1-8ea8ae679b1c,"Evesham Experience, Strength & Hope",19:30,1hr 30mins,WR11 4SF,52.091813,-1.943862,Evesham Methodist Church,71 Bridge St,solicitor.verve.enacts,Friday,False,True,False,True,'Open' mtgs on request.,,,Severn,South Midlands,England,Alcoholics Anonymous
f3c96be2-f699-514c-a071-2b73640fd235,Stroud,19:30,1hr,GL5 1AP,51.74558,-2.215723,St Laurence Church Hall,The Shambles,yarn.choppers.guises,Wednesday,False,True,True,True,All mtgs 'open'.,,,Severn,South Midlands,England,Alcoholics Anonymous
c1d7b0c8-4a45-58b5-9ed6-3116fed887fc,Southampton Morning,11:00,1hr 30mins,SO14 1NX,50.905076,-1.396517,St Mary's  Parish Office,135 St Mary's St,anyway.payer.audit,Tuesday,False,False,False,True,1st Tue each month 'open'.,,,Solent,South East,England,Alcoholics Anonymous
bcfd5aa8-e0eb-58ec-8761-d9b1333580a9,Southampton Path To Recovery,18:45,1hr,SO14 3DL,50.898436,-1.399423,The Booth Centre,"Salvation Army,57 Oxford St",with.mock.unique,Wednesday,False,True,False,True,All mtgs 'open'.,,,Solent,South East,England,Alcoholics Anonymous
b40e9da8-f5bc-513b-94fb-b7e0251c4a1c,Ash,19:00,1hr,TA12 6NS,50.983413,-2.7511,Ash Pavillion,High St,melts.comedians.bandaged,Friday,False,True,False,True,All mtgs 'open'.,,Drive down the High St and look for a rank of garages set back on the left-hand side as you drive towards Martock. Plenty of parking.,Somerset,South West,England,Alcoholics Anonymous
6555f43b-765c-5496-9e0e-68a9f77a0673,Sheffield Big Book Study,19:30,1hr,S7 2BB,53.353463,-1.48646,Project 6,646 Abbeydale Rd,tools.preoccupied.spends,Friday,False,False,False,False,,,,South Yorkshire and North East Derbyshire,North East,England,Alcoholics Anonymous
8a44fab4-d8d3-5447-95db-0ed85998494b,Bognor Regis Step & Tradition,19:30,1hr 30mins,PO21 1LP,50.783821,-0.669617,The Parish Centre,Hislop Walk,guises.proof.roses,Thursday,False,True,False,True,All mtgs 'open'.,,,Southdown,South East,England,Alcoholics Anonymous
35cf9431-270b-5fe3-bafd-d8187a562345,"Hayling Island Experience, Strength & Hope",18:30,1hr 15mins,PO11 9EY,50.787729,-0.978918,Church Hall,"United Reformed Church,Hollow Lane",haunts.apartment.pointed,Sunday,True,True,True,True,1st Sun each mnth 'open'.,,Chit system available.,Southdown,South East,England,Alcoholics Anonymous
454c2555-f822-5da7-b881-e0f352b9f606,Newport The Common Solution Multi-Mtg,13:00,1hr,PO30 1UH,50.698663,-1.298061,Congregational Church,91 Pyle St,cheeks.took.satellite,Monday,False,False,False,True,All mtgs 'open'.,,,Southdown,South East,England,Alcoholics Anonymous
27ec63a8-5735-5538-8b90-69cfa1649765,Portsmouth Saturday AM,12:00,1hr,PO4 0DY,50.791331,-1.075444,Church Of The Holy Spirit,Fawcett Rd,fuel.share.means,Saturday,False,True,False,True,All mtgs 'open',,A ' meet and greet' prior to the meeting starts at 11.30.,Southdown,South East,England,Alcoholics Anonymous
bbce9e3e-0971-5fda-80f6-55f920e4536f,Portsmouth Southsea Back To Basics Hybrid,19:00,,PO5 2PW,50.783203,-1.07793,St Simons Church,"Waverley Rd,Southsea",scope.slime.badly,Monday,False,True,False,True,All mtgs 'open'.,,https://zoom.us/j/994738597?pwd=3vVLFN7JyEiUHNKmYk3ZzuvLYfAV0Y43 Password: back2bas,Southdown,South East,England,Alcoholics Anonymous
22a8840f-4197-5c54-a149-ed477079b2f8,Portsmouth Zycie Polish Speaking,19:00,2hrs,PO6 2TL,50.839421,-1.057096,Highbury Community Centre,Hawthorn Crescent,thing.ideal.agent,Saturday,False,True,True,True,All mtgs 'open'.,,Chit system available.,Southdown,South East,England,Alcoholics Anonymous
9b07f3cf-cd81-514f-8304-579347a53df8,Low Fell Keep It Simple,18:15,1hr,NE9 5HY,54.935623,-1.597001,St Peter's Church Hall,"Kells Ln,Low Fell",scam.twigs.fancy,Thursday,False,True,True,True,All mtgs 'open'.,,Chit system available.,Tyne and Northumbria,North East,England,Alcoholics Anonymous
d053a8d1-31bb-590a-98cd-18b9a4635db5,Crawley Discussion,19:00,1hr 30mins,RH11 8FN,51.109814,-0.226139,The Mill Community Hub,"Collins Rd,Bewbush",wider.cats.jelly,Saturday,False,True,False,True,All mtgs 'open'.,,,West Sussex,South East,England,Alcoholics Anonymous
5b2c1afb-512f-5706-8240-ed59a417885f,Ballycastle AA,20:00,,BT54 6AX,55.1995653,-6.255014,Ballycastle Presbyterian Church,"1 Castle Street,Ballycastle,Co. Antrim,BT 546AS",striving.lifeguard.annual,Wednesday,False,False,False,False,,,,Antrim,Northern Ireland,Northern Ireland,Alcoholics Anonymous
69c5298e-0d01-54b3-872c-182026c5741d,Belfast Early Birds,18:00,,BT1 2FL,54.605295,-5.931866,St. Patrick's Parish Office,"St. Patrick's Church,197 Donegall Street,Belfast,Belfast",judge.hers.handed,Tuesday,False,False,False,False,,,"Entrance via Donegall Lane
To request link to online meeting email U276@alcoholicsanonymous.ie",Antrim,Northern Ireland,Northern Ireland,Alcoholics Anonymous
08ee3c0f-3100-5337-b378-ed9d6a52d28c,Belfast Early Birds,08:00,,BT1 2FL,54.605295,-5.931866,St. Patrick's Parish Office,"St. Patrick's Church,197 Donegall Street,Belfast,Belfast",judge.hers.handed,Saturday,False,False,False,False,,,"Entrance via Donegall Lane
To request link to online meeting email U276@alcoholicsanonymous.ie",Antrim,Northern Ireland,Northern Ireland,Alcoholics Anonymous
8b25efa1-a8de-567a-93be-41f1060e72a5,Lisburn 23 Railway Street,19:30,,BT28 1XG,54.51214,-6.043159,,"23 Railway Street,Lisburn,Co. Antrim",trucks.circle.civic,Tuesday,False,False,False,False,,,,Antrim,Northern Ireland,Northern Ireland,Alcoholics Anonymous
cde943a7-f531-5f28-9dad-6dfe3747681b,Crossmaglen,20:30,,BT35 9AA,54.0774066,-6.6087567,Parish Rooms,"Newry Road,Crossmaglen,Co. Armagh",heads.variances.stirs,Monday,False,False,False,False,,,,Armagh,Northern Ireland,Northern Ireland,Alcoholics Anonymous
9d847c05-d97e-54fc-b979-64e841f0b3ee,Donaghadee,20:30,,BT21 0BL,54.639286,-5.535934,,"24A Killaughey Road,Donaghadee,Co. Down",thumps.tins.discloses,Monday,False,False,False,False,,,Zoom Meeting: To request link to online meeting email u114@alcoholicsanonymous.ie,Down,Northern Ireland,Northern Ireland,Alcoholics Anonymous
b20d7d94-06f8-555d-b015-f69e29e5d427,Donaghadee,20:30,,BT21 0BL,54.639286,-5.535934,,"24A Killaughey Road,Donaghadee,Co. Down",thumps.tins.discloses,Friday,False,False,False,False,,,Zoom Meeting: To request link to online meeting email u114@alcoholicsanonymous.ie,Down,Northern Ireland,Northern Ireland,Alcoholics Anonymous
16ec290a-2df5-586e-a4b2-505e45255258,North Down,20:30,,BT23 4AS,54.59374,-5.706072,Lough House,"Ards Hospital,Church Street,Newtownards,Co. Down",erupt.slid.viewer,Wednesday,False,False,False,False,,,,Down,Northern Ireland,Northern Ireland,Alcoholics Anonymous
3e503f44-2800-56a7-a9c9-26867a0aabb3,Borrisokane AA Group,20:30,,,52.9598656,-7.80421,Borrisokane Community Centre,"Birr Road,Borrisokane,Co. Tipperary",limit.signposts.grumbling,Monday,False,False,False,False,,,,,,Republic of Ireland,Alcoholics Anonymous
2d9b7a9a-99eb-566a-8ee8-9d841bbf18ab,Carrick-On-Suir,20:30,,,52.3485708,-7.4133065,Nano Nagle Centre,"Green Side,Carrick-On-Suir,Co. Tipperary",salty.wholesaler.likening,Tuesday,False,False,False,False,,,Step and Trad Meetings rotate on Thursdays every 12 weeks at 20.30,,,Republic of Ireland,Alcoholics Anonymous
ce937e06-877c-5ffe-af3b-51e9da99971d,Carrick-On-Suir,20:30,,,52.3485708,-7.4133065,Nano Nagle Centre,"Green Side,Carrick-On-Suir,Co. Tipperary",salty.wholesaler.likening,Thursday,False,False,False,False,,Steps & Tradition,Step and Trad Meetings rotate on Thursdays every 12 weeks at 20.30,,,Republic of Ireland,Alcoholics Anonymous
d6f24744-4ce9-51f6-b4c2-dc78746cadc4,Carrick-On-Suir,11:00,,,52.3485708,-7.4133065,Nano Nagle Centre,"Green Side,Carrick-On-Suir,Co. Tipperary",salty.wholesaler.likening,Sunday,False,False,False,False,,,Step and Trad Meetings rotate on Thursdays every 12 weeks at 20.30,,,Republic of Ireland,Alcoholics Anonymous
f07d0a49-d1ca-5702-bd86-6f87fbe01422,Carrick-On-Suir,20:30,,,52.3485708,-7.4133065,Nano Nagle Centre,"Green Side,Carrick-On-Suir,Co. Tipperary",salty.wholesaler.likening,Sunday,False,False,False,False,,,Step and Trad Meetings rotate on Thursdays every 12 weeks at 20.30,,,Republic of Ireland,Alcoholics Anonymous
807b8cbd-9bb3-51c5-9971-0451204fa3d3,Castlemahon Group,20:30,,,52.4306979,-9.0100733,Holistic Centre,"Castlemahon,Co. Limerick",twitches.costumes.sharer,Thursday,False,False,False,False,,,,,,Republic of Ireland,Alcoholics Anonymous
986f3c2c-8753-5b95-8c49-573f8e29cae2,Claremorris Day Time Meeting,13:00,,,53.7238764,-9.0017356,Curam Centre,"Claremorris RC Church Grounds,Dalton Street,Claremorris,Co. Mayo",collectively.denies.kudos,Tuesday,False,False,False,False,,,,,,Republic of Ireland,Alcoholics Anonymous
b0c3714a-3693-5a1a-a8b9-6e97bbb4745a,Claremorris Day Time Meeting,13:00,,,53.7238764,-9.0017356,Curam Centre,"Claremorris RC Church Grounds,Dalton Street,Claremorris,Co. Mayo",collectively.denies.kudos,Friday,False,False,False,False,,,,,,Republic of Ireland,Alcoholics Anonymous
c7f40f89-d8e3-5076-99dc-1c6c097356a7,Dromore West,20:30,,,54.2495094,-8.8799262,Health Centre,"Sligo Road,Dromore West,Co. Sligo",wicked.framed.ordinary,Wednesday,False,False,False,False,,Tradition,,,,Republic of Ireland,Alcoholics Anonymous
921a2bf2-4c9e-5688-9c5a-abd40b414eb5,Dunshaughlin,20:30,,,53.5149104,-6.5394947,Scoil Seachnaill,"Main Street,Dunshaughlin,Co. Meath",stormy.vibrating.repaired,Thursday,False,False,False,False,,,,,,Republic of Ireland,Alcoholics Anonymous
3ae65cef-8874-5332-a180-f4736b114c0a,Frenchpark,19:00,,F45 V158,53.8695107,-8.4074282,Parish Office,"Corskeagh,Frenchpark,Co. Roscommon",undeclared.dentists.custard,Thursday,False,False,False,False,,,,,,Republic of Ireland,Alcoholics Anonymous
132c7a11-3275-5c2d-89a0-c5eecba2291d,Kilkenny Let Go Let God,17:30,,,52.6620782,-7.2610366,Villa Maria,"Talbot's Inch,Freshford Road,Kilkenny",vertical.discreetly.seizure,Monday,False,False,False,False,,Big Book,,,,Republic of Ireland,Alcoholics Anonymous
74f2c6da-8eb9-5c33-aa9a-194646f2e509,Kilrane,20:30,,,52.2419402,-6.3549143,Kilrane Community Centre,"Kilrane,Co. Wexford",deflecting.drew.backed,Thursday,False,False,False,False,,,,,,Republic of Ireland,Alcoholics Anonymous
a80a3643-0d8d-5742-b8be-aa3bf7e6b275,Limerick City Fairgreen,20:30,,V94 YYK1,52.6583419,-8.624919,,"291 Hyde Road,Limerick City",upon.spine.views,Tuesday,False,False,False,False,,,,,,Republic of Ireland,Alcoholics Anonymous
d3e1c7d8-9008-5ee6-8f5f-47936c64255f,Limerick City Fairgreen,20:30,,V94 YYK1,52.6583419,-8.624919,,"291 Hyde Road,Limerick City",upon.spine.views,Saturday,False,False,False,False,,,,,,Republic of Ireland,Alcoholics Anonymous
fb65c4d4-0507-5489-95ec-def5f5d8888d,Mullingar Town 1,20:30,,N91 A40T,53.5349269,-7.3514088,Day Care Centre,"St Mary Hospital,Castlepollard Road,Mullingar,Co. Westmeath",tones.pyramid.raking,Monday,False,False,False,False,,Big Book,,,,Republic of Ireland,Alcoholics Anonymous
2e6bc65c-d4a5-56db-a56b-415eed12142f,Mullingar Town 1,20:30,,N91 A40T,53.5349269,-7.3514088,Day Care Centre,"St Mary Hospital,Castlepollard Road,Mullingar,Co. Westmeath",tones.pyramid.raking,Tuesday,False,False,False,False,,,,,,Republic of Ireland,Alcoholics Anonymous
660aea49-f649-55ff-9422-8fb1f0fd8130,Mullingar Town 1,20:30,,N91 A40T,53.5349269,-7.3514088,Day Care Centre,"St Mary Hospital,Castlepollard Road,Mullingar,Co. Westmeath",tones.pyramid.raking,Thursday,False,False,False,False,,,,,,Republic of Ireland,Alcoholics Anonymous
8d76d0f9-faf3-5567-bd9e-45bd19f0b3b9,Navan Acceptance,20:30,,,53.647092,-6.6966605,St. Ann's Resource Centre,"Chapel Yard,St. Mary's Church,Fairgreen,Navan,Co. Meath",breed.pushed.curtains,Sunday,False,False,False,False,,,,,,Republic of Ireland,Alcoholics Anonymous
2acbb64e-f587-555c-a6be-5b9077e7ec46,Navan St Marys Resource Centre,20:00,,,53.6514886,-6.6848538,The Resource Centre,"St. Mary's Church,Fair Green,Navan,Co. Meath",panther.salt.over,Tuesday,False,False,False,False,,,,,,Republic of Ireland,Alcoholics Anonymous
329e54ce-354f-5905-b996-c77168ecd862,Navan St Marys Resource Centre,11:30,,,53.6514886,-6.6848538,The Resource Centre,"St. Mary's Church,Fair Green,Navan,Co. Meath",panther.salt.over,Sunday,False,False,False,False,,,,,,Republic of Ireland,Alcoholics Anonymous
7de8cf6a-1c9e-5a04-922a-87ed17a7826f,Rooskey AA Group,21:00,,N41 Y6V2,53.8330007,-7.9224912,Rooskey Community Centre,"Rooskey,Co. Roscommon",reversed.footer.stubbornly,Tuesday,False,False,False,False,,,,,,Republic of Ireland,Alcoholics Anonymous
5840b43b-208f-5a15-ac31-f8c23ca9ad8c,Sligo Town Downtown AA Group,13:00,,,54.2766103,-8.4760888,St. Michael's Family Life Centre,"Churchill,Sligo Town,Sligo",bribing.moisture.shunted,Tuesday,False,False,False,False,,,"Tuesdays Meeting is in St Anns Church, Cranmore.",,,Republic of Ireland,Alcoholics Anonymous
49a934f5-8ad0-5453-b22c-3862cce5e2ed,Sligo Town Downtown AA Group,13:00,,,54.2766103,-8.4760888,St. Michael's Family Life Centre,"Churchill,Sligo Town,Sligo",bribing.moisture.shunted,Saturday,False,False,False,False,,,"Tuesdays Meeting is in St Anns Church, Cranmore.",,,Republic of Ireland,Alcoholics Anonymous
30af6269-e143-5997-aa42-baddb62b920b,St Catherine’S Carlow Group,13:00,,R93 T4C6,52.8400665,-6.9230888,St. Catherine's Community Services,"St. Josephs Road,Carlow,Carlow",pram.cashier.rush,Wednesday,False,False,False,False,,,Zoom Meeting: To request link to online meeting email L2@alcoholicsanonymous.ie,,,Republic of Ireland,Alcoholics Anonymous
ed35f841-af55-5cfb-950b-e241a7ec8532,St Catherine’S Carlow Group,13:00,,R93 T4C6,52.8400665,-6.9230888,St. Catherine's Community Services,"St. Josephs Road,Carlow,Carlow",pram.cashier.rush,Friday,False,False,False,False,,,Zoom Meeting: To request link to online meeting email L2@alcoholicsanonymous.ie,,,Republic of Ireland,Alcoholics Anonymous
462c94e5-1714-5ac9-b91a-6145e760f37c,Swanlinbar,20:30,,,54.1937636,-7.7047113,Day Centre,"Swanlinbar,Co. Cavan",misty.lure.barked,Monday,False,False,False,False,,,,,,Republic of Ireland,Alcoholics Anonymous
fd8bf988-e0d1-5f2c-bf35-2595ddb0765b,Tipperary Town Group AA,20:30,,,52.4736391,-8.1617622,Community Service Centre,"Michael Street,Tipperary Town",admiral.silently.speak,Monday,False,False,False,False,,Steps & Tradition,Entrance at rear on Blind St.,,,Republic of Ireland,Alcoholics Anonymous
ac2962f1-b5f7-5f39-a438-86720662e0a1,Tipperary Town Group AA,20:30,,,52.4736391,-8.1617622,Community Service Centre,"Michael Street,Tipperary Town",admiral.silently.speak,Thursday,False,False,False,False,,,Entrance at rear on Blind St.,,,Republic of Ireland,Alcoholics Anonymous
941f8287-e3dc-52d0-850a-5717c727c60f,Tipperary Town Group AA,20:30,,,52.4736391,-8.1617622,Community Service Centre,"Michael Street,Tipperary Town",admiral.silently.speak,Sunday,False,False,False,False,,,Entrance at rear on Blind St.,,,Republic of Ireland,Alcoholics Anonymous
bceb9632-b23c-51c7-aa38-d93c7b1c8842,Tulla,20:30,,,52.8692148,-8.7607816,The Sacristy,"Tulla,Co. Clare",accountants.steakhouse.spherical,Monday,False,False,False,False,,,,,,Republic of Ireland,Alcoholics Anonymous
710933aa-ab87-5d10-ba2b-27dc8d809b69,Ballyphehane,20:30,,T12 Y0XP,51.883111,-8.477704,Ballyphehane Pipe Band Hall,"Lower Friars Walk,Ballyphehane,Co. Cork",badly.pushed.hopes,Tuesday,False,False,False,False,,,Zoom Meeting: To request link to online meeting email M42@alcoholicsanonymous.ie,Cork,Republic of Ireland,Republic of Ireland,Alcoholics Anonymous
dc3aea3a-fc69-5ef3-b2a5-97f96e70f09a,Ballyphehane,20:30,,T12 Y0XP,51.883111,-8.477704,Ballyphehane Pipe Band Hall,"Lower Friars Walk,Ballyphehane,Co. Cork",badly.pushed.hopes,Thursday,False,False,False,False,,,Zoom Meeting: To request link to online meeting email M42@alcoholicsanonymous.ie,Cork,Republic of Ireland,Republic of Ireland,Alcoholics Anonymous
9ae39fd1-f82e-5d4f-bf2a-f1bea6135f11,Ballyphehane,16:30,,T12 Y0XP,51.883111,-8.477704,Ballyphehane Pipe Band Hall,"Lower Friars Walk,Ballyphehane,Co. Cork",badly.pushed.hopes,Saturday,False,False,False,False,,,Zoom Meeting: To request link to online meeting email M42@alcoholicsanonymous.ie,Cork,Republic of Ireland,Republic of Ireland,Alcoholics Anonymous
7fd8133f-af4b-57b4-9de4-8fc7ae113827,Ballyphehane,20:30,,T12 Y0XP,51.883111,-8.477704,Ballyphehane Pipe Band Hall,"Lower Friars Walk,Ballyphehane,Co. Cork",badly.pushed.hopes,Sunday,False,False,False,False,,,Zoom Meeting: To request link to online meeting email M42@alcoholicsanonymous.ie,Cork,Republic of Ireland,Republic of Ireland,Alcoholics Anonymous
f037b7ef-86d2-5a1b-b58e-6fc0157426ca,Bandon,20:30,,,51.7488193,-8.743928,Presentation Convent,"Dunmanway Road,Bandon,Co. Cork",potential.carnivore.textile,Wednesday,False,False,False,False,,,To request link to online meetings email M25@alcoholicsanonymous.ie,Cork,Republic of Ireland,Republic of Ireland,Alcoholics Anonymous
cf2805c1-61d8-5f55-a21e-4f5092472c27,Bandon,20:30,,,51.7488193,-8.743928,Presentation Convent,"Dunmanway Road,Bandon,Co. Cork",potential.carnivore.textile,Friday,False,False,False,False,,,To request link to online meetings email M25@alcoholicsanonymous.ie,Cork,Republic of Ireland,Republic of Ireland,Alcoholics Anonymous
f4052cad-1466-5e27-87b9-07598ea1cf5b,Bandon,11:30,,,51.7488193,-8.743928,Presentation Convent,"Dunmanway Road,Bandon,Co. Cork",potential.carnivore.textile,Sunday,False,False,False,False,,,To request link to online meetings email M25@alcoholicsanonymous.ie,Cork,Republic of Ireland,Republic of Ireland,Alcoholics Anonymous
a499be73-629f-5165-bf78-f020a409cf3d,Bandon,20:30,,,51.7488193,-8.743928,Presentation Convent,"Dunmanway Road,Bandon,Co. Cork",potential.carnivore.textile,Sunday,False,False,False,False,,,To request link to online meetings email M25@alcoholicsanonymous.ie,Cork,Republic of Ireland,Republic of Ireland,Alcoholics Anonymous
7087c86a-d9f8-569e-88e1-125081c0108e,Blackpool,20:30,,,51.9109389,-8.474377,Blackpool Community Centre,"Great William O'brien Street,Blackpool,Cork",pocket.pose.fortunate,Tuesday,False,False,False,False,,Steps,,Cork,Republic of Ireland,Republic of Ireland,Alcoholics Anonymous
805178f6-dcc8-5650-bb0f-ac1f990b230f,Blackpool,20:30,,,51.9109389,-8.474377,Blackpool Community Centre,"Great William O'brien Street,Blackpool,Cork",pocket.pose.fortunate,Thursday,False,False,False,False,,,,Cork,Republic of Ireland,Republic of Ireland,Alcoholics Anonymous
b7fe0f3f-8234-5d8e-8aa3-4d970f249edc,Blackpool,20:30,,,51.9109389,-8.474377,Blackpool Community Centre,"Great William O'brien Street,Blackpool,Cork",pocket.pose.fortunate,Friday,False,False,False,False,,,,Cork,Republic of Ireland,Republic of Ireland,Alcoholics Anonymous
274e8672-5793-5075-843a-94ee225b0371,Blackpool,20:30,,,51.9109389,-8.474377,Blackpool Community Centre,"Great William O'brien Street,Blackpool,Cork",pocket.pose.fortunate,Sunday,False,False,False,False,,,,Cork,Republic of Ireland,Republic of Ireland,Alcoholics Anonymous
edc5004f-5239-5d59-9ba7-ee643edc89fb,Cork City Mayfield,20:30,,,51.9142651,-8.4356118,Roseville House,"Old Youghal Road,Mayfield,Cork City",note.reveal.parade,Monday,False,False,False,False,,Steps,No meetings on a Bank Holiday.,Cork,Republic of Ireland,Republic of Ireland,Alcoholics Anonymous
222c19f5-f049-5b70-80b5-249b5994d55f,Cork City Mayfield,20:30,,,51.9142651,-8.4356118,Roseville House,"Old Youghal Road,Mayfield,Cork City",note.reveal.parade,Tuesday,False,False,False,False,,,No meetings on a Bank Holiday.,Cork,Republic of Ireland,Republic of Ireland,Alcoholics Anonymous
7d4007cc-b0e4-5796-b1ea-f0f748803f2b,Cork City Mayfield,20:30,,,51.9142651,-8.4356118,Roseville House,"Old Youghal Road,Mayfield,Cork City",note.reveal.parade,Wednesday,False,False,False,False,,,No meetings on a Bank Holiday.,Cork,Republic of Ireland,Republic of Ireland,Alcoholics Anonymous
6e8f2288-6483-57a8-ab45-da88b3f81af6,Cork City Mayfield,20:30,,,51.9142651,-8.4356118,Roseville House,"Old Youghal Road,Mayfield,Cork City",note.reveal.parade,Thursday,False,False,False,False,,,No meetings on a Bank Holiday.,Cork,Republic of Ireland,Republic of Ireland,Alcoholics Anonymous
dca9dd8f-5fb4-52ec-ab7f-fcca7989267b,Cork City Mayfield,20:30,,,51.9142651,-8.4356118,Roseville House,"Old Youghal Road,Mayfield,Cork City",note.reveal.parade,Friday,False,False,False,False,,,No meetings on a Bank Holiday.,Cork,Republic of Ireland,Republic of Ireland,Alcoholics Anonymous
dc107f64-a3f4-52d0-90fc-5ecafbfcd706,Cork City Mayfield,15:45,,,51.9142651,-8.4356118,Roseville House,"Old Youghal Road,Mayfield,Cork City",note.reveal.parade,Saturday,False,False,False,False,,,No meetings on a Bank Holiday.,Cork,Republic of Ireland,Republic of Ireland,Alcoholics Anonymous
f40836b0-774e-56f9-962a-81407d4bcf0c,Cork City Mayfield,12:30,,,51.9142651,-8.4356118,Roseville House,"Old Youghal Road,Mayfield,Cork City",note.reveal.parade,Sunday,False,False,False,False,,,No meetings on a Bank Holiday.,Cork,Republic of Ireland,Republic of Ireland,Alcoholics Anonymous
cd149319-98ee-57e9-9d0d-d1cec73f3073,Cork City Mayfield,20:30,,,51.9142651,-8.4356118,Roseville House,"Old Youghal Road,Mayfield,Cork City",note.reveal.parade,Sunday,False,False,False,False,,,No meetings on a Bank Holiday.,Cork,Republic of Ireland,Republic of Ireland,Alcoholics Anonymous
f0a6889b-a6d9-59a8-b0e5-78c8ab19b91d,Knocknaheeney,20:15,,,51.9033298,-8.5037692,We The People,"U4 Hollyhill Shopping Centre,Knocknaheny,Cork City",life.turkey.cares,Tuesday,False,False,False,False,,,,Cork,Republic of Ireland,Republic of Ireland,Alcoholics Anonymous
d388837d-6982-5f55-b5bb-d53a54483c5c,Knocknaheeney,20:15,,,51.9033298,-8.5037692,We The People,"U4 Hollyhill Shopping Centre,Knocknaheny,Cork City",life.turkey.cares,Sunday,False,False,False,False,,,,Cork,Republic of Ireland,Republic of Ireland,Alcoholics Anonymous
4c0670bd-6b93-5aba-8f95-dbca9e88722f,Newmarket,20:30,,,52.2140232,-9.0030815,James O'keefe Memorial Institute,"Newmarket,Co. Cork",ovens.genres.fixtures,Tuesday,False,False,False,True,,,,Cork,Republic of Ireland,Republic of Ireland,Alcoholics Anonymous
b7bed540-0293-5b0e-8bc5-b178a78e4508,Newmarket,20:30,,,52.2140232,-9.0030815,James O'keefe Memorial Institute,"Newmarket,Co. Cork",ovens.genres.fixtures,Thursday,False,False,False,True,,,,Cork,Republic of Ireland,Republic of Ireland,Alcoholics Anonymous
5b6ea28a-eb74-593e-9a59-fc94a03fce63,Newmarket,11:30,,,52.2140232,-9.0030815,James O'keefe Memorial Institute,"Newmarket,Co. Cork",ovens.genres.fixtures,Sunday,False,False,False,True,,,,Cork,Republic of Ireland,Republic of Ireland,Alcoholics Anonymous
49f032e9-9312-5f04-b5bd-8e1a970cc5da,Carrick AA Group,20:30,,,54.6548993,-8.1040967,Day Care Centre,"Carrick,Co. Donegal,94K XY1",acted.dining.screamed,Monday,False,False,False,True,,,Doors open from 8pm. Meeting finishes approx. 9.45pm.,Donegal,Republic of Ireland,Republic of Ireland,Alcoholics Anonymous
8085e3bc-4173-5caa-8382-01a79b226b6c,Ballymun D.C.U.,20:15,,,53.3853317,-6.2588403,Quiet Room,"Interfaith Centre,DCU,Collins Avenue,Ballymun,Dublin 9",dragon.flames.moment,Tuesday,False,False,False,False,,,,Dublin,Republic of Ireland,Republic of Ireland,Alcoholics Anonymous
41f9531f-4f89-5309-ba00-b7100215b624,Ballyroan,20:30,,,53.2957819,-6.259299,Church Annex,"Ballyroan,Dublin 14",race.talked.adjust,Thursday,False,False,False,False,,,Please note that the meeting is now in The ANNEX on the left hand side of the church.,Dublin,Republic of Ireland,Republic of Ireland,Alcoholics Anonymous
a3328e4d-9750-5e21-9a25-94226879a298,Bayside Lunchtime,13:00,,,53.3944487,-6.1494679,Bayside Community Centre,"Bayside Sutton,Dublin 13",finely.tapes.copy,Monday,False,False,False,False,,,,Dublin,Republic of Ireland,Republic of Ireland,Alcoholics Anonymous
fd031c0a-abf6-5f8a-aad4-c201c66e6b38,Bayside Lunchtime,13:00,,,53.3944487,-6.1494679,Bayside Community Centre,"Bayside Sutton,Dublin 13",finely.tapes.copy,Friday,False,False,False,False,,,,Dublin,Republic of Ireland,Republic of Ireland,Alcoholics Anonymous
8b6537d0-2a5f-5526-9f72-422eb3ba8e61,Churchtown Church Group,13:00,,,53.2920154,-6.2699955,Community Centre,"Nutgrove Avenue,Churchtown,Dublin 14",toast.trying.influencing,Tuesday,False,False,False,False,,,Behind Good Shepherd Church,Dublin,Republic of Ireland,Republic of Ireland,Alcoholics Anonymous
0cf4550b-1d39-50aa-a14e-51c599e6211f,Churchtown Church Group,20:30,,,53.2920154,-6.2699955,Community Centre,"Nutgrove Avenue,Churchtown,Dublin 14",toast.trying.influencing,Tuesday,False,False,False,False,,,Behind Good Shepherd Church,Dublin,Republic of Ireland,Republic of Ireland,Alcoholics Anonymous
ce7daae2-2fad-5d35-bfaf-462b7ce3bd30,Churchtown Church Group,18:30,,,53.2920154,-6.2699955,Community Centre,"Nutgrove Avenue,Churchtown,Dublin 14",toast.trying.influencing,Thursday,False,False,False,False,,,Behind Good Shepherd Church,Dublin,Republic of Ireland,Republic of Ireland,Alcoholics Anonymous
7f98c5a9-4612-5ffc-b426-b635905655d2,Churchtown Church Group,20:30,,,53.2920154,-6.2699955,Community Centre,"Nutgrove Avenue,Churchtown,Dublin 14",toast.trying.influencing,Saturday,False,False,False,False,,Big Book,Behind Good Shepherd Church,Dublin,Republic of Ireland,Republic of Ireland,Alcoholics Anonymous
cde59bae-6840-5384-9f5a-e61885b16e62,Churchtown Church Group,20:30,,,53.2920154,-6.2699955,Community Centre,"Nutgrove Avenue,Churchtown,Dublin 14",toast.trying.influencing,Sunday,False,False,False,False,,,Behind Good Shepherd Church,Dublin,Republic of Ireland,Republic of Ireland,Alcoholics Anonymous
bcbf48ce-dd2b-563c-bebe-34f90c71c160,Churchtown Good Shepherd School,20:30,,,53.2944866,-6.268315,Good Shepherd National School,"Whitehall Road,Churchtown,Dublin 14,D14 H9TO",games.forgot.thin,Wednesday,False,False,False,False,,,,Dublin,Republic of Ireland,Republic of Ireland,Alcoholics Anonymous
25932574-a08d-5f75-975e-ba84061f79fa,Churchtown Good Shepherd School,20:30,,,53.2944866,-6.268315,Good Shepherd National School,"Whitehall Road,Churchtown,Dublin 14,D14 H9TO",games.forgot.thin,Friday,False,False,False,False,,,,Dublin,Republic of Ireland,Republic of Ireland,Alcoholics Anonymous
8b577aa4-1f6a-5643-a5dd-9b2a701409b9,Dublin Airport 1St,14:00,,,53.4286293,-6.2415409,The Sacristy,"Our Lady Queen Of Heaven Church,Dublin Airport,Swords,Co. Dublin",microwave.wizard.certified,Wednesday,False,False,False,False,,,"Physical Meetings effective from March 1st 2023 onwards.
Zoom Meeting 
To request link to online meeting email L18@alcoholicsanonymous.ie",Dublin,Republic of Ireland,Republic of Ireland,Alcoholics Anonymous
b39a68ca-ad71-5937-942f-089e0edbb502,Dublin City Clarendon Street Live & Let Live,18:30,,,53.3419119,-6.2614364,St. Teresa's Church,"Clarendon Street,Dublin City,Dublin 2",voter.linked.rewarding,Tuesday,False,False,False,False,,Beginner,Zoom Meeting: To request link to online meeting email L12@alcoholicsanonymous.ie,Dublin,Republic of Ireland,Republic of Ireland,Alcoholics Anonymous
6ef074a6-4fa5-5d03-b25a-098b5ba89b08,Dublin City Clarendon Street Live & Let Live,19:30,,,53.3419119,-6.2614364,St. Teresa's Church,"Clarendon Street,Dublin City,Dublin 2",voter.linked.rewarding,Saturday,False,False,False,False,,Steps,Zoom Meeting: To request link to online meeting email L12@alcoholicsanonymous.ie,Dublin,Republic of Ireland,Republic of Ireland,Alcoholics Anonymous
674248f2-7299-5307-babd-4bfd97b960cb,Dublin City Od Nowa,19:30,,,53.3437445,-6.2742307,St. Audeons Church,"High Street,Dublin City,Dublin 8",mixer.stream.likely,Monday,False,False,False,True,,Steps & Tradition,"Polish spoken at this meeting.
First Monday of month is an Open meeting",Dublin,Republic of Ireland,Republic of Ireland,Alcoholics Anonymous
45b669f5-b035-5616-8dd6-79c560a16992,Monkstown First Group,07:30,,A96 F6T0,53.285456,-6.1334106,DEC Church,"Glenageary Road Lower,Dun Laoghaire,Co. Dublin",nobody.improving.bake,Sunday,False,False,False,False,,,,Dublin,Republic of Ireland,Republic of Ireland,Alcoholics Anonymous
b6f3faec-3a2d-51c6-8702-05b71560b600,Monkstown Homecomers,20:30,,,53.3003301,-6.2766859,Quaker Hall,"Packenham Road,Monkstown,Co. Dublin",pulse.manual.exists,Monday,False,False,False,False,,,,Dublin,Republic of Ireland,Republic of Ireland,Alcoholics Anonymous
7eb3c01a-d9c0-52b1-bd69-5a387ae3e16d,Monkstown Homecomers,20:30,,,53.3003301,-6.2766859,Quaker Hall,"Packenham Road,Monkstown,Co. Dublin",pulse.manual.exists,Tuesday,False,False,False,False,,,,Dublin,Republic of Ireland,Republic of Ireland,Alcoholics Anonymous
2b1712aa-554e-58be-8bda-952aac8d0bd2,Monkstown Homecomers,18:30,,,53.3003301,-6.2766859,Quaker Hall,"Packenham Road,Monkstown,Co. Dublin",pulse.manual.exists,Saturday,False,False,False,False,,,,Dublin,Republic of Ireland,Republic of Ireland,Alcoholics Anonymous
c70b2479-d17f-54b6-a01c-42c8d9ae91a0,New Beginning,20:00,,,53.2927881,-6.3954102,Fettercairn Community Centre,"Fettercairn Road,Tallaght,Dublin",things.places.audio,Tuesday,False,False,False,False,,Big Book,,Dublin,Republic of Ireland,Republic of Ireland,Alcoholics Anonymous
d315df3b-eb6b-54c8-b821-a54fe58aaaf8,New Beginning,20:00,,,53.2927881,-6.3954102,Fettercairn Community Centre,"Fettercairn Road,Tallaght,Dublin",things.places.audio,Thursday,False,False,False,False,,Beginner,,Dublin,Republic of Ireland,Republic of Ireland,Alcoholics Anonymous
dc36d7a0-e4a2-5936-adee-2dd287810003,New Beginning,12:00,,,53.2927881,-6.3954102,Fettercairn Community Centre,"Fettercairn Road,Tallaght,Dublin",things.places.audio,Saturday,False,False,False,False,,,,Dublin,Republic of Ireland,Republic of Ireland,Alcoholics Anonymous
04b4d94c-52df-5edd-842e-9d76cf6e3147,Rathgar Highfield Serenity,13:00,,,53.312655,-6.2727748,Tennant Hall,"Christ Church,Highfield Road,Rathgar,Dublin 6W",pigs.foil.player,Tuesday,False,False,False,False,,Steps & Tradition,,Dublin,Republic of Ireland,Republic of Ireland,Alcoholics Anonymous
d243d049-1354-5aa2-911e-4405ca78f1d6,Swords Keep It Simple,12:00,,K67 T6T7,53.4534744,-6.2431029,Community Centre,"River Valley,Swords,Co. Dublin",flab.downtowns.outdoor,Sunday,False,False,False,False,,,Outdoor meeting in car park. Umbrellas & fold up chair advisable.,Dublin,Republic of Ireland,Republic of Ireland,Alcoholics Anonymous
a89225e2-32f0-5b37-b75f-ca0f94bc08d0,Club REA,13:00,,,53.1989136,-8.5660931,AA Loughrea Club REA,"Loughrea Family Resource Centre Piggott Street,Loughrea,Co. Galway",heads.roadblock.mourns,Monday,False,False,False,False,,,,Galway,Republic of Ireland,Republic of Ireland,Alcoholics Anonymous
90386004-1b24-56cb-a0c3-82039dacecca,Club REA,20:00,,,53.1989136,-8.5660931,AA Loughrea Club REA,"Loughrea Family Resource Centre Piggott Street,Loughrea,Co. Galway",heads.roadblock.mourns,Wednesday,False,False,False,False,,,,Galway,Republic of Ireland,Republic of Ireland,Alcoholics Anonymous
5f769fe4-b136-5b8b-a9b3-a787d278e335,Club REA,13:00,,,53.1989136,-8.5660931,AA Loughrea Club REA,"Loughrea Family Resource Centre Piggott Street,Loughrea,Co. Galway",heads.roadblock.mourns,Saturday,False,False,False,False,,Steps,,Galway,Republic of Ireland,Republic of Ireland,Alcoholics Anonymous
68567807-ab27-55ed-a207-99d9bac60d35,Galway City Tir Na Nóg 2,22:00,,H91 H992,53.2723509,-9.0512706,,"4 St. Augustine Street,Youth Service,Galway City,Co. Galway",faces.every.wings,Saturday,False,False,False,False,,,,Galway,Republic of Ireland,Republic of Ireland,Alcoholics Anonymous
d2960055-e0c6-55c6-ad8a-8f4da3cc3720,Galway City Tir Na Nóg 2,10:00,,H91 H992,53.2723509,-9.0512706,,"4 St. Augustine Street,Youth Service,Galway City,Co. Galway",faces.every.wings,Sunday,False,False,False,False,,,,Galway,Republic of Ireland,Republic of Ireland,Alcoholics Anonymous
7185e1e1-f6cf-5563-91e0-502bb1841526,Headford AA,20:30,,,53.4694617,-9.106134,Parish Hall Headford,"Headford,Co. Galway,H91 NSPG",stealth.exhibit.adjuster,Monday,False,False,False,False,,,,Galway,Republic of Ireland,Republic of Ireland,Alcoholics Anonymous
112627e2-e68c-58d7-affe-8756694bbc85,Headford AA,20:30,,,53.4694617,-9.106134,Parish Hall Headford,"Headford,Co. Galway,H91 NSPG",stealth.exhibit.adjuster,Saturday,False,False,False,False,,,,Galway,Republic of Ireland,Republic of Ireland,Alcoholics Anonymous
c7246b43-6dac-5342-a6ca-673808493514,Dingle,20:30,,V92 TX96,52.2594291,-10.1787881,Old Health Centre,"Farranflaherty,Dingle,Co. Kerry",signifying.paragraphs.imaging,Monday,False,False,False,False,,,,Kerry,Republic of Ireland,Republic of Ireland,Alcoholics Anonymous
7405b9ae-2001-5651-a6ed-03276899e606,Dingle,20:30,,V92 TX96,52.2594291,-10.1787881,Old Health Centre,"Farranflaherty,Dingle,Co. Kerry",signifying.paragraphs.imaging,Thursday,False,False,False,False,,Steps,,Kerry,Republic of Ireland,Republic of Ireland,Alcoholics Anonymous
ba874dc4-0473-5e53-a082-fff127ae1471,Dingle,20:30,,V92 TX96,52.2594291,-10.1787881,Old Health Centre,"Farranflaherty,Dingle,Co. Kerry",signifying.paragraphs.imaging,Sunday,False,False,False,False,,,,Kerry,Republic of Ireland,Republic of Ireland,Alcoholics Anonymous
4677a269-449e-590a-b199-7e31060ecdbf,Bray Town Centre Living Sober,20:30,,A98 CV61,53.2033717,-6.1068136,Epworth Hall,"Florence Road,Bray,Co. Wicklow",reckon.both.proven,Wednesday,False,False,False,False,,,,Wicklow,Republic of Ireland,Republic of Ireland,Alcoholics Anonymous
b4e924c4-9922-5916-8bc2-9ba5f9b015ef,Dundee No 3,19:00,1hr 30mins,DD1 1PE,56.458575,-2.977262,Jericho House,36 Artillery Ln,hands.beast.others,Thursday,False,True,False,False,,,,Angus and District,East of Scotland,Scotland,Alcoholics Anonymous
1f5b2f39-0a0f-52b9-a18d-8f5262834598,Campbeltown You Are Not Alone,19:00,1hr,PA28 6BQ,55.423115,-5.604218,St Keirans Church Hall,6 St John St,views.systems.robes,Monday,False,False,False,False,,,,Argyll,Highland and Islands,Scotland,Alcoholics Anonymous
cfc8c285-43ec-5c7b-93d0-aa952fa2fe1e,Milnathort/Kinross,20:00,1hr 30mins,KY13 9YG,56.229583,-3.420368,Orwell Church,"Ba'hill,Milnathort",ecologist.enter.actors,Friday,False,False,False,True,'Open' mtgs on request.,,Step meeting first Friday of the month.,Fife,East of Scotland,Scotland,Alcoholics Anonymous
5a4e8d8c-a951-5177-8cba-3944f3e7edf5,Carntyne Monday Afternoon,12:30,1hr 20mins,G32 6LW,55.861494,-4.180621,High Carntyne Church,358 Carntynehall Rd,union.piano.lunch,Monday,False,False,False,False,,,Entrance through side door. Meeting held in upstairs hall.,Glasgow East,Glasgow,Scotland,Alcoholics Anonymous
0e20b66b-4368-5d12-91c9-5691a29acb2f,Friday Into Saturday Hybrid,22:30,1hr,G12 9AR,55.876893,-4.294114,Kelvinside Hillhead Parish Church,Saltoun St/Observatory Rd,hotels.nation.insert,Friday,False,False,False,False,,,Hybrid meeting: zoom link is https://us06web.zoom.us/j/306184829?pwd=TDJncTVHL1NESzRReWZVUXY5eTFWUT09,Glasgow North West,Glasgow,Scotland,Alcoholics Anonymous
e7c4bf48-17d0-585c-8918-5cdc109d597d,Whiteinch Round The Books,19:15,1hr,G14 9UP,55.874,-4.33749,St Paul The Apostle's Catholic Church - Parish Hall,1213A Dumbarton Rd,bigger.cubes.kicks,Monday,False,False,True,False,,,Chit system available.,Glasgow North West,Glasgow,Scotland,Alcoholics Anonymous
0942f850-f868-5dbc-b928-8982f4247d37,East Kilbride 5Th Tradition,20:00,1hr 30mins,G75 0AE,55.755468,-4.190365,Righead United Reformed Church,Carnegie Hill,appeal.employ.added,Wednesday,False,False,False,True,All mtgs 'open'.,,,Lanarkshire,Scotland,Scotland,Alcoholics Anonymous
6d56b9ed-63e9-50a6-995e-0eed7b07ae79,East Kilbride Big Book Discussion,20:00,1hr 30mins,G75 0AE,55.755468,-4.190365,Righead United Reformed Church,Carnegie Hill,appeal.employ.added,Sunday,False,True,False,True,'Open' mtgs on request.,,,Lanarkshire,Scotland,Scotland,Alcoholics Anonymous
f1e81e37-3087-5cdc-b5eb-6770c0da3a6d,Larkhall New Beginning,20:00,1hr 30mins,ML9 1EF,55.738218,-3.973183,Trinity Church,Union St,ticking.remarried.bother,Thursday,False,False,False,False,,,,Lanarkshire,Scotland,Scotland,Alcoholics Anonymous
aa1b8aed-005a-58f3-96f1-21bcf6856878,Linwood Change Through Action,20:00,,PA3 3RX,55.852526,-4.492528,Mossedge Village Hall,145 Brediland Rd,fire.towers.offers,Monday,False,False,False,False,,,,Paisley and District,South West Scotland,Scotland,Alcoholics Anonymous
b8856707-091b-5e94-94ff-88ae19d74918,Swansea Big Book,20:00,1hr,SA2 7AL,51.617547,-4.020646,Siloam Baptist Church,"458A Gower Rd,Killay",call.dream.feed,Monday,False,False,False,True,1st Mon each mnth 'open'.,,"On road parking, or in the car park of Killay Medical Centre on Goetre Fawr Rd.",Swansea and District,Wales and Borders,Wales,Alcoholics Anonymous
84a7bb41-d04c-5811-a0aa-d038c8e85b27,Cuddington Cocaine Anonymous,19:15,1hr,CW8 2EH,53.237276,-2.60568,Delamere Rehab,"Forest Rd,Cuddington,Northwich",parrot.swooned.humans,Thursday,False,False,False,True,This meeting is open and anyone may attend.,"In-person,Big Book,Discussion,Open,Speaker,Step Meeting","Parking On Site
Group district: Northeast",,,England,Cocaine Anonymous
6ae2ef9c-c0d5-57d7-a808-2b683b36230d,Out Of The Dark,19:00,1hr,PL1 5EG,50.372733,-4.154357,St Peters Church,"Wyndham Square,Stonehouse,Plymouth",admit.fame.remove,Thursday,False,True,True,False,This meeting is closed; only those who have a desire to stop using may attend.,"In-person,Closed,Speaker,Wheelchair Access","Chit system
Open meeting on request
Group district: Devon and Cornwall",,,England,Cocaine Anonymous
c594a3e8-aeb4-59f2-9b6c-dae130749116,Steps & Traditions,18:30,1hr,BN1,50.8274277,-0.1499877,St Michaels & All Angels,"Victoria Rd,Brighton,Brighton And Hove,Brighton",supply.fixed.tracks,Tuesday,False,False,False,False,,"In-person,12 Steps & 12 Traditions",,Brighton Area,South East,England,Cocaine Anonymous
a2372ead-87c7-566f-acd9-5e624e771f05,The Steps We Took,19:00,1hr,TS20 1DU,54.593061,-1.310986,Friends Meeting House,"49 The Green,Norton",spicy.rust.lucky,Friday,False,False,False,False,,"In-person,12 Steps & 12 Traditions,Big Book,Discussion","Each week we have a different speaker sharing their experience, strength and hope with us as we look at one of the 12 steps.
Don't forget your big book!
Group district: Northeast",Durham and Cleveland,North East,England,Cocaine Anonymous
da865e78-6068-5494-9c65-036fd1771ebd,Cocaine Anonymous Hertford,14:15,1hr,SG13 7HJ,51.797417,-0.071459,CGL/Spectrum,"1 Yeomans Ct,Ware Rd,Hertford",member.staple.pigs,Friday,False,False,False,True,This meeting is open and anyone may attend.,"In-person,Open,Speaker",Group district: Central Area,East Herts or West Essex,Eastern,England,Cocaine Anonymous
978e633b-c260-57ea-bb1c-357b10363c0a,Into Action,19:30,1hr 30mins,CT1 2AS,51.280661,1.079237,Friends Meeting House,6 The Friars,yours.flops.cost,Monday,False,False,False,True,This meeting is open and anyone may attend.,"In-person,Open,Speaker","Parking available outside
Meetings right opposite Canterbury East train station
Group district: Kent",East Kent,South East,England,Cocaine Anonymous
72aac981-2cb3-5983-889d-e37a2f4d04bd,The Fridge,19:00,1hr 30mins,E3 4AR,51.517146,-0.029373,St Pauls Church,"Burdett Rd & St Paul's Way,London",grin.allow.game,Tuesday,False,False,False,True,This meeting is open and anyone may attend.,"In-person,Open",Group district: London Area,East London,London (North),England,Cocaine Anonymous
c7bc9e40-366b-5d32-943b-4082ea38b76a,The Sisters Afterward (Womens),12:00,1hr,L1 9EN,53.400979,-2.973204,The Cranbrook Clinic,"The Cranbrook Clinic,39 Rodney St,Liverpool",weep.loft.deputy,Friday,False,False,False,True,This meeting is open and anyone may attend.,"In-person,Big Book,Child-Friendly,Open,Women","Street parking
Group district: Northwest",Liverpool City,North West,England,Cocaine Anonymous
c323193d-c920-54be-94d7-9c2106316bdf,Inspire,18:15,1hr,SM2 5JG,51.3584791,-0.1883449,Inspire,"Orion House,19 Cedar Rd,Sutton",palms.member.share,Tuesday,False,False,False,False,,In-person,"This is an open H&I meeting - please note that there is no parking onsite and members are not permitted to use the on-site parking area.""
Group district: Surrey and Southwest London",London Croydon Epsom and Sutton,London (South),England,Cocaine Anonymous
76fc18ca-beda-5c35-a380-363f65b930ab,Cocaine Anonymous,18:00,,NW5 4DP,51.55107,-0.149388,Cresswood Tenants,"18 Gillies St,London",rider.chin.doing,Friday,False,False,False,False,,"In-person,Speaker","A new meeting, Freedom Fridays, at the Cresswood Tenant's Hall, 18 Gilles St, Kentish Town.
Come and enjoy some serenity.
Additional Sound Meditations will take place on the last Friday of every month.
Everyone welcome.
Group district: London Area",London North West,London (North),England,Cocaine Anonymous
9f5f4d6f-f589-551e-8368-31b9d7232dc0,The Streatham Solution,19:00,1hr 30mins,SW16 6NN,51.428408,-0.132293,English Martyrs RC Church,2 Mitcham Ln,paints.spicy.poem,Thursday,False,False,False,False,,"In-person,LGBTQ,Newcomer,Speaker,Young People",Group district: South Central,London South,London (South),England,Cocaine Anonymous
643e2778-a053-5683-9753-d6b6c7ee3171,Step 11 Saturday Spirit,09:30,1hr 15mins,NR32 1UG,52.483221,1.750367,Boston Lodge,"Boston Rd,Lowestoft",pink.pulled.flat,Saturday,False,False,False,False,,"In-person,11th Step Meditation",Group district: Central Area,North East Anglian,Eastern,England,Cocaine Anonymous
d3e2a25b-6d42-5b8b-8cc1-0148020949a1,Thus We Grow,20:00,1hr 15mins,RG21 8SR,51.262659,-1.091361,Trinity Methodist Church,"Sarum Hill,Basingstoke",cave.found.trendy,Thursday,False,True,False,False,This meeting is closed; only those who have a desire to stop using may attend.,"In-person,Closed,Speaker,Wheelchair Access","On site parking
Group district: Surrey and Berkshire",Northdown,South East,England,Cocaine Anonymous
e10eef94-64b2-5d79-aa37-82c5824784e5,Cocaine Anonymous,19:30,1hr,NG5 2EN,52.978756,-1.150777,Methodist Church,Devon Dr,sweat.needed.reform,Wednesday,False,False,False,False,,"In-person,Newcomer,Speaker","Street parking
Group district: Central Area",Nottinghamshire or Leicestershire,Midlands,England,Cocaine Anonymous
2797f79c-671c-5822-a577-fcd504b3ad6c,Cocaine Anonymous,19:30,1hr,NG10 1HE,52.897226,-1.269154,Salvation Army Church,"New Street,Long Eaton,Nottingham",taken.void.guises,Thursday,False,False,False,True,This meeting is open and anyone may attend.,"In-person,Big Book,Newcomer,Open,Speaker","Car park(s) nearby
7.00pm Doors Open for Unity
Our Meeting format is 1st Thursday of each month Main Share Meeting & the the other Thursday's Big Book Bingo Meeting
Group district: Unaffiliated",Nottinghamshire or Leicestershire,Midlands,England,Cocaine Anonymous
dffa1715-a32c-5b01-ab8d-9e009bd48d21,Cocaine Anonymous,19:00,1hr,GL5 1AP,51.74558,-2.215723,St Laurence Church Hall,The Shambles,levels.condensed.shadows,Monday,False,False,False,True,This meeting is open and anyone may attend.,"In-person,Newcomer,Open","Car park(s) nearby.
Group district: Cotswolds",Severn,South Midlands,England,Cocaine Anonymous
34accad4-45ed-53bd-8a13-f91bd816a330,Stroud CA Steps Meeting,19:00,1hr,GL5 1AP,51.74558,-2.215723,St Laurence Church Hall,The Shambles,waltzes.devoured.universe,Wednesday,False,False,False,False,,"In-person,12 Steps & 12 Traditions",Group district: Cotswolds,Severn,South Midlands,England,Cocaine Anonymous
1e292774-4a3b-5138-8f4c-4a2717ce017a,Lack Of Power,19:30,1hr 15mins,SO14 2AH,50.899007,-1.405596,St Josephs Church Hall,Bugle St,nearly.gentle.frogs,Wednesday,False,False,False,False,,"In-person,Speaker","Meeting opens @ 7.15pm
Starts @ 7.30pm - 8.45pm
Topic:
this is our rebooted, revised, refreshed and exciting solution based meeting on the big book of alcoholics anonymous.
With a fresh new format, committee and style.
Come along and join us...
This meeting is a great way to get a further understanding of the solution of recovery and freedom from addiction.
Each week we have a section of the book read out and a share based on that text.
TRADITION 7 STATES WE ARE FULLY SELF-SUPPORTING, DECLINING OUTSIDE CONTRIBUTIONS.
ALL MONIES RAISED WILL GO TOWARDS THE RUNNING OF THE MEETING, LITERATURE, ZOOM AND ANY LEFT GOES TO DISTRICT TO HELP THE STILL SUFFERING ADDICT.
PLEASE CONTRIBUTE HERE IF YOU CAN.
http://PayPal.me/lackofpower
Group district: South Central",Solent,South East,England,Cocaine Anonymous
c3ba4cea-0e01-5d90-9a48-345780e02385,Cocaine Anonymous,19:30,1hr 30mins,BA20 2EZ,50.943526,-2.662849,St James Church Meeting Rooms,Preston Rd,class.score.after,Friday,False,False,False,False,,"In-person,Big Book,Discussion,Speaker",Group district: South Central,Somerset,South West,England,Cocaine Anonymous
7d47021a-b158-5cff-8d68-a73cd107e211,Sufficient Force,19:00,1hr,TA9 3HR,51.22186,-2.975382,Southwell House,"Bank St,Off Market St Car Park (Behind St John's Ambulance HQ)",ditching.fatter.freezers,Friday,False,False,False,False,,"In-person,Speaker","Street parking
Group district: West Country Area",Somerset,South West,England,Cocaine Anonymous
d11af7ca-86b8-52a6-a79b-522a748f8ff9,A Vision For You,19:30,1hr,HP18 9AF,51.772793,-0.992978,Long Crendon Baptist Church,"High St,Long Crendon,Aylesbury",loyal.deep.racetrack,Wednesday,False,False,True,True,This meeting is open and anyone may attend.,"In-person,Child-Friendly,Open,Speaker","Chit
On site parking
Group district: Cotswolds",South Midlands,South Midlands,England,Cocaine Anonymous
ea64afe8-e22d-5532-bca6-872baaf82187,A Design For Living,19:30,1hr 30mins,PO5,50.7860103,-1.0837457,Kings Church,"Somers Rd,Portsmouth",silver.twigs.outer,Friday,False,False,True,False,This meeting is closed; only those who have a desire to stop using may attend.,"In-person,Candlelight,Closed,Discussion,LGBTQ","Chit system
Meeting for members of the lgbq+ community who want to stop using.
Group district: Hants and Berks",Southdown,South East,England,Cocaine Anonymous
75fd0959-a4e9-559c-9064-c00181c67165,Huddersfield Jaywalkers,19:00,1hr 30mins,HD1,53.6449968,-1.7879712,The Basement Recovery Project,"New St,Huddersfield",sugars.tried.chat,Sunday,False,False,False,True,This meeting is open and anyone may attend.,"In-person,Big Book,Open","Meeting cancelled for two weeks over Christmas. Restarts 7th January 2024
Group district: Southwest Yorkshire",West Yorkshire,North East,England,Cocaine Anonymous
508572b7-0559-5a43-9db6-185e0a174d07,Realm Of The Spirit,19:30,1hr,HD1,53.6449968,-1.7879712,The Basement Recovery Project,"New St,Huddersfield",sugars.tried.chat,Thursday,False,False,True,False,,"In-person,Speaker,Step Meeting","Chit
Group district: Southwest Yorkshire",West Yorkshire,North East,England,Cocaine Anonymous
cdd5ba16-f430-51df-aa85-9ca65ed997aa,Reaching Out,17:00,"1hr ",PH2,56.357329,-3.4341242,Trinity Nazarene Church,"York Pl,Perth",decorated.prevents.quietest,Tuesday,False,False,False,True,,"In-person,Newcomer,Open",Doors open for fellowship from 5pm.,,,Scotland,Cocaine Anonymous
a569d4f7-d4c3-573c-804e-c87890199401,Recovery At The Rock,20:00,1hr 30mins,G82,55.9523374,-4.5489288,St Augustine's Church Hall,"St Mary's Way,Dumbarton",fishery.smile.random,Wednesday,False,False,False,True,,"In-person,Newcomer,Open",,,,Scotland,Cocaine Anonymous
4f757376-826c-50b8-93c8-cece540e7933,What's It Cauld? (Cumbernauld Monday Night),14:00,"1hr ",G67,55.9505047,-3.9549582,The Salvation Army,"Clouden Rd,Cumbernauld,Glasgow",food.posed.enhancement,Monday,False,False,False,True,,"In-person,Newcomer,Open",,,,Scotland,Cocaine Anonymous
5dfb413f-a46b-5e2e-bea2-fde3a7a03dd3,Happy Mondays Glasgow,19:30,1hr 15mins,G32,55.8486865,-4.16829,St Paul's Church,"1653 Shettleston Rd,Glasgow",tells.plays.renew,Monday,False,False,False,True,,"In-person,Newcomer,Open",,Glasgow East,Glasgow,Scotland,Cocaine Anonymous
0d4e1607-c9fd-58a7-8121-920912204673,Shettleston Tuesdays - There Is A Solution,20:00,1hr 30mins,G32,55.8486865,-4.16829,St Paul's Church,"1653 Shettleston Rd,Glasgow",tells.plays.renew,Tuesday,False,False,False,True,,"In-person,Newcomer,Open",,Glasgow East,Glasgow,Scotland,Cocaine Anonymous
4a7b843f-ffaa-555c-bfd6-c4d8e7284ecf,TGI Friday Paisley CA,19:30,1hr 30mins,PA1,55.8489335,-4.4013781,Salvation Army,"Mill St,Paisley",crush.acting.refuse,Friday,False,False,False,True,,"In-person,Newcomer,Open",No dogs allowed,Paisley and District,South West Scotland,Scotland,Cocaine Anonymous
e7852cdc-0a3c-5208-9d27-4f9fa67a0310,Livingston Happy Mondays,19:30,"1hr ",EH54 8PT,55.901802,-3.545983,St Peter's Church,"CARMONDEAN BUSINESS CENTRE​,9 Carmondean Centre S,Deans,Livingston",cargo.stroke.washed,Monday,False,False,False,True,,"In-person,Newcomer,Open",,West Lothian,Scotland,Scotland,Cocaine Anonymous
b0a1d796-e3be-58e8-a01d-ff0072495e08,Big Book Meeting,19:30,1hr,NP20 1LE,51.586052,-2.995741,The Voice Hub,"Mccarthy's Court,School Lane(Lane Opp Job Centre,Charles St,Newport Town Centre)",statue.grant.train,Monday,False,False,False,False,,"In-person,Big Book,Step Meeting","Big book step study, with a monthly share on the current step
Group district: Wales Area",South East Wales,Wales and Borders,Wales,Cocaine Anonymous
c52576dd-70b2-5010-b9b4-5be53ccf8de1,Tavistock,19:00,"1hr ",PL19 0AW,50.550565,-4.145909,The Printworks,Pym St,horns.reds.sits,Saturday,False,False,False,False,,,,,,England,Narcotics Anonymous
0addf84d-8231-50e0-a6fa-7fe2eea1f19e,Stratford Friday Night-The War Is Over,19:00,1hr 15mins,E15 1HP,51.544217,0.004853,"Upstairs Room, Stratford Advice Arcade","107-109 The Grove,Stratford,London",rubble.rust.bucked,Friday,False,False,False,False,,,,East London,London (North),England,Narcotics Anonymous
764dbdaa-6cb5-51e7-bb67-5b8ad317ae1f,The Friday Night Reality Check Home Group,19:15,1hr 30mins,CM2 0PP,51.730523,0.471595,Open Road,"Mansard House,107-109 New London Rd",having.drove.pays,Friday,False,False,False,False,,,,Essex,Eastern,England,Narcotics Anonymous
a0039f9c-e05d-5d9a-a1b5-933157ae53c0,NACHO Finsbury Park,19:00,"1hr ",N7 6AA,51.558882,-0.117157,Solidarity Hub,"48 Seven Sisters Road,Islington,London",cover.steer.foods,Tuesday,False,False,False,False,,,,London North,London (North),England,Narcotics Anonymous
efd7a5bc-689c-5eef-8763-8f2209fcaf12,Morning Glory,09:15,1hr 15mins,W10 6LP,51.518728,-0.218354,"The Den, St. Helens Church","St. Helens Gardens,North Kensington,London",await.forget.surely,Saturday,False,False,False,False,,,,London Westway,London (North),England,Narcotics Anonymous
953ae655-5b62-5ed0-befb-82c46a29ca6d,Newcomers,19:00,1hr 30mins,WN7 2PJ,53.494491,-2.509587,"Community Room, Kennedy House","Brunswick Street,Leigh",decoder.dwarf.harvest,Thursday,False,False,False,False,,,,Manchester,North West,England,Narcotics Anonymous
6b74831f-8905-59c9-950c-916e82d991db,Warrington Tuesday NA Meeting,19:30,1hr 30mins,WA5 0DY,53.406725,-2.60562,Urban Church,"Longshaw Street,Warrington",takes.kicked.purely,Tuesday,False,False,False,False,,,,Merseyside and South West Lancs,North West,England,Narcotics Anonymous
555de200-7e0d-510d-b5c9-813dd36d9575,Hallgarth Newcomers Meeting,19:15,"1hr ",LA9 5NU,54.339476,-2.759374,Hallgarth Community Centre,"Hallgarth Circle,Kendal",dizzy.flattered.manifests,Friday,False,False,False,False,,,,North West,North West,England,Narcotics Anonymous
c8e40f03-56b2-5fcc-a081-7ee11a090f16,Shipley Monday,18:45,"1hr ",BD18 3QY,53.834314,-1.778333,Shipley Baptist Church,"New Kirkgate,Shipley",arena.jolly.urban,Monday,False,False,False,False,,,,North Yorkshire,North East,England,Narcotics Anonymous
9740bed0-9ea2-5393-9537-9ff257fc53bf,Green And Gold Questions Meeting,19:15,1hr 30mins,LE1 3PL,52.636977,-1.127381,The Stairway Project,68 Humberstone Gate,wink.froze.avoid,Wednesday,False,False,False,False,,,,Nottinghamshire or Leicestershire,Midlands,England,Narcotics Anonymous
35fcaf62-83bf-5e32-907e-7203b6d12668,Nottingham Women’S Meeting,18:15,"1hr ",NG1 5LP,52.957484,-1.156612,Nottingham Womens Centre,"30 Chaucer Street,Nottingham",really.soon.other,Tuesday,False,False,False,False,,,,Nottinghamshire or Leicestershire,Midlands,England,Narcotics Anonymous
606d5bfd-9c65-5d3d-8872-423137e53a8e,Biddulph Saturday,17:00,"1hr ",ST8 6NE,53.111237,-2.16832,Biddulph Youth & Community Zone,"Church Street,Biddulph",treaties.charts.recital,Saturday,False,False,False,False,,,,Potteries and District,Midlands,England,Narcotics Anonymous
0c361781-f829-58aa-b763-267b5f1a4ce2,Friday Freedom,19:30,"1hr ",GL1 1UA,51.8574043,-2.2408605,Friends Meeting House,"Greyfriars,Gloucester",verge.suffer.hedge,Friday,False,False,False,False,,,,Severn,South Midlands,England,Narcotics Anonymous
ca80af90-aaf3-5bfd-9ca3-d2ec73ee238e,Super Sunday,18:00,"1hr ",GL1 1UA,51.8574043,-2.2408605,Friends Meeting House,"Greyfriars,Gloucester",verge.suffer.hedge,Sunday,False,False,False,False,,,,Severn,South Midlands,England,Narcotics Anonymous
ef280cf9-c156-5560-aa1e-da081d34bdbc,Southampton Serenity Sunday,19:00,1hr 30mins,SO14 1NX,50.905076,-1.396517,St Mary's  Parish Office,135 St Mary's St,anyway.payer.audit,Sunday,False,False,False,False,,,,Solent,South East,England,Narcotics Anonymous
bc24bc6d-bdd8-5140-a1f5-a2ba8ae85625,Never Alone,19:30,1hr 30mins,RG6 1DN,51.450157,-0.936094,"Upper Room, Park United Reform Church","21 Palmer Park Avenue,Reading",filled.assume.scam,Friday,False,False,False,False,,,,Thames Valley,South Midlands,England,Narcotics Anonymous
dc23ea1e-e456-509b-ae76-79f1abc88115,Dorchester Woman’S Monthly Meeting,19:30,1hr 30mins,DT1 1RR,50.714577,-2.442348,"Dorford Centre, Dorchester Baptist Church","2 Bridport Road,Dorchester",relate.alien.moderated,Wednesday,False,False,False,False,,,,West Dorset,South West,England,Narcotics Anonymous
43d22a82-d1d4-5098-b01a-89346a45aabe,Just For Today,19:15,1hr 15mins,ME7 1XA,51.386429,0.547356,The Salvation Army Church,"50 Green Street,Gillingham",laying.hotel.melon,Thursday,False,False,False,False,,,,West Kent,South East,England,Narcotics Anonymous
38141975-c223-5d64-87cd-365152f5ed05,**CLOSED 26 DEC** Newry NA Group - Ballybot House,19:00,"1hr ",BT35 8GB,54.138698,-6.356133,Ballybot House,"28 Corn Market, Newry, Co. Down",most.amounting.renew,Tuesday,False,True,False,False,,,"2nd Floor, Room C.
This is a literature study group.
This meeting is wheelchair accessible.",,,Northern Ireland,Narcotics Anonymous
5143e078-12bc-50a7-8e06-2389b3e49dec,**OPEN DEC & JAN** Newry NA Group - Hill Street,19:30,"1hr ",BT34 1AT,54.174585,-6.338506,Newry Cathedral,"38-40 Hill Street,Newry,Co. Armagh",goats.zealous.empire,Thursday,False,True,False,False,,,This meeting is wheelchair accessible.,,,Northern Ireland,Narcotics Anonymous
bc0c2bfc-e559-5972-8660-df6e40f60df1,**OPEN DEC & JAN** Newry NA Group - Thomas Davis GFC,18:00,"1hr ",BT35 8PQ,54.16875,-6.353303,Thomas Davis GFC,"21 Dorans Hill, Newry",crass.editor.deeply,Sunday,False,False,False,False,,,This is a literature study group.,,,Northern Ireland,Narcotics Anonymous
daf20b82-82b0-5861-bea0-f81e54b7a4c6,**CLOSED 26 DEC & 2 JAN** NA Group - Donegall Pass - Meditation & SPAD Lit. Meeting,12:00,1hr 15mins,BT7 1BL,54.590867,-5.928838,Donegall Pass Community Centre,"25 Apsley Street, Belfast",later.this.punchy,Tuesday,False,True,False,False,,,"15 minute silent meditation followed by the Spiritual Principle a Day reading and sharing.
This is a literature study group.
This meeting is wheelchair accessible.
This meeting encourages its participants to engage in quiet meditation.",Antrim,Northern Ireland,Northern Ireland,Narcotics Anonymous
069636d4-69f5-547f-a7cc-1c1354a02db3,**CLOSED 27 DEC & 3 JAN** NA Group - Sandy Row - Lit. / Speaker Meeting,11:00,"1hr ",BT12 5ER,54.591976,-5.936951,Sandy Row Community Centre,"63/75 Sandy Row, Belfast",recall.frozen.dash,Wednesday,False,False,False,False,,,"In the committee room at the rear of building. Format alternates between Literature meeting and Speaker/Discussion meeting.
This is a literature study group.",Antrim,Northern Ireland,Northern Ireland,Narcotics Anonymous
51da8807-3a25-5e9a-9d9f-29d9446096ad,**CLOSED 29 DEC** Lisburn Men's NA Group - Lit. Meeting,19:00,"1hr ",BT28 1XP,54.513169,-6.044006,Bridge Community Centre,"50 Railway Street,Lisburn,Co. Antrim",craft.bank.enter,Friday,False,False,False,False,,,"This meeting is meant to be attended by men only.
This is a literature study group.",Antrim,Northern Ireland,Northern Ireland,Narcotics Anonymous
5dafc2f4-1820-5a35-a186-4bf2a988e5e4,**CLOSED 30 DEC** Lisburn NA Group - SPAD Lit. Meeting,10:00,"1hr ",BT28 1XP,54.513169,-6.044006,Bridge Community Centre,"50 Railway Street,Lisburn,Co. Antrim",craft.bank.enter,Saturday,False,False,False,False,,,This is a literature study group.,Antrim,Northern Ireland,Northern Ireland,Narcotics Anonymous
6df85760-4e87-5267-b6cd-39725620f832,**OPEN DEC & JAN** NA Group - Ballynafeigh - IP Lit. Meeting,20:00,"1hr ",BT7 3GG,54.580471,-5.920966,Ballynafeigh Community Development Association,"283 Ormeau Road, Belfast",moods.thigh.healers,Wednesday,False,True,False,False,,,"Please use Candahar St Entrance (Side door).
This is a literature study group.
This meeting is wheelchair accessible.",Antrim,Northern Ireland,Northern Ireland,Narcotics Anonymous
e758856d-4e46-52ee-adfa-8e439dbc310a,**OPEN DEC & JAN** NA Group - Ballynafeigh - JFT Meeting,12:00,"1hr ",BT7 3GG,54.580471,-5.920966,Ballynafeigh Community Development Association,"283 Ormeau Road, Belfast",moods.thigh.healers,Monday,False,True,False,False,,,This meeting is wheelchair accessible.,Antrim,Northern Ireland,Northern Ireland,Narcotics Anonymous
129dfc71-b0a3-5bd8-8921-d7d33cf7268a,**OPEN DEC & JAN** NA Group - Ballynafeigh - SPAD Lit. Meeting,19:00,"1hr ",BT7 3GG,54.580471,-5.920966,Ballynafeigh Community Development Association,"283 Ormeau Road, Belfast",moods.thigh.healers,Friday,False,True,False,False,,,"This is a literature study group.
This meeting is wheelchair accessible.",Antrim,Northern Ireland,Northern Ireland,Narcotics Anonymous
212ef2a8-51fe-5ce9-b7c8-b12fa26dd281,**OPEN DEC & JAN** NA Group - St Paul's - JFT Lit. Meeting,19:30,1hr 15mins,BT12 6AB,54.595308,-5.95645,St Paul’S Parish Church,"125 Falls Road, Belfast",transit.sample.deal,Thursday,False,True,False,False,,,"Parochial Centre, behind the main church building.
This meeting is wheelchair accessible.",Antrim,Northern Ireland,Northern Ireland,Narcotics Anonymous
c3d9310b-7fe6-5478-82de-7922627f1f98,**OPEN DEC & JAN** NA Group - St Paul’S - Speaker Meeting,19:30,1hr 15mins,BT12 6AB,54.595308,-5.95645,St Paul’S Parish Church,"125 Falls Road, Belfast",transit.sample.deal,Monday,False,True,False,False,,,"Parochial Centre, behind the main church building.
This meeting is wheelchair accessible.",Antrim,Northern Ireland,Northern Ireland,Narcotics Anonymous
a8b59a25-1318-5fe9-90f4-7cb7826cbf12,**OPEN DEC & JAN** Shankill NA Group -  Spiritual Principles Meeting,14:00,"1hr ",BT13 2DR,54.60329,-5.951329,Church Of God Youth Centre,"225 Conway Street, Shankill, Belfast",exact.closed.twig,Saturday,False,True,False,False,,,"This is a literature study group.
This meeting is wheelchair accessible.",Antrim,Northern Ireland,Northern Ireland,Narcotics Anonymous
207c0216-8d5e-5da2-af0f-1c5b5ba4e490,"**TEMP VENUE - 24 & 31 Dec - St Paul's** NA Group - Houben Centre, Holy Cross Church",19:30,"1hr ",BT12 6AB,54.595308,-5.95645,St Paul's Chapel,"125 Falls Road, Belfast",transit.sample.deal,Sunday,False,False,False,False,,,Parochial Centre behind the chapel itself.,Antrim,Northern Ireland,Northern Ireland,Narcotics Anonymous
65a42047-bc57-5d8a-a7dd-d69b1e6ea03b,**CLOSED 23 & 30 DEC** Lurgan NA Group -  Lit. Meeting,18:30,"1hr ",BT66 8DY,54.460847,-6.331338,Lurgan Town Hall,"2-4 Union Street, Lurgan, Co. Armagh",quarrel.icon.known,Saturday,False,True,False,False,,,"Entrance through carpark entrance of Town Hall. Basement Room.
This is a literature study group.
This meeting is wheelchair accessible.",Armagh,Northern Ireland,Northern Ireland,Narcotics Anonymous
0a457435-31a6-5f22-9bfe-f02817dae508,**OPEN DEC & JAN** NA Group - Queen Street,14:30,"1hr ",BT48 7EG,55.000638,-7.324338,,"12A Queen Street,Derry",lifted.plenty.sang,Monday,False,False,False,False,,,Behind McGeady & Molloy Solicitors | Alternating Format.,Derry,Northern Ireland,Northern Ireland,Narcotics Anonymous
3bf5a56b-4a7e-5c8b-8046-8837b2233ab5,**OPEN DEC & JAN** Fellowship By The Sea NA Group,20:00,1hr 30mins,BT33 0DL,54.208553,-5.893143,Centre61,"10-12 Causeway Road, Newcastle",targeted.warthog.today,Friday,False,False,False,False,,,,Down,Northern Ireland,Northern Ireland,Narcotics Anonymous
3c3d44ff-109a-5454-9c56-cacc7a4cd932,**OPEN DEC & JAN** Newtownards NA Group,18:30,"1hr ",BT23 4AN,54.595393,-5.707481,St Mark's Parish Church,"Church St, Newtownards",running.swatting.lakes,Thursday,False,False,False,False,,,"Speaker Meeting 1st Thursday every month.
This is a relatively new meeting, that has been started within the past 6 months.",Down,Northern Ireland,Northern Ireland,Narcotics Anonymous
89b8e3e7-2d7b-5624-8eac-03b79ae739d0,**TEMP VENUE - OPEN DEC & JAN** NA Group - Coalisland,19:30,"1hr ",BT71 4LS,54.541204,-6.703568,Society Of St Vincent De Paul,"Ozanam Centre, Coalisland",performed.jammy.alpha,Wednesday,False,True,False,False,,,"**TEMPORARY VENUE 27 DEC TO 3 JAN**.
This is a literature study group.
This meeting is wheelchair accessible.",Tyrone,Northern Ireland,Northern Ireland,Narcotics Anonymous
4e9a3070-ee4e-5e86-b858-892fac7d7577,**TEMP VENUE - OPEN DEC & JAN** NA Group - Coalisland,11:00,"1hr ",BT71 4LS,54.541204,-6.703568,Society Of St Vincent De Paul,"Ozanam Centre, Coalisland",performed.jammy.alpha,Saturday,False,True,False,False,,,"**TEMPORARY VENUE 27 DEC TO 3 JAN**.
This is a literature study group.
This meeting is wheelchair accessible.",Tyrone,Northern Ireland,Northern Ireland,Narcotics Anonymous
7a00e10b-4ad6-5d47-86bd-55bda54c87ae,**TEMP VENUE - 23 & 30 Dec - White Oaks** Hope For The Future NA Group - JFT Meeting.,11:30,"1hr ",F93 RK11,55.0533151,-7.3285779,,"White Oaks, Iosas Centre, Muff",yellowed.bonfire.joyously,Saturday,False,True,False,False,,,"This is a relatively new meeting, that has been started within the past 6 months.
This meeting is wheelchair accessible.",,,Republic of Ireland,Narcotics Anonymous
d5fb3886-1fd9-5e30-802c-15505b035d1c,For The Newcomer - First Tuesday Of The Month Is A Step Meeting,20:00,"1hr ",,52.8337274,-6.9025946,Askea Parish Community Center,"Brownshill Road, Askea",faces.emerges.knowing,Tuesday,False,False,False,False,,,Open as normal over Christmas.,,,Republic of Ireland,Narcotics Anonymous
95bc13a7-4699-5714-9c58-d1105a85f295,Meeting Of Hope,19:00,"1hr ",,54.0712299,-7.0757612,57 Market Street,"Drumaveil North, Cootehill",telephone.unorthodox.paths,Wednesday,False,False,False,False,,,OPEN as normal over Christmas.,,,Republic of Ireland,Narcotics Anonymous
203be1cd-1b14-59e9-a075-0fcd3980bb33,Meeting Of Hope,19:00,"1hr ",,54.0712299,-7.0757612,57 Market Street,"Drumaveil North, Cootehill",telephone.unorthodox.paths,Saturday,False,False,False,False,,,OPEN as normal over Christmas.,,,Republic of Ireland,Narcotics Anonymous
e9671b6e-5212-595a-8c73-295feb525a82,"**OPEN DEC & JAN** Experience, Strength & Hope NA Group - Letterkenny Pastoral Centre - Speaker Meeting",20:00,1hr 30mins,F92 HP66,54.9521117,-7.7392139,Raphoe Pastoral Centre,"Monastery Ave.,Cathedral Square,Letterkenny,Co. Donegal",water.local.mulled,Wednesday,False,False,False,False,,,,Donegal,Republic of Ireland,Republic of Ireland,Narcotics Anonymous
be5f43f8-cbc6-52c1-8646-de4f2f94f51c,Drimnagh,19:30,"1hr ",,53.3353589,-6.3175234,John Bosco Youth Cntr,"Davitt Rd, Dublin 12",lucky.sheet.invent,Wednesday,False,False,False,False,,,OPEN as normal over Christmas.,Dublin,Republic of Ireland,Republic of Ireland,Narcotics Anonymous
21031658-f4a7-5fec-81b8-0d7a895a293f,Drimnagh,19:30,"1hr ",,53.3353589,-6.3175234,John Bosco Youth Cntr,"Davitt Rd, Dublin 12",lucky.sheet.invent,Friday,False,False,False,False,,,OPEN as normal over Christmas.,Dublin,Republic of Ireland,Republic of Ireland,Narcotics Anonymous
5c9c9b2a-2085-556c-9b8f-17de23aff262,From The Street To The Seat Group,19:00,"1hr ",D22 K2H3,53.3440904,-6.3950814,Beside Rowlagh Church,"Liscarne Close, Rowlagh, Clondalkin, Dublin 22",serve.grit.mugs,Monday,False,False,False,False,,,Christmas Day and New Years Day only.,Dublin,Republic of Ireland,Republic of Ireland,Narcotics Anonymous
d3592b25-5a4f-591a-bc2a-4bf6ca58b9d6,Light Of Hope Group,18:00,"1hr ",D24 A275,53.2760035,-6.3795164,CARP Killinarden Building,"Killinarden Heights, Dublin 24",improperly.uncles.stacked,Monday,False,False,False,True,,,"Christmas Day Only.
This meeting gathers in a facility that is usually closed on holidays.",Dublin,Republic of Ireland,Republic of Ireland,Narcotics Anonymous
6cfba518-82f2-532b-aa10-6681072bff74,NA Kiltalown,12:00,"1hr ",,53.2756209,-6.4028971,"TRP, Kiltalown House","Elm Drive, Jobstown, Tallaght",bother.furnish.dreary,Wednesday,False,False,False,False,,,Dec 27th only.,Dublin,Republic of Ireland,Republic of Ireland,Narcotics Anonymous
7b8c9eba-a1e9-54f7-bce9-66b78f70ae36,NA Kiltalown,19:00,"1hr ",,53.2756209,-6.4028971,"TRP, Kiltalown House","Elm Drive, Jobstown, Tallaght",bother.furnish.dreary,Wednesday,False,False,False,False,,,CLOSED Dec 27th and Jan 3rd.,Dublin,Republic of Ireland,Republic of Ireland,Narcotics Anonymous
73ccba28-02b3-5c23-9cbb-fd1f6ebe2ca1,Park House,20:30,"1hr ",,53.2928157,-6.1409536,,"Library Road, Dun Laoghaire, Co. Dublin",feared.second.rings,Monday,False,False,False,False,,,CHRISTMAS DAY only.,Dublin,Republic of Ireland,Republic of Ireland,Narcotics Anonymous
15e8abe7-7b94-5e24-9cfc-dcee211927f9,Service Keeps You Clean Group,12:00,"1hr ",D01 ER89,53.3507923,-6.2710347,Soilse,"7 Henrietta Place, Dublin 1",probe.angel.healers,Monday,False,False,False,False,,,CHRISTMAS DAY ONLY.,Dublin,Republic of Ireland,Republic of Ireland,Narcotics Anonymous
5d8eaef7-1c6f-59b2-b8d4-bb38e3690cbb,Service Keeps You Clean Group,13:00,"1hr ",D01 ER89,53.3507923,-6.2710347,Soilse,"7 Henrietta Place, Dublin 1",probe.angel.healers,Tuesday,False,False,False,False,,,St STEPHENS DAY ONLY.,Dublin,Republic of Ireland,Republic of Ireland,Narcotics Anonymous
06e3def6-f579-5e80-ac77-52591d5679f2,Surrender To Win,20:00,"1hr ",,53.3393304,-6.2227869,Youth Club,"St Marys Terrace, Strangford Road East, East Wall, Dublin 3",ranged.rams.bumps,Friday,False,False,False,False,,,OPEN as normal over Christmas.,Dublin,Republic of Ireland,Republic of Ireland,Narcotics Anonymous
61d9dae2-c132-5658-abf2-7a0696605610,The Glin - How It Works And Why,12:00,"1hr ",,53.4003932,-6.2066514,The Glin Centre,"Glin Road, Dublin 17",guess.easy.tried,Monday,False,False,False,False,,,"CHRISTMAS DAY ONLY.
This meeting gathers in a facility that is usually closed on holidays.",Dublin,Republic of Ireland,Republic of Ireland,Narcotics Anonymous
8cf6f6ee-7ad1-51ad-9bab-a245e0a5555e,Aberdeen Monday Night Meeting,19:00,1hr 30mins,AB25 1BT,57.151389,-2.102358,Credo Centre,"14-20 John Street,Aberdeen",truth.took.loops,Monday,False,False,False,False,,,,Aberdeen and District,East of Scotland,Scotland,Narcotics Anonymous
88b09596-9ef9-5f12-b067-a7316684ef11,OA Meeting,18:00,,RH11 8FG,51.107056,-0.22453,Call For Location,"Hawkesmoor Rd,,Crawley",hunter.snow.rating,Monday,False,False,False,False,,,"Contact: Clare +44 7758 891281
Language: English
Integroup Number: 09481
Integroup Name: South Coast IG
Integroup Phone: +447832375953",West Sussex,South East,England,Overeaters Anonymous
53153b7c-6bd5-5512-bf2a-e8189819e493,OA Meeting,19:15,,,52.2744269,-7.1223571,Edmund Rice Youth And Community Complex,"Manor Str,Floor 3,Waterford City,Ireland",organs.pitching.elevator,Tuesday,False,False,False,False,,,"Contact: Denise +353 87 628 8031
Language: English
Integroup Number: 09561
Integroup Name: Cork IG
Integroup Phone: +353863526467",,,Republic of Ireland,Overeaters Anonymous
ec7ee453-7065-58f2-9ccb-f0cfc2976d96,OA Meeting,20:00,,,51.9178687,-8.1716241,Our Lady Of Lourdes Hospital Midleton,"Old Library,Top Floor First Building,Co Cork Midleton,Ireland",barricades.hygiene.armies,Wednesday,False,False,False,False,,OA Steps and/or Traditions Study,"Contact: Aileen +353 87 247 4355
Language: English
Integroup Number: 09561
Integroup Name: Cork IG
Integroup Phone: +353863526467",Cork,Republic of Ireland,Republic of Ireland,Overeaters Anonymous
