Guid,Title,Time,Duration,Postcode,Latitude,Longitude,Venue,Address,What3Words,Day,Hearing,Wheelchair,Chit,Open,OpenFormat,Format,Note,Region,Area,Country,Type
5ccc54aa-2c16-55bc-bb67-3799e7e0e230,"Abchurch City Steps 3, 7 &Amp; 11 Meditation",19:00,"1hr ",EC4N 7BA,51.511505,-0.088558,St Mary Abchurch,"Abchurch Lane (Off King William St)., Entrance Roud The Side Of The Church",oldest.clear.rift,Wednesday,False,False,False,False,,,If late knock loudly.,,,England,Alcoholics Anonymous
d3e9e084-f40d-5558-a418-90e115266bbe,Alfreton Traditions For Recovery,19:45,"1hr ",DE55 7JJ,53.098395,-1.380865,Alfreton Parish Hall,9 Mansfield Rd,unwanted.cove.expert,Wednesday,False,True,False,True,Open,,,,,England,Alcoholics Anonymous
8fc46b22-051e-52ff-93da-709b1ca9ee7c,Armitage With Handsacre,19:30,1hr 30mins,WS15 4UZ,52.738134,-1.87285,Room 1,"Armitage With Handsacre Village Hall, Shropshire Brook Rd",assets.helping.enveloped,Monday,True,True,False,False,,,No meetigs are held on Bank Holiday Mondays due to Council restrictions.,,,England,Alcoholics Anonymous
cf84647a-c7c9-529b-8fc6-cc1680b6fdbd,Ashburton Step &Amp; Tradition,19:30,"1hr ",TQ13 7DD,50.515027,-3.75492,St Lawrence Chapel,St Lawrence Ln,famous.awkward.gambles,Thursday,False,False,False,False,,,,,,England,Alcoholics Anonymous
12c94f4c-e34f-5575-8dce-c0989dd03759,Aylesbury Bobs Place,18:30,"1hr ",HP19 7HT,51.817159,-0.840246,Fairford Leys Church,Hampden Sq,filer.cans.deflection,Friday,False,False,False,True,Open,,,,,England,Alcoholics Anonymous
92aad83d-858b-5e26-8f7a-6108320a0e5e,Bakewell,19:30,1hr 30mins,DE45 1EL,53.211104,-1.674869,Bakewell Methodist Church,Matlock Rd,waxer.homecare.harmlessly,Friday,False,False,False,True,Open,,,,,England,Alcoholics Anonymous
7018ec7f-cc7e-53da-bfe8-789a1e56d49e,Barnes Lunchtime Step &Amp; Tradition,13:00,1hr 30mins,SW13 9HL,51.475003,-0.241865,Melville Rooms,"St Mary's Parish Church, Church Rd.",bike.asking.spark,Friday,False,True,True,False,,,Chit system available.,,,England,Alcoholics Anonymous
e62c5191-761d-561e-b51a-c824320f1795,Belgravia Early Monday Men,18:30,"1hr ",SW1W 9AL,51.498152,-0.149138,St Peter's Church,"The Meeting Room, Ground Floor, Via The, Main Gate, 119 Eaton Square",doing.hears.dress,Monday,False,True,True,False,,,Chit system available.,,,England,Alcoholics Anonymous
0be3b3e7-fb35-5f1c-bd80-bc4337f4b4d9,Belgravia Step/Tradition,18:00,"1hr ",SW1W 9AL,51.498152,-0.149138,St Peter's Church,"The Meeting Room, Ground Floor, Via The, Main Gate, 119 Eaton Square",doing.hears.dress,Thursday,False,False,False,False,,,,,,England,Alcoholics Anonymous
73ce425b-0906-5119-90c0-7bb6a0fd2f70,"Blyth Experience, Strength &Amp; Hope",11:00,1hr 30mins,NE24 5AN,55.126617,-1.541092,Briardale House,Briardale Rd,hope.supply.poster,Tuesday,False,True,True,True,Open,,,,,England,Alcoholics Anonymous
172abc99-0e60-56f4-9ce1-5337e0594d98,Borehamwood &Amp; Elstree,20:00,1hr 15mins,WD6 3PJ,51.653669,-0.281822,Allum Manor House &Amp; Hall,"2 Allum Ln, Elstree",speak.grants.bets,Tuesday,False,True,False,True,Open,,Free parking available.,,,England,Alcoholics Anonymous
8bc9566f-fdbe-556d-abac-4d678defa628,Brentwood Open,19:00,1hr 30mins,CM15 9RD,51.639089,0.280237,Pilgrims Hatch Parish Hall,Orchard Lane/Ongar Rd,blocks.slip.hello,Monday,False,True,False,True,Open,,,,,England,Alcoholics Anonymous
1de6ae60-c822-58c8-863a-de11e2b0a29a,Brentwood Pilgrims Hatch,16:00,"1hr ",CM15 9RD,51.639089,0.280237,Pilgrims Hatch Parish Hall,Orchard Lane/Ongar Rd,blocks.slip.hello,Sunday,False,True,False,True,Open,,,,,England,Alcoholics Anonymous
39dc5dfb-ee09-5f97-ab3a-f7fb8fdd39c5,Brentwood Pilgrims Hatch Hybrid,18:00,"1hr ",CM15 9RD,51.639089,0.280237,Pilgrims Hatch Parish Hall,Orchard Lane/Ongar Rd,blocks.slip.hello,Wednesday,False,True,False,True,Open,,Zoom meeting ID: 865 9504 4094 Password: sober21,,,England,Alcoholics Anonymous
6822e197-d24e-5c56-aff7-54132f7edc2a,Brentwood Pilgrims Hatch Morning As Bill Sees It,10:30,"1hr ",CM15 9RD,51.639089,0.280237,Pilgrims Hatch Parish Hall,Orchard Lane/Ongar Rd,blocks.slip.hello,Saturday,False,False,False,True,Open,,Also held on Zoom ID: 89423933281 No password.,,,England,Alcoholics Anonymous
1e17a2c6-fb54-5079-9845-f60c8027b8be,Brentwood Pilgrims Hatch Step &Amp; Tradition,18:00,"1hr ",CM15 9RD,51.639089,0.280237,Pilgrims Hatch Parish Hall,Orchard Lane/Ongar Rd,washed.limes.clues,Thursday,False,True,False,False,,,,,,England,Alcoholics Anonymous
20e9090e-c045-5abb-bbb2-078c5f9bd577,Brighton Step 11 Prayer &Amp; Meditation,18:00,1hr 15mins,BN1 5DD,50.83338,-0.146162,St Lukes,64 Old Shoreham Rd,arts.lovely.words,Monday,False,True,False,True,Open,,,,,England,Alcoholics Anonymous
de451e0d-335d-5bff-895f-8990abe0c9a4,Broadstiars,19:00,1hr 30mins,CT10 1HQ,51.360954,1.442375,Holy Trinity Church Hall,"Church Rd, Off Nelson Place",league.butter.herds,Sunday,True,True,False,True,Open,,,,,England,Alcoholics Anonymous
d86e5da1-e5a0-5114-8635-9274c59afc31,Bromley Keston Daily Reflections,18:00,1hr 15mins,BR2 6HT,51.348841,0.03345,Keston Parish Church,"Church Rd, Keston",blast.orders.yards,Wednesday,False,False,False,True,Open,,,,,England,Alcoholics Anonymous
2111503c-ff32-5392-8302-42546e48b51b,Brussels Centre Group,13:00,"1hr ",,50.8453571,4.3479007,Olivetenhof/Rue Jardin Des Olives 8,1000 Brussels,rocks.goggle.amended,Saturday,False,False,False,False,,,,,,England,Alcoholics Anonymous
29d84a26-646d-5ae8-b877-6c0bbe026e7d,Buxton: Come &Amp; Go,12:15,1hr 45mins,SK17 6PX,53.257544,-1.911894,St Anne's Community Centre,Hardwick Square West,loving.motel.teardrop,Friday,False,True,False,False,,,,,,England,Alcoholics Anonymous
3b2852a0-3436-50e9-9d04-44a818038f94,Canary Wharf As Bill Sees It,17:30,"1hr ",E14 5RB,51.504413,-0.014519,Canary Wharf Prayer Room,2 Churchill Place,strain.sushi.calculating,Tuesday,False,True,False,True,Open,,,,,England,Alcoholics Anonymous
eb007cce-2772-5c1b-9219-ea846b96d292,Castletown As Bill Sees It,17:00,"1hr ",IM9 1EB,54.077579,-4.645983,St Marys RC Church,24 Bowling Green Rd,regret.renaming.smacked,Saturday,False,False,False,False,,,,,,England,Alcoholics Anonymous
0076c14b-a668-5e70-9f6c-aa512a70d89c,Chandlers Ford Afternoon,14:00,"1hr ",SO53 2LE,50.985593,-1.37388,Fryern Recreation Centre,"Recreation Ground, Greenways",wipes.dined.major,Wednesday,False,True,False,True,Open,,,,,England,Alcoholics Anonymous
10353854-0730-5c2e-b8fb-973a6cfc70f7,Cheshunt St James,19:00,1hr 30mins,EN7 6TP,51.712788,-0.077304,St James Church Hall,"St James Rd, Goffs Oak",charmingly.booth.audio,Monday,False,True,True,True,Open,,,,,England,Alcoholics Anonymous
abfab1ba-9584-52e3-bc03-ddbaf9fea42c,Cheshunt St James,19:00,1hr 30mins,EN7 6TP,51.712788,-0.077304,St James Church Hall,"St James Rd, Goffs Oak",charmingly.booth.audio,Wednesday,False,False,True,False,,,,,,England,Alcoholics Anonymous
c429086c-cc6f-5c1e-a36c-c9b8a2d6b574,City Let The Weekend Begin,18:30,"1hr ",EC4N 7BA,51.511505,-0.088558,St Mary Abchurch,"Abchurch Lane (Off King William St)., Entrance Roud The Side Of The Church",oldest.clear.rift,Friday,False,True,False,True,Open,,https://us02web.zoom.us/j/89063554532 Password: 328275 Email: [email protected],,,England,Alcoholics Anonymous
acbb2057-fec4-58f8-9bea-890153d5489a,City Serenity On Sunday,18:00,1hr 15mins,EC3M 1HS,51.510829,-0.082952,St Margaret Pattens Guild Church,"Rood Ln, Eastcheap",penny.pass.crop,Sunday,False,False,False,True,Open,,No Dogs allowed Church doors locked at 18:05,,,England,Alcoholics Anonymous
138169a0-a4fe-5e10-9d8a-011b5583b90a,City Step &Amp; Tradition,07:30,"1hr ",EC2V 6HH,51.515111,-0.096277,,"4 Foster Lane, Blue Door Next To St Vedast Church.",stage.souk.likely,Wednesday,False,True,True,False,,,Also held on Zoom Meeting ID: 89626393177 Password: 111111 Chit system available. Email: [email protected],,,England,Alcoholics Anonymous
a7b9274e-cb17-5f15-9f1d-93ddf4b21e28,City: Lunch,13:00,1hr 15mins,EC2V 6HH,51.515111,-0.096277,,"4 Foster Lane, Blue Door Next To St Vedast Church.",stage.souk.likely,Thursday,False,True,False,True,Open,,,,,England,Alcoholics Anonymous
76dafb25-94b1-5d41-8117-22c63d87810f,Clevedon Step,19:30,"1hr ",BS21 7RP,51.43946,-2.85776,Friends Meeting House,15 Albert Rd,tape.drama.verse,Tuesday,True,True,False,True,Open,,Separate meeting held on Zoom ID: 863 1193 0973 Password: 100635,,,England,Alcoholics Anonymous
be0b70f2-9bd8-52f0-acf0-72c5ea7c8b77,Coalville,12:15,1hr 30mins,LE67 3PH,52.722022,-1.373629,The Marlene Reid Centre,85 Belvoir Rd,towns.friday.noon,Tuesday,False,True,False,True,Open,,,,,England,Alcoholics Anonymous
30fa627a-c414-558a-bb17-76317f5b1931,Corby Share,18:00,1hr 30mins,NN17 2XF,52.499952,-0.718573,Arran Way Community Centre,"Mull Drive, Off Willowbrook Rd.",lodge.zeal.reactions,Sunday,True,True,False,True,Open,,,,,England,Alcoholics Anonymous
689bf958-a836-5110-a134-7872c4655111,Corby Share,20:00,1hr 30mins,NN17 2XF,52.499952,-0.718573,Arran Way Community Centre,"Mull Drive, Off Willowbrook Rd.",lawyer.throw.wool,Thursday,False,True,False,True,Open,,,,,England,Alcoholics Anonymous
f3c3896b-3b3f-5aa5-ace1-eea097478018,Covent Garden Newcomers There Is A Solution,17:45,"1hr ",WC2N 4EH,51.510773,-0.126638,,8 Hop Gardens (Off St Martin's Ln),plays.wires.entry,Saturday,False,True,False,True,Open,,,,,England,Alcoholics Anonymous
fc354c1f-f541-573e-8a6a-5bc2bd6f6aa5,Crieff Keep It Simple,19:00,1hr 30mins,PH7 3HR,56.369955,-3.842062,Crieff Cottage Hopsital,"King St, Mtg Is Located In The Day Room. Turn Right After Entering Main Foyer Through The Automatic Doors.",quits.handbag.cracks,Sunday,False,True,False,True,Open,,There is a strict NHS No Smoking policy and we expect attendees to be responsible and not to smoke on hospital premises.,,,England,Alcoholics Anonymous
5ce3ca6a-3c4c-5e77-a8e5-5a3879c4ecc6,Crowborough Friends Of Bill &Amp; Bob,20:00,1hr 30mins,TN6 1HA,51.053603,0.160727,United Church,Croft Rd,school.impulsive.chest,Friday,False,False,False,True,Open,,,,,England,Alcoholics Anonymous
93a7e82b-bc30-58c1-b599-671dba3e0122,Croydon How It Works,18:30,"1hr ",CR9 3LQ,51.377988,-0.096109,Alexandra House,32 Dingwall Rd,hails.shows.giving,Thursday,False,False,False,True,Open,,Zoom Meeting ID: 872 3362 7391 Password: 277355,,,England,Alcoholics Anonymous
07a96f8e-dc77-5ce7-ad27-640e3c24f2f3,Cyfarfod Cymraeg Sir Gaerfyrddin Welsh Speaking,11:00,"1hr ",SA14 6LR,51.793268,-4.088691,St Anne's Church Hall,"Bryngwili Rd, Cross Hands",oxidation.afflicted.symphony,Saturday,False,True,False,True,Open,,Welsh speaking - Bilingual on request (Welsh/English).,,,England,Alcoholics Anonymous
fd4959e5-9ed5-5755-ac70-a6056075c9cc,Daventry Just For Today,11:00,"1hr ",NN11 4BZ,52.254877,-1.161867,St Augustine RC Church,32 London Rd,emporium.beaten.cork,Saturday,False,True,False,True,Open,,,,,England,Alcoholics Anonymous
99175335-93e4-5435-be34-901509f469c0,Daventry Just For Today Hybrid,19:30,"1hr ",NN11 4BZ,52.254877,-1.161867,St Augustine RC Church,32 London Rd,emporium.beaten.cork,Wednesday,False,False,False,True,Open,,Meeting also held on Zoom ID: 8644437460 Passcode: JFT Email: [email protected],,,England,Alcoholics Anonymous
1ae05951-1cbc-57b4-8a55-f8df013b2036,Deptford Step &Amp; Tradition,19:15,1hr 15mins,SE8 3EZ,51.481707,-0.025268,Armada Court Community Hall,21 Mcmillan St,traded.chair.factor,Thursday,False,True,False,True,Open,,,,,England,Alcoholics Anonymous
d5fd095a-f69f-5d4c-a79e-674bd71ec0bf,"Dewsbury Open Experience, Strength &Amp; Hope",19:30,"1hr ",WF13 1LY,53.691003,-1.632177,Elim Pentecostal Church,Daisy Hill,arrow.skinny.narrow,Sunday,False,False,False,True,Open,,,,,England,Alcoholics Anonymous
c8bdceab-9536-5fe9-8bb3-08200080c9ce,Dorridge,19:00,1hr 30mins,B93 8EZ,52.375763,-1.749384,St George &Amp; St Theresa RC Church,"Station Rd, Dorridge",visa.number.tummy,Friday,False,True,False,False,,,,,,England,Alcoholics Anonymous
406c72c2-42fd-5e97-886c-11c865896b7b,Downham Market Experience Strength &Amp; Hope,19:30,"1hr ",PE38 9JE,52.603925,0.374326,Downham Market Methodist Church,"Room 3 (Side Door), Paradise Rd",darling.crass.showcases,Saturday,False,True,False,True,Open,,,,,England,Alcoholics Anonymous
1beaea44-143b-5449-800f-c229912f6a6a,Dunmow Step,19:00,1hr 30mins,CM6 1EQ,51.872001,0.360906,The Day Centre,Chequers Lane,happening.rinses.recoup,Sunday,False,True,False,False,,,,,,England,Alcoholics Anonymous
c9d59cbd-cacc-58f8-b0fc-31531f952eeb,Dunstable Living Sober,19:30,"1hr ",LU6 3AH,51.883238,-0.522456,The Salvation Army,Bull Pond Lane,bells.clues.admire,Thursday,False,True,True,False,,,For further enquiries please email: [email protected],,,England,Alcoholics Anonymous
7e797128-92b8-5533-b89e-cd26d3c8398c,Ealing Czwarty Wymiar (Polish),20:00,"1hr ",W5 2UP,51.516463,-0.303306,Haven Green Baptist Church,Castlebar Rd,pushes.drips.rapid,Friday,False,True,True,True,Open,,Chit system available.,,,England,Alcoholics Anonymous
a6b7b56e-698f-5f13-afa8-c87d0a8cd020,East Grinstead Step &Amp; Tradition,19:30,1hr 30mins,RH19 2DS,51.133296,-0.019529,St Mary's Church Hall,Windmill Lane,gives.unique.seated,Monday,False,True,True,False,,,,,,England,Alcoholics Anonymous
f691e680-c2d1-55df-b2d9-bc03bea52d39,Eastleigh A Fresh Start,20:00,"1hr ",SO50 5LQ,50.966172,-1.354684,St Andrew's Church,Blenheim Rd,belly.stars.employ,Tuesday,False,True,False,True,Open,,,,,England,Alcoholics Anonymous
a83c8fa2-d7de-59d4-b3a5-69b9f839f0cf,Edgware Simply Aa,15:00,1hr 15mins,HA8 7JE,51.611831,-0.278122,St Margaret's Truth Hall,1 Station Rd,minus.tunnel.being,Monday,False,True,False,False,,,12 seats only due to Covid restrictions.,,,England,Alcoholics Anonymous
94db4d69-233d-5dc2-8f59-7c19c6699a32,Englefield Green Lunch Step,13:30,1hr 15mins,TW20 0BZ,51.427309,-0.573053,Monsell Rm,"St Jude's Church, Englefield Green",turned.online.smiles,Tuesday,False,True,False,False,,,,,,England,Alcoholics Anonymous
0f35c0e4-fbab-5464-b016-5c8c27922a69,Erith Poczatkujacy Polish Speaking,19:30,1hr 15mins,DA8 1DN,51.478181,0.16089,Our Lady Of The Angels Church,Bexley Rd,pouch.finely.scale,Saturday,False,False,True,True,Open,,Chit system available.,,,England,Alcoholics Anonymous
1a87f92d-c76a-5bb5-8bf2-ecafdc52b680,"Evesham Experience, Strength &Amp; Hope",19:30,1hr 30mins,WR11 4SF,52.091813,-1.943862,Evesham Methodist Church,71 Bridge St,solicitor.verve.enacts,Friday,False,True,False,True,Open,,,,,England,Alcoholics Anonymous
521ee5c2-d9e0-5799-bee8-ab6ecf3e11fa,Exmouth Experience Strength &Amp; Hope,19:30,1hr 30mins,EX8 1PE,50.619169,-3.411279,The Open Door Centre,Church St,foods.master.heat,Sunday,False,True,False,True,Open,,,,,England,Alcoholics Anonymous
244fb6ed-12ed-58f7-97bf-5d3b1557bb6c,Farnham Lunchtime,12:30,1hr 30mins,GU9 7QU,51.214617,-0.796594,Studio Room,"The Spire Church, South St",spiking.jolt.evolution,Friday,False,True,True,False,,,,,,England,Alcoholics Anonymous
571b504f-0efa-5b39-a7f4-11bc71c49adc,Folkestone Step &Amp; Tradition,15:30,"1hr ",CT20 1JZ,51.083592,1.183855,Greek Orthodox Church,39/41 Dover Rd,resettle.residual.sigh,Sunday,False,True,False,False,,,,,,England,Alcoholics Anonymous
a61a2ba0-666c-5147-8b1f-394779b1f785,Fulham Newcomers Focus,10:30,1hr 15mins,SW6 7PH,51.483551,-0.217853,Bishop Creighton House,378 Lillie Rd,organs.spin.cage,Sunday,False,True,False,True,Open,,,,,England,Alcoholics Anonymous
607f7146-40a7-5780-abaa-e6a0d0578369,"Grantham Experience, Strength &Amp; Hope",18:30,1hr 30mins,NG31 6QU,52.911994,-0.637722,Grantham Senior Citizens Community Centre,Welham St,wiping.force.player,Saturday,False,True,False,True,Open,,Shared plarforn with Al-Anon 1st Sat each month.,,,England,Alcoholics Anonymous
d4edd46e-14ed-5397-9698-4514d90e287f,Grays Chair &Amp; Chip,20:00,1hr 30mins,RM17 6RA,51.47793,0.327621,Grays Salvation Army Community Church,"Clarence Rd, Side Entrance On Right - Upstairs On 1St Floor.",counts.bared.garage,Thursday,False,False,False,True,Open,,,,,England,Alcoholics Anonymous
6e47596b-880b-52df-a58b-ea98e8ff111a,Grays Step &Amp; Tradition,20:00,1hr 30mins,RM17 6RA,51.47793,0.327621,Grays Salvation Army Community Church,"Clarence Rd, Side Entrance On Right - Upstairs On 1St Floor.",counts.bared.garage,Monday,False,False,False,True,Open,,Read & share on one Step (12+12) each week with an emphasis on Step One if there is a newcomer. Tradition meeting first Monday of the month.,,,England,Alcoholics Anonymous
5bc5f2d6-7622-56df-953f-23716cb69bc4,Greenford Step &Amp; Discussion,20:00,"1hr ",UB6 9JS,51.535871,-0.348774,Greenford Community Centre,170 Oldfield Lane Sth,local.vines.solve,Wednesday,False,True,True,True,Open,,Building has wheelchair access but the meeting is upstairs and stairs need to be walked,,,England,Alcoholics Anonymous
7b5d60c9-b49d-507e-aba9-b44dd6355988,Halesowen,20:30,1hr 30mins,B63 4SJ,52.44863,-2.062939,Hasbury Community Centre,38 Wall Well,owls.funny.civil,Friday,False,True,False,True,Open,,,,,England,Alcoholics Anonymous
61f32975-add7-535f-a245-e89a010a25e4,Hammersmith St Augustine's,20:00,"1hr ",W6 8AU,51.490611,-0.223115,St Augustine's Church,55 Fulham Palace Rd,hangs.hung.bravo,Monday,False,False,False,True,Open,,,,,England,Alcoholics Anonymous
b84a49be-97bd-5723-93cd-5855426e48b4,Hampstead Sober In The Suburbs Newcomers,19:15,1hr 15mins,NW11 7AD,51.582134,-0.190198,Friends Meeting House,"17 North Sq, Hampstead Garden Suburb",never.lifted.random,Thursday,True,True,True,True,Open,,H2 Bus from Golders Green Tube Station get off at the Hail and Ride Stop - ‘Central Square',,,England,Alcoholics Anonymous
ae6a6e9a-fc62-5824-b481-a4641723e3ae,Hanham Hall,20:00,"1hr ",BS30 9DE,51.438182,-2.494984,All Saints United Church,"85 Bath Rd, Longwell Green",flows.school.moss,Wednesday,False,True,True,True,Open,,Chit system available.,,,England,Alcoholics Anonymous
440dd8f3-f7c7-5085-aafd-d96f72f7aed3,Harrogate Steps 3 7 &Amp; 11 Meditation,19:30,"1hr ",GH1 1HP,43.6579691,-79.4018098,St Robert's Centre,3 Robert St,graced.body.cans,Tuesday,False,True,False,True,Open,,"The meeting is on 1st Floor, Kirskstall Room.",,,England,Alcoholics Anonymous
ed34993f-336c-544c-a551-b036b161e743,Harrow On The Hill Serenity At Six,18:00,"1hr ",HA1 3BE,51.575942,-0.3401,Church Of Our Lady &Amp; St Thomas Of Canterbury,", 22 Roxborough Park",brings.cried.posed,Friday,False,True,True,True,Open,,Chit system available. No mtg Good Friday.,,,England,Alcoholics Anonymous
2fa2ec21-7f9c-5747-88eb-e0ec014e2eb1,Hatfield Feniks (Polish Speaking),20:00,1hr 15mins,AL9 5JD,51.762566,-0.214689,St Mary's Church,"26 Salisbury Square, Old Hatfield",little.towers.paid,Wednesday,False,False,True,True,Open,,,,,England,Alcoholics Anonymous
c8926533-0578-5b33-9af2-226fa4f19813,Hebden Bridge Meditation &Amp; Recovery,20:00,1hr 30mins,HX7 6HB,53.741001,-2.015988,Salem Community Centre,"Salem St, Off Burnley Rd",symphony.nation.celebrate,Friday,False,False,False,True,Open,,,,,England,Alcoholics Anonymous
f83b9f14-c9f4-521c-8070-cdebcd0b2d40,Hemsby Experience Strength &Amp; Hope,19:30,"1hr ",NR29 4EU,52.696461,1.68944,The Barn Room,"The Street (Opp The Church Of St Mary, The Virgin), Hemsby",comedians.above.beauty,Tuesday,False,True,False,True,Open,,All welcome. Doors open from 7pm for tea and coffee.,,,England,Alcoholics Anonymous
d0295d60-475e-5073-9a52-ecf3178b16a4,Hendon You'll Never Walk Alone,18:45,1hr 15mins,NW4 4AE,51.587311,-0.223569,Hendon Salvation Army Citadel,"1-5 Brampton Grove, From 6/8 Start Time Is 12.30.",advice.shot.discrepancy,Wednesday,True,True,True,True,Open,,Email: [email protected] Fellowship open for all an hour prior to and after meeting.,,,England,Alcoholics Anonymous
6776994f-d613-5f38-af32-64d2b9038958,Henley Early Bird,07:15,"1hr ",RG9 1AG,51.535604,-0.903638,The Christchurch Centre,46 Reading Rd,behave.racetrack.just,Tuesday,False,False,False,False,,,,,,England,Alcoholics Anonymous
0e284a9f-45b7-5514-86ba-bad8e1785346,Henley Mens Big Book &Amp; Step Study,19:00,1hr 30mins,RG9 6HH,51.606399,-0.964403,The Crown Inn,Pishill,recording.enabling.parked,Thursday,False,False,False,False,,,,,,England,Alcoholics Anonymous
10e57e39-7fdc-5f6d-a121-da2b1e310027,Henley-On-Thames Saturday Morning Steps,10:00,"1hr ",RG9 2JJ,51.542145,-0.906884,Henley Quakers Meeting House,45 Northfield End,bugs.masking.relocated,Saturday,False,True,False,True,Open,,,,,England,Alcoholics Anonymous
1ac11014-0dc3-5e2d-ae16-5af9f46e3ef3,Hexham,19:00,1hr 15mins,NE46 3LS,54.970258,-2.102903,Trinity Methodist Church,Beaumont St,baker.firmer.pairings,Thursday,False,True,False,True,Open,,"Acces via the gate in St Mary`s Wynd at rear of church, through black metal gate marked `mtg rms`.",,,England,Alcoholics Anonymous
c88c0b4f-bb21-5732-8a8a-3473d2dbf430,Hexham Steps &Amp; Traditions,19:00,1hr 15mins,NE46 3LS,54.970258,-2.102903,Trinity Methodist Church,Beaumont St,baker.firmer.pairings,Monday,False,False,False,True,Open,,"Access via the gate in St Mary`s Wynd at rear of church, through black metal gate marked `mtg rms`.",,,England,Alcoholics Anonymous
db50a872-8fe1-5faa-82b4-39223172052a,Hinckley Experience Strength &Amp; Hope,20:00,1hr 30mins,LE10 1DW,52.541426,-1.370612,St Mary's Church,"Coffee Bar, Church Walk, Off Station Rd",mental.affair.trains,Tuesday,False,True,False,False,,,,,,England,Alcoholics Anonymous
8c998b48-0f3f-5e34-bd3f-8aa5531d37b8,"Holmfirth Share, Experience, Strength &Amp; Hope",20:00,"1hr ",HD9 2NQ,53.556654,-1.81989,St Davids Church Hall,"Woodhead Rd, Holmbridge",mattress.removable.prawn,Monday,False,True,False,True,Open,,Also held on Zoom meeting ID:- 416054324 PW:- 197073,,,England,Alcoholics Anonymous
02a9caee-0d10-5c91-8853-36326796c4f6,Hull Citoria Dock Just For Today,19:30,1hr 30mins,HU9 1TL,53.741269,-0.32392,Victoria Dock Village Hall &Amp; Community Centre,"South, Bridge Rd, Victoria Dock",range.useful.monday,Sunday,False,True,True,True,Open,,,,,England,Alcoholics Anonymous
ca82d753-a21f-514d-b295-0d590ac7b524,Hurworth General Share Love &Amp; Tolerance,19:30,"1hr ",DL2 2BN,54.48597,-1.54204,Hurworth Grange Community Association,"41 Hurworth Rd,, Nr Darlington",denim.squish.magazine,Monday,False,True,False,False,,,,,,England,Alcoholics Anonymous
3320105b-8b6f-5957-a29b-006f3857cffd,Hythe Multi-Mtg Step &Amp; Tradition,19:30,1hr 30mins,CT21 5BG,51.070623,1.081526,Methodist Church Hall,Rampart Rd,couch.tadpoles.rivers,Wednesday,False,True,False,False,,,,,,England,Alcoholics Anonymous
f4982189-504f-5cd0-97da-f09cdf9b8ab9,Isle Of Dogs One Day At A Time,19:30,1hr 30mins,E14 3DR,51.489543,-0.006866,Christ Church,"151 Manchester Rd, Island Gardens",pages.venues.ruins,Monday,False,True,False,True,Open,,,,,England,Alcoholics Anonymous
67363cff-1c60-5c61-b347-daf73a294a14,Islington Angel Speaker,19:00,"1hr ",N1 9UL,51.533592,-0.111914,St Silas Church,Penton St &Amp; Risinghill St,charmingly.such.ranch,Tuesday,False,False,True,True,Open,,,,,England,Alcoholics Anonymous
b79c0a06-65d5-599b-b411-cb31bfadf356,Islington How It Works/Jak To Dziala (Polish Speaking),19:00,"1hr ",EC1R 1XD,51.530559,-0.106777,Grace Baptist Church,4 Chdwell St,down.light.lives,Wednesday,False,False,True,True,Open,,Polish spoken.,,,England,Alcoholics Anonymous
f1d8f7d5-175b-5f03-928a-14d43d0e3854,Kentish Town Newcomers,18:30,"1hr ",NW5 2XT,51.551567,-0.137598,Our Lady Of Help Church,4 Lady Margaret Rd,appear.puns.extra,Wednesday,False,True,True,True,Open,,,,,England,Alcoholics Anonymous
5e748421-9f49-5539-b918-6a974e392dbc,Keston Ladies In Recovery,17:00,"1hr ",BR2 6HT,51.348841,0.03345,Keston Parish Church,"Church Rd, Keston",blast.orders.yards,Sunday,False,False,False,False,,,,,,England,Alcoholics Anonymous
025528f4-aff2-52d7-ac8b-13653dd8d6b4,Keynsham A New Freedom &Amp; A New Happiness,18:30,"1hr ",BS31 2BL,51.416833,-2.497313,Keynsham Parish Church,1 The Park,lately.wished.cake,Friday,False,True,False,False,,,,,,England,Alcoholics Anonymous
9a51b177-0406-5ae8-b28f-f198bad975a4,Kirkwall King Street,18:00,1hr 30mins,KW15 1NN,58.98264,-2.956897,Church Hall,King St,decent.lecturers.cone,Saturday,False,True,False,True,Open,,,,,England,Alcoholics Anonymous
07036ce6-3fc9-5028-9c80-67bdb9a8f6e6,Lechlade Step &Amp; Tradition,12:00,"1hr ",GL7 3AW,51.695189,-1.69294,Lechlade Baptist Church,Sherborne St,blemishes.airports.sculpture,Tuesday,False,True,False,False,,,,,,England,Alcoholics Anonymous
c2ec2d92-b922-5f57-9a23-248869b063df,Leighton Buzzard Friday Night Friends Of Bill &Amp; Bob,19:00,"1hr ",LU7 1EQ,51.918708,-0.660637,Friends Meeting House,25 North St,smug.deputy.villa,Friday,False,True,False,False,,,Good free parking at Baker St (2 mins walk),,,England,Alcoholics Anonymous
5a9de5fb-b059-55da-93c8-3d6a9783c61a,Liverpool Step 11 Prayer&Amp; Meditation Early Morning,07:30,"1hr ",L23 6SS,53.484887,-3.038797,St Nicholas's Church,"111 Mersey Rd, Crosby",prom.volume.cave,Monday,False,True,False,False,,,,,,England,Alcoholics Anonymous
c7198bf8-4848-5c62-93ca-6d20d32d626e,Los Cristianos: Harbour Group,17:45,,,28.05475,-16.7112641,Christian Fellowship,"Apolo Centre, Los Cristianos, Tenerife",ushered.insides.funded,Saturday,False,True,False,False,,,,,,England,Alcoholics Anonymous
b43d4081-9769-5643-9b5b-01ff5f953e6d,Lossiemouth,19:30,1hr 15mins,IV31 6AE,57.720931,-3.28373,Lossiemouth Baptist Church,James St,dorms.kingdom.troubles,Saturday,False,False,False,False,,,,,,England,Alcoholics Anonymous
0de46922-71f3-5bc0-a454-954ae235110d,"Lowestoft Experience, Strength &Amp; Hope",19:00,"1hr ",NR32 1HB,52.477723,1.754392,United Reformed Church,London Road North,hotel.sank.trip,Monday,False,True,False,True,Open,,,,,England,Alcoholics Anonymous
a5e78bf4-7df3-50da-b52f-a4908f651019,Ludlow Step &Amp; Traditions,20:00,1hr 30mins,SY8 1NL,52.365886,-2.718523,Methodist Church Hall,Broad St,barstool.models.statue,Tuesday,False,True,False,True,Open,,,,,England,Alcoholics Anonymous
7008fe58-6c5d-5d93-9aab-319d4240a57d,Margate 12 &Amp; 12,19:45,1hr 15mins,CT9 1LN,51.383642,1.384608,St Johns Community Centre,"St Johns Church, Victoria Rd",float.finds.began,Monday,False,True,False,False,,,,,,England,Alcoholics Anonymous
3af733a4-8dc3-5d23-81a1-b5feedf24125,Mayfair,20:00,1hr 30mins,W1K 2PA,51.509058,-0.151222,Grosvenor Chapel,"24 South Audley St, (Right-Hand Side Entrance)",blows.mixer.clock,Friday,False,False,False,True,Open,,Zoom Meeting ID: 857 6941 8347 Passcode: 297547 Join by phone: +44 330 088 5830 +44 131 460 1196 +44 203 481 5237,,,England,Alcoholics Anonymous
d06da44b-ed75-538a-b690-09a55b807ef4,Mayfair Beginners There Is A Solution,19:30,1hr 15mins,W1K 2PA,51.509058,-0.151222,Grosvenor Chapel,"24 South Audley St, (Right-Hand Side Entrance)",blows.mixer.clock,Wednesday,False,False,False,True,Open,,Contact email: [email protected]: Green Park/ Marbel Arch / Bond St,,,England,Alcoholics Anonymous
3d1caf0b-bd3c-5dfe-8cf3-dfde3b13ac31,Moreton-In-Marsh,13:00,"1hr ",GL56 0LA,51.990187,-1.70169,The Congregational Church,Oxford St,awaiting.hours.songbird,Monday,False,True,False,True,Open,,,,,England,Alcoholics Anonymous
b7456843-5b6b-5749-aaaa-a50ef34309bd,Morpeth Big Book Study Hybrid,18:00,1hr 30mins,NE61 1HU,55.170378,-1.68893,Methodist Church,Howard Terrace,payout.poets.crowbar,Monday,False,True,False,True,Open,,Also held on Zoom - meeting ID: 75444796274 Password: BigBook21.,,,England,Alcoholics Anonymous
b1476c49-e441-5472-bf30-a92bb6085ff6,Morpeth Chair &Amp; Share,18:00,1hr 30mins,NE61 1HU,55.170378,-1.68893,Methodist Church,Howard Terrace,payout.poets.crowbar,Friday,False,True,True,True,Open,,Newcomers and Guests welcome.,,,England,Alcoholics Anonymous
a92704ee-0de6-5a59-8a48-fe0d2b28ca21,Newburn Ladies J,15:00,1hr 15mins,NE15 8LS,54.982344,-1.74287,Newburn Parish Hall,"28 Station Rd, Newburn",marble.ducks.frogs,Sunday,False,True,True,False,,,,,,England,Alcoholics Anonymous
1769c6c7-a9a3-5ea3-9891-3bef516043f5,Newport 12 &Amp; 12,12:30,"1hr ",NP20 4SZ,51.582249,-3.00281,The Chapel,St Woolos Hospital Grounds,fortunate.super.youth,Saturday,False,False,False,False,,,,,,England,Alcoholics Anonymous
e9646d1d-693b-511d-a232-52947bb33c03,Newport Pagnell: Bill &Amp; Bob's Excellent Adventure,12:30,"1hr ",MK16 8EN,52.085822,-0.725515,St Bede's Church,High St,shuttling.cleansed.earpiece,Saturday,False,True,False,True,Open,,,,,England,Alcoholics Anonymous
aaadd060-e0e3-5bbe-a317-97c37687adf2,Newport Pagnell: Bill &Amp; Bob's Excellent Adventure,19:30,"1hr ",MK16 8EN,52.085822,-0.725515,St Bede's Church,High St,shuttling.cleansed.earpiece,Thursday,False,True,False,True,Open,,,,,England,Alcoholics Anonymous
39f105e7-9203-5a1d-9d64-ee35683ee534,Newport Topic &Amp; Share,19:15,"1hr ",NP20 4SZ,51.582249,-3.00281,The Chapel,St Woolos Hospital Grounds,fortunate.super.youth,Wednesday,False,True,False,True,Open,,,,,England,Alcoholics Anonymous
2fce809a-9ba5-5fdf-a761-3cd0d960d473,Oakham Byo Big Book,18:30,1hr 15mins,LE15 6QU,52.672299,-0.73124,St Josephs RC Church,Station Rd,flagpole.popping.parsnips,Monday,False,False,False,False,,,Big Book provided. Last Monday of the month Tradition meeting read from Twelve and Twelve.,,,England,Alcoholics Anonymous
882d0657-66cc-5442-878a-85f6b7910edb,Oban Morning Topic Hybrid,10:00,1hr 15mins,PA34 4LG,56.411901,-5.473727,The Baptist Church Hall,Albany St,exhale.rekindle.latest,Saturday,False,False,False,False,,,Zoom meeting ID: 84751807557 Password: Inventory Different speakers each week,,,England,Alcoholics Anonymous
2720c5d4-f2e6-595f-9a30-ef422b3e628b,"Okehampton Experience, Strength &Amp; Hope",19:30,1hr 15mins,EX20 1DT,50.738116,-4.002015,Fairplace United Church,3 Fairplace Terrace,coupler.indoor.workroom,Monday,False,True,False,True,Open,,,,,England,Alcoholics Anonymous
d82bc607-426a-548a-a169-f70c959d5b28,Paignton,19:30,1hr 30mins,TQ5 9DH,50.392409,-3.514904,Palace Avenue Methodist Church,27 Palace Ave,voting.neon.rationed,Wednesday,False,True,False,True,Open,,,,,England,Alcoholics Anonymous
279cf438-a4b9-5fd0-a11b-c62c8db5c681,Paignton Steps &Amp; Traditions,11:30,"1hr ",TQ3 3BN,50.433591,-3.57233,Paignton Baptist Church,43 Winner St,drag.roofs.tent,Wednesday,False,True,False,False,,,,,,England,Alcoholics Anonymous
86044888-6bb3-528b-abac-8a7a98e0d516,Peter House Malta Experience Strength &Amp; Hope,18:30,"1hr ",,35.9128605,14.4993108,,"51 Peter House, Triq Nicolo Isouard SLM1340",breathed.harvest.regime,Saturday,False,True,False,False,,,,,,England,Alcoholics Anonymous
86264ad2-ba01-5347-a6e7-481287be84b1,Peterborough Cos Nowego Polish,18:00,"2hr ",W5 2UP,51.516463,-0.303306,Haven Green Baptist Church,Castlebar Rd,pushes.drips.rapid,Saturday,False,True,False,True,Open,,,,,England,Alcoholics Anonymous
2d4732db-5f5e-513a-8663-8dcb5f26ef78,Peterborough Steps &Amp; Traditions,19:30,1hr 15mins,PE7 3UU,52.549956,-0.329151,Colonel Dane Memorial Hall,"Church St, Alwalton",posed.runs.bank,Monday,False,False,False,True,Open,,,,,England,Alcoholics Anonymous
872c367a-27dc-525a-9c86-26ffddfe94bf,Peterlee,19:30,"1hr ",SR8 4JY,54.76363,-1.312195,The Salvation Army,"Dene St, Horden",scare.hype.cards,Thursday,False,True,False,False,,,,,,England,Alcoholics Anonymous
5fe9966f-4421-54a7-964f-a52bfcfc7c7d,Plawsworth Big Book Step Study,19:30,1hr 30mins,DH2 3NL,54.828081,-1.593157,Changing Lives Centre,"The Fells, Great North Rd, Mtg Suspended Until Further Notice - Removed From Web, 31/5/23",could.vacancies.classic,Friday,False,True,True,True,Open,,Chit system available.,,,England,Alcoholics Anonymous
5f7b80e8-fb2f-50f5-81e2-e1db48262856,Portslade 999,19:30,1hr 30mins,BN3 7HY,50.842041,-0.189766,The Parish Centre,"South St, Portslade",beans.mint.fresh,Tuesday,False,True,False,False,,,Join Zoom Meeting ID: 8989 5595444,,,England,Alcoholics Anonymous
b6343af6-d902-5e05-8c41-c75d0d2e9ea7,Redditch,19:30,"1hr ",B98 7DQ,52.302213,-1.940752,The Redi Centre,54 South St,gent.trade.sober,Tuesday,False,True,False,True,Open,,,,,England,Alcoholics Anonymous
e70028bb-202a-593b-b34f-1cfb53249993,Redhill &Amp; Reigate East Surrey Hospital,20:00,1hr 30mins,RH1 5RH,51.219194,-0.162009,East Surrey Hospital,"Therapies Reception, (Opp Bletchingley, Ward), Three Arch Rd, Redhill, Currently Held On Zoom 9/3/22",brands.rating.warm,Wednesday,False,True,False,True,Open,,,,,England,Alcoholics Anonymous
e1fd31bc-6512-5ce4-9f9e-60f3852adb4f,Reigate Big Book And 12 &Amp; 12 Study,19:30,1hr 15mins,RH2 9HA,51.241624,-0.212019,St Phillips Church Hall,102A Nutley Lane,windy.signal.gloves,Friday,False,True,False,True,Open,,Also held on Zoom - https://zoom.us/j/3577864627Meeting ID: 357 786 4627 No password.Dial in details - 0330 0885830 followed by 357 786 4627#,,,England,Alcoholics Anonymous
a8c64777-2836-590b-9226-cf7df20e15cc,"Richmond (North Yorkshire) Sharing Experience, Strength &Amp; Hope",19:30,"1hr ",DL10 4AE,54.40486,-1.7365,Richmond Methodist Church,Queens Rd,fondest.pins.brink,Wednesday,False,True,False,False,,,,,,England,Alcoholics Anonymous
165a4cb9-00d7-5313-84ef-9a98eeed9c39,"Richmond Reeth Experience, Strengh &Amp; Hope",12:30,"1hr ",DL11 6QT,54.39079,-1.943547,Reeth Memorial Hall,"Arkengarthdale Rd, NORTH YORKSHIRE",segmented.deep.engulfing,Monday,False,True,False,True,Open,,,,,England,Alcoholics Anonymous
e51bc990-eb41-57e7-9dc9-64749a0357b3,Rickmansworth Women's,19:30,"1hr ",WD3 1EH,51.639161,-0.468044,Rickmansworth Baptist Church,High St,port.both.singer,Monday,False,False,False,False,,,,,,England,Alcoholics Anonymous
b2e65dd0-a98e-531a-9451-b05913cb4121,Rugby Evening,20:00,1hr 30mins,CV21 2PN,52.375206,-1.260101,Friends Meeting House,28 Regent Place,crowned.sobs.cups,Monday,False,True,True,True,Open,,,,,England,Alcoholics Anonymous
1558c817-7a4c-5309-b942-ab62f22b31ec,Rugeley Share &Amp; Recovery,20:00,1hr 30mins,WS15 2EH,52.758446,-1.933826,St Paul's Methodist Church Hall,53 Lichfield St,luxury.itself.supply,Sunday,False,True,False,True,Open,,,,,England,Alcoholics Anonymous
631b2499-a68c-5b41-8de5-eef2321d7605,Salisbury Morning As Bill Sees It,11:15,"1hr ",SP2 7RG,51.068999,-1.798819,United Reformed Church,30 Fisherton St,hurry.exam.jolly,Saturday,False,True,True,True,Open,,Chit system available.,,,England,Alcoholics Anonymous
8716bfe6-6d45-556f-8cf5-65ee4a7d5f88,Sandy As Bill Sees It,18:00,1hr 15mins,SG19 1BP,52.13496,-0.296146,Sandy Methodist Church,St Neots Rd,warms.trying.dragon,Saturday,False,False,False,True,Open,,,,,England,Alcoholics Anonymous
79f8600b-7623-5209-ac29-62401620368e,Seaford Step &Amp; Tradition,19:30,0hr 45mins,BN25 2EE,50.776312,0.094218,Seaford Baptist Church,Belgrave Rd,tuned.unguarded.cringe,Monday,False,True,False,True,Open,,,,,England,Alcoholics Anonymous
5db64d23-f682-5525-8428-5a854c127319,Selsey Step &Amp; Tradition,18:30,"1hr ",PO20 0LS,50.735938,-0.785491,Our Lady Of Mt Carmel &Amp; St Wilfrid's Church,12 Church Rd,vibrate.rollers.highlight,Tuesday,True,True,False,True,Open,,,,,England,Alcoholics Anonymous
1f426b51-bf8b-571f-b950-7230c354151f,Sheffield Dore Step &Amp; Traditions,19:30,1hr 30mins,S17 3GW,53.32593,-1.537102,Dore Old School,Savage Lane,dawn.fuel.canny,Thursday,False,True,False,True,Open,,,,,England,Alcoholics Anonymous
0780810d-d159-53a5-8120-2180e3d7ae9d,"Shifnal Recovery, Unity &Amp; Service",19:30,1hr 30mins,TF11 8EQ,52.670195,-2.371177,Shifnal Senior Citizens Social Club,Curriers Lane,shocks.remove.scored,Thursday,False,False,True,True,Open,,Chit system available.,,,England,Alcoholics Anonymous
20623e94-856a-5126-becf-1dd84d25f011,Shipston-On-Stour,19:30,1hr 30mins,CV36 4PQ,52.088445,-1.645809,Blackwell Village Hall,"Armscote Rd, Blackwell",quicksand.curls.condense,Friday,False,True,False,False,,,,,,England,Alcoholics Anonymous
f5c811af-d78b-5a8e-ad8a-adcefc177604,Solihull Experience Strength &Amp; Hope,19:30,1hr 15mins,B93 0HN,52.386216,-1.737003,United Reformed Church,"Station Rd, Knowle",thing.score.sulk,Monday,False,False,False,True,Open,,Doors open from 7pm.,,,England,Alcoholics Anonymous
daaeb3fc-ff74-5b6a-bfd9-0ed0980797d0,St Albans Markyate Literature,19:30,"1hr ",AL3 8JB,51.835963,-0.46583,Markyate Baptist Church,"13 Buckwood Rd, Markyate",rugs.legs.issue,Wednesday,False,True,False,False,,,,,,England,Alcoholics Anonymous
cfec4bff-ef14-5a24-959a-dd06455fa735,St Andrew's Come &Amp; Go,10:30,1hr 30mins,GY6 8TW,49.44965,-2.5599172,Gateway Building,Princess Elizabeth Hospital,bumbled.vintage.costume,Sunday,False,True,True,True,Open,,,,,England,Alcoholics Anonymous
bc3c3c67-bfdf-531d-b3d8-acf517744c3f,St Andrews Topic,12:00,1hr 30mins,GY6 8TW,49.44965,-2.5599172,Gateway Building,Princess Elizabeth Hospital,bumbled.vintage.costume,Saturday,False,True,True,False,,,,,,England,Alcoholics Anonymous
d202c679-fe49-5371-8e8f-6c0ba80f59db,St Etheldreda`S Step &Amp; Tradition,09:30,"1hr ",SW6 6JF,51.475015,-0.21473,Church Hall,"St Etheldreda`S, 528 Fulham Palace Rd, (Entrance From Cloncurry St)",actors.glaze.behave,Saturday,False,True,False,True,Open,,,,,England,Alcoholics Anonymous
83bf66b9-cfe6-5d9f-a04c-d6c556281548,St George's,11:30,1hr 30mins,,-25.7423283,28.2378856,Changes,8 Allcock St,outdoors.muscular.broken,Sunday,False,False,False,True,Open,,,,,England,Alcoholics Anonymous
62890099-5944-5f13-bcdf-0721812dcd18,St Helier Morning,11:00,1hr 30mins,JE2 3RL,49.1859423,-2.1087473,St Paul's Centre,Dumaresq St,sailors.clashes.expanded,Saturday,False,True,False,True,Open,,,,,England,Alcoholics Anonymous
4e9045c8-4c81-51c4-9c96-c39f4a46f6ad,St Leonards (Formerly West Moors),19:45,1hr 15mins,BH24 2PH,50.831062,-1.841463,St Leonards And St Ives Village Hall,"Braeside Rd,, St Leonards",exams.cards.couple,Thursday,False,True,False,True,Open,,There is car parking at the rear which is suitable for our meeting.,,,England,Alcoholics Anonymous
fd1f5f91-a41d-5ca4-9b26-dcdf45f139a0,St Sampsons Reading: Living Sober,18:00,"1hr ",GY2 4QE,49.472574,-2.5456154,King's Centre,New Rd,subatomic.manicures.sarong,Saturday,False,False,True,False,,,,,,England,Alcoholics Anonymous
2d74c5c7-9c1b-5d6f-ba1f-82a9b6ed1e46,Staines Morning As Bill Sees It,11:15,1hr 30mins,TW18 4ZB,51.435822,-0.518405,St Marys Church,Church St/Vicarage Rd,finest.format.lines,Saturday,False,True,False,True,Open,,,,,England,Alcoholics Anonymous
5db98c80-9119-5173-895d-250a20fc4c91,Stanpit Men's Step,19:30,1hr 25mins,BH23 3NE,50.729332,-1.754804,Stanpit Village Hall (Entrance Right Hand Side),162 Stanpit,crunch.flight.economies,Tuesday,False,False,False,False,,,,,,England,Alcoholics Anonymous
8e26b79e-6f25-57b3-aec1-75918f66750b,Stansted Womens Mixed Topic,17:30,"1hr ",CM24 8AQ,51.903373,0.194756,Touchpoint Community Building,"Crafton Green House, 72 Chapel Hill Mountfitchet",bulldozer.vacancies.flamingo,Sunday,False,True,False,False,,,,,,England,Alcoholics Anonymous
465fadd8-9c6e-5afe-a3f8-74b7f25606bc,Sunday Meditation Meeting,10:30,"1hr ",,52.5035528,13.4192083,Heilehaus (Gym Room,"First Floor On The Left), Waldemarstraße 36, 10999",rigid.scoots.blessing,Sunday,False,False,False,True,Open,,,,,England,Alcoholics Anonymous
7ddf97ee-a16c-551d-a25f-97f4d0abb9c4,Sunderland Lifeboat Multi-Mtg 12X12 Study,19:30,1hr 30mins,SR2 7QY,54.893725,-1.399695,St Nicholas Church,Dunelm South,fits.foam.stared,Tuesday,False,True,True,True,Open,,Chit system available.,,,England,Alcoholics Anonymous
9044558f-97e3-5585-9e31-ca79eb0852c9,The Deepings Share,19:00,1hr 30mins,PE6 8HD,52.670756,-0.293221,The Deeping Methodist Church,"Church St, Deeping St James",hockey.magnets.muffin,Saturday,False,True,False,True,Open,,,,,England,Alcoholics Anonymous
7f914556-7882-5f78-91ad-46131355a89e,Todmorden Steps,19:00,"1hr ",OL14 7LD,53.712226,-2.099201,The Kindness Hub,36 Rochdale Rd,rewarding.feasted.regular,Friday,False,False,False,True,Open,,,,,England,Alcoholics Anonymous
3fe0f90f-7b62-57fe-8264-5a5b8ed1928c,Vaughan's Gillingham,19:00,1hr 15mins,SP8 4PY,51.036335,-2.27268,Masonic Lodge,Station Rd,shape.winds.digestion,Monday,False,False,False,False,,,,,,England,Alcoholics Anonymous
37d52a8e-2338-57b7-8b48-ff8bbff7169a,Ventnor Three Lagacies,19:00,1hr 15mins,PO38 1NL,50.597084,-1.198436,Our Lady &Amp; St Wilfrid's Church,Trinity Rd (Building At Rear Of Car Park),rankings.weeds.textiles,Wednesday,False,True,True,False,,,Chit system available.,,,England,Alcoholics Anonymous
3e0e29ab-3084-5048-ba12-c5e22a85002d,Verwood As Bill Sees It,19:30,1hr 10mins,BH31 6DR,50.880187,-1.877144,Methodist Methodist Church,Vicarage Rd,asked.flies.lamppost,Tuesday,False,True,True,True,Open,,,,,England,Alcoholics Anonymous
c8e869e5-b9fb-5bd0-b45c-9323ac87e367,Victoria Big Book Step &Amp; Tradition,18:30,"1hr ",SW1P 3BU,51.497294,-0.129651,The Abbey Centre,"34 Great Smith St., Meeting Is Held In The Garrett Anderson Meeting Room, On The First Floor",branch.buddy.drew,Monday,False,False,False,True,Open,,,,,England,Alcoholics Anonymous
fab9a908-b826-5d4d-994d-ac49ec56656a,Warmley Monday Morning Vision,11:30,"1hr ",BS30 5JJ,51.456965,-2.468403,St Barnabas Church Hall,"Church Ave, Warmley",flag.hurray.proven,Monday,False,True,False,True,Open,,,,,England,Alcoholics Anonymous
f1182745-a336-5ad4-905c-5105aa2761e1,Welwyn Garden City There Is A Solution - Big Book Rading &Amp; Sharing,19:30,1hr 15mins,AL7 4JS,51.78556,-0.195116,Skylight Room,"St Mary Magdalene Church, Hollybush Lane",remind.finger.orchestra,Tuesday,False,False,False,False,,,,,,England,Alcoholics Anonymous
638f6d4c-bcdc-5846-b4d0-b89cf71e9e6f,West Molesey As Bill See's It,12:45,1hr 15mins,KT8 2QF,51.402619,-0.371758,St Peters Church Hall,"518 Walton Rd, West Molesey",cape.eagle.mull,Thursday,False,True,False,True,Open,,,,,England,Alcoholics Anonymous
c6870fc1-7e57-5974-b13f-9e6707bee023,Whaley Bridge,20:00,1hr 30mins,SK23 7HX,53.324748,-1.985397,Holy Trinity Church,Buxton Rd,breakaway.gadget.redouble,Saturday,False,True,False,True,Open,,,,,England,Alcoholics Anonymous
679638ca-3fd4-5cd0-917f-b74b135e88bc,Woburn Sands Lunchtime,13:00,"1hr ",MK17 8FA,52.012499,-0.645766,Greens Court Community Rooms,"Club Ln, Woburn Sands",passenger.pine.both,Thursday,False,True,False,True,Open,,,,,England,Alcoholics Anonymous
e079078f-8196-5b36-a437-65d55e27daf2,Woolwich They Stopped In Time,20:00,"1hr ",SE18 6EF,51.488446,0.066951,St Peter The Apostle Church,103 Woolwich New Rd,appear.frames.clap,Tuesday,False,True,False,True,Open,,,,,England,Alcoholics Anonymous
5fb4be46-aebc-5fb5-8227-827ae0930e92,Worksop Moja/Twooja Nadzieja Polish Speaking,17:30,1hr 30mins,S80 1QG,53.309837,-1.123286,St John's Church,Overend Rd,gifts.flash.bits,Saturday,False,False,False,False,,,,,,England,Alcoholics Anonymous
63beb132-0039-5dc6-ad63-dcabb0aa0125,Worthing Step One Newcomers,12:00,1hr 30mins,BN11 3DN,50.8109,-0.369156,St Clare's Community Hub,6-8 Marine Place,nature.ever.turkey,Saturday,False,True,False,True,Open,,,,,England,Alcoholics Anonymous
0f78e477-3e2f-54a7-a233-cfdf08762c88,Wrexham Big Book Study,19:30,1hr 30mins,LL13 8TR,53.04378,-2.97264,The Hub,Prince Charles Rd,play.makes.venues,Tuesday,False,True,True,True,Open,,,,,England,Alcoholics Anonymous
4f3ce026-e4d7-5f46-afdb-f4088f1dd752,Yarmouth Step &Amp; Tradition,19:30,"1hr ",NR30 2HL,52.606212,1.728883,Christchurch Methodist Church,King St,pills.daring.froze,Wednesday,False,True,False,True,Open,,,,,England,Alcoholics Anonymous
fcfdb3ae-7add-54f5-84cb-c14a04b57a55,Yate &Amp; Chipping Sodbury,19:30,"1hr ",BS37 4AF,51.540023,-2.405205,The Willow Rms,"Ridgewood Community Centre, 244 Station Rd",vibe.studio.bunny,Friday,False,False,False,True,Open,,,,,England,Alcoholics Anonymous
95f870b1-5333-522f-bb89-ede95c8eec38,Yiewsley West Drayton Hope &Amp; Unity,11:30,"1hr ",UB7 7QH,51.512842,-0.472899,St Matthew Church,Yiewsley High St,love.gazed.ready,Tuesday,False,False,False,False,,,,,,England,Alcoholics Anonymous
473688f1-4e6d-5531-91bc-a73f160a8c55,Ayr Living Sober,10:00,"2hr ",KA8 8BH,55.468714,-4.63161,,8 Green Street Lane,lofts.districts.laws,Saturday,False,True,False,True,Open,,,Ayrshire and South West Scotland,South West Scotland,England,Alcoholics Anonymous
6d58601e-1fbb-544f-b7d2-a934e2a2080f,Acocks Green Holy Souls,20:00,1hr 30mins,B27 6RH,52.444856,-1.817369,Sacred Heart &Amp; Holy Souls Church,1151 Warwick Rd,tasty.cling.using,Sunday,False,True,False,True,Open,,,Birmingham,Midlands,England,Alcoholics Anonymous
a379a6b0-a333-597f-a8aa-6cf44277ec9f,Birmingham Jednosc Polish Speaking,12:00,"2hr ",B27 6HG,52.451343,-1.818717,Acocks Green Baptist Church,39 Yardley Rd,overnight.notice.loans,Sunday,False,False,True,True,Open,,,Birmingham,Midlands,England,Alcoholics Anonymous
ce7fd544-fd6d-5817-ba3b-3461a9982d35,Birmingham Step &Amp; Tradition,20:00,1hr 30mins,B14 4QA,52.412206,-1.870612,Warstock Community Centre,"1 Daisy Farm Rd, Yardley Wood",bumpy.will.pine,Wednesday,False,True,True,True,Open,,,Birmingham,Midlands,England,Alcoholics Anonymous
dcff7855-085c-5138-9439-3211de3081ab,Edgbaston Walker Hall,11:00,1hr 30mins,B15 2UJ,52.463893,-1.918409,Walker Memorial Hall,"Ampton Rd, Edgbaston",just.overnight.ticket,Saturday,False,True,False,False,,,,Birmingham,Midlands,England,Alcoholics Anonymous
c900a638-73ee-58d4-9791-3703bc6cab41,"Hodge Hill Experience, Strength &Amp; Hope",08:30,1hr 30mins,B36 8BG,52.501204,-1.797859,United Reformed Church,"Coleshill Rd, Hodge Hill",hoot.jump.result,Saturday,False,True,False,False,,,,Birmingham,Midlands,England,Alcoholics Anonymous
d0fd391f-3f68-5b04-8b89-413b0a47272e,Quinton,19:30,1hr 30mins,B32 2QD,52.452182,-1.98324,St Boniface Church,"Quinton Rd West, Quinton",pots.shin.surely,Monday,False,True,True,False,,,Chit system available.,Birmingham,Midlands,England,Alcoholics Anonymous
f2fd5bdc-7180-51ab-9d5b-d37a77f0372f,St Michael's,19:30,"1hr ",B26 1AP,52.463419,-1.808291,St Michaels Church,"Rowlands Rd, Yew Tree Lane,, South Yardley",fears.angle.handle,Wednesday,False,False,False,True,Open,,,Birmingham,Midlands,England,Alcoholics Anonymous
2c2eb764-d3b9-5115-befb-2b4ea5d1a3e8,Sutton Coldfield,20:00,1hr 30mins,B73 6AA,52.563825,-1.824317,The Almond Rm,"United Reformed Church Hall, Brassington Ave",solve.rarely.voter,Monday,False,True,False,False,,,No meetings are held on Bank Holiday Mondays.,Birmingham,Midlands,England,Alcoholics Anonymous
0c646788-233b-5d7e-ba7e-15da8dd80985,Sutton Coldfield Chester Rd,13:30,1hr 30mins,B73 5HU,52.537971,-1.837822,Chester Road Baptist Church,Chester Rd,likes.sends.cooks,Sunday,False,True,False,False,,,,Birmingham,Midlands,England,Alcoholics Anonymous
1f30a9b0-046b-5ca5-ae94-9cd18b71f06a,Warstock Experience Strength &Amp; Hope,12:00,1hr 30mins,B14 4QA,52.412206,-1.870612,Warstock Community Centre,"1 Daisy Farm Rd, Yardley Wood",bumpy.will.pine,Saturday,False,True,False,False,,,,Birmingham,Midlands,England,Alcoholics Anonymous
15dee5f8-1455-5e0e-b716-4c05feebc469,Warstock Experience Strenth &Amp; Hope,20:00,1hr 30mins,B14 4QA,52.412206,-1.870612,Warstock Community Centre,"1 Daisy Farm Rd, Yardley Wood",bumpy.will.pine,Wednesday,False,True,False,True,Open,,,Birmingham,Midlands,England,Alcoholics Anonymous
1bdf7a0a-d50c-51a3-aa9a-edd5479fd234,Warstock Step &Amp; Tradition,19:30,1hr 30mins,B14 4QA,52.412206,-1.870612,Warstock Community Centre,"1 Daisy Farm Rd, Yardley Wood",bumpy.will.pine,Tuesday,False,True,True,False,,,,Birmingham,Midlands,England,Alcoholics Anonymous
2b4d9114-881d-5871-b572-23ea2c951e5f,Dudley Joe &Amp; Charlie,10:30,1hr 30mins,DY1 2LD,52.509207,-2.108672,Living Hope Church,"Russells Hall Est, Middlepark Rd",sings.match.flops,Saturday,False,True,False,True,Open,,,Black Country,Midlands,England,Alcoholics Anonymous
49c4d4c1-ed8c-54c7-8cc8-c4d9f3988029,Kidderminster Share,19:30,1hr 30mins,DY10 2JL,52.391245,-2.247643,Trinity Methodist Church,Churchfields,shield.wire.boot,Tuesday,False,True,True,True,Open,,Chit system available.,Black Country,Midlands,England,Alcoholics Anonymous
34a21038-d566-5d53-ab61-2702cb83a564,Lye Atlantic House,12:30,1hr 30mins,DY9 8BQ,52.463514,-2.115167,Atlantic House,Dudley Rd,grit.strain.stove,Monday,False,True,True,True,Open,,Chit system available. No mtgs held on Bank Holidays.,Black Country,Midlands,England,Alcoholics Anonymous
8240397b-9430-5d5f-962d-151742da55db,Stourbridge Womens Topic,19:00,1hr 15mins,DY8 1PQ,52.454466,-2.145876,New Road Methodist Church Centre,29 New Rd,milky.hook.laptop,Friday,False,True,False,False,,,,Black Country,Midlands,England,Alcoholics Anonymous
a48f6256-300c-5d9a-a50c-54212f0635e1,Tipton St Pauls Daytime,12:00,1hr 30mins,DY4 9BP,52.530275,-2.066948,St Paul's Community Centre,Brick Kiln St,logic.cover.above,Wednesday,False,True,True,True,Open,,Chit system available.,Black Country,Midlands,England,Alcoholics Anonymous
6a87132e-05ab-5188-8fb7-bc7a0c77b9b7,Wolverhampton St Patrick`S,11:00,1hr 30mins,WV10 0QQ,52.595781,-2.097666,St Patrick's RC Church,299 Wolverhampton Rd (Rear Of Church),jabs.desire.crab,Monday,False,True,False,False,,,,Black Country,Midlands,England,Alcoholics Anonymous
6ffd956a-9870-5780-b53a-0880deaa94aa,Wolverley Big Book Study,19:30,1hr 30mins,DY11 5TN,52.411133,-2.257256,Wolverley Memorial Hall,"Green Rm, Wolverley, The Green Rm Is Located At The Rear Of The Memorial Hall",draw.nobody.slam,Friday,False,False,False,False,,,The Green Rm is located at the rear of the Memorial Hall.,Black Country,Midlands,England,Alcoholics Anonymous
4d158b28-4b71-5bf9-b602-6e3f7e970d1e,Blackpool Hope In The Harbour,19:30,1hr 15mins,FY4 4FE,53.800395,-2.989624,The Harbour NHS Site,Preston New Rd,tight.chimp.lakes,Tuesday,False,True,False,False,,,,"Blackpool, Fylde and Wyre",North West,England,Alcoholics Anonymous
35f8e44d-857e-5663-96e7-21788832a0d7,Blackpool Sunday Lunch Hybrid,12:30,1hr 30mins,FY4 2AP,53.797491,-3.042816,Victory Baptist Church,St Anne's Rd,plays.drops.smart,Sunday,False,True,True,True,Open,,Mtg also on Zoom ID: 811 9501 0122.Contact email: [email protected] Members in room are not visible online.,"Blackpool, Fylde and Wyre",North West,England,Alcoholics Anonymous
e2b87911-40a3-5910-b0ec-6d1a15febf08,Lytham St Annes Living Sober,20:00,"1hr ",FY8 2EA,53.757567,-3.02587,Parish Rooms,2A Oxford Rd,teach.rungs.cases,Thursday,False,True,False,False,,,,"Blackpool, Fylde and Wyre",North West,England,Alcoholics Anonymous
31912898-468e-5825-a770-edc5349a9d04,Bournemouth,20:00,1hr 15mins,BH1 4HS,50.728251,-1.8421,Boscombe Baptist Church,26 Palmerston Rd,trial.orders.value,Friday,False,True,False,True,Open,,Doors open 19.45.,Bournemouth District,South West,England,Alcoholics Anonymous
f0e8cca5-6318-5f03-9a39-dd61d90cf831,Bournemouth Joe &Amp; Charlie Speaker Tape,19:45,1hr 15mins,BH6 3HT,50.727812,-1.796636,New Church,"Tucton Rd, Southbourne",colleague.truly.expand,Tuesday,False,True,False,False,,,,Bournemouth District,South West,England,Alcoholics Anonymous
833531ab-fd4a-5e6b-98e3-0a67a95ea601,Bournemouth New Beginnings,19:45,1hr 15mins,BH1 4HP,50.729771,-1.843971,BH1 Project,107 Palmerston Rd,nuns.swing.bucket,Sunday,False,True,False,True,Open,,,Bournemouth District,South West,England,Alcoholics Anonymous
47785361-792a-587e-9a85-a293f89a1578,Nooners @ 164,12:30,1hr 15mins,BH1 4HS,50.728251,-1.8421,Boscombe Baptist Church,26 Palmerston Rd,trial.orders.value,Tuesday,False,True,False,True,Open,,,Bournemouth District,South West,England,Alcoholics Anonymous
0a259379-be5a-5128-a5d3-df61da05f9ec,Westbourne Women's Steps &Amp; Traditions,12:30,1hr 30mins,BH4 9DN,50.722335,-1.900712,West Cliff Baptist Church,"Poole Rd, Westbourne",gifts.took.stow,Friday,False,False,False,False,,,,Bournemouth District,South West,England,Alcoholics Anonymous
266f589b-4626-56cd-9124-db02481f9bcb,Brighton Kemptown Living Sober,19:30,1hr 30mins,BN2 1ED,50.818723,-0.121586,The Crypt,"St Georges Church, St Georges Rd, Kemptown",smile.pools.preoccupied,Saturday,False,True,True,True,Open,,Also held online - Zoom Meeting ID: 841 0471 6184 Passcode 670195,Brighton Area,South East,England,Alcoholics Anonymous
049640f5-c3e8-582d-b38a-b84e750e1859,Brighton Lgbt Chapel Royal,19:30,1hr 30mins,BN1 1EA,50.822634,-0.13946,Chapel Royal,164 North St,lifts.pokers.clip,Sunday,False,True,True,False,,,Chit system available.,Brighton Area,South East,England,Alcoholics Anonymous
58e2f0f1-ec22-5c53-bae2-7fa8b7bb68ca,"Brighton Lgbtq+ ‘Experience, Strength &Amp; Hope’",14:00,1hr 15mins,BN2 1ED,50.818723,-0.121586,The Crypt,"St Georges Church, St Georges Rd, Kemptown",smile.pools.preoccupied,Saturday,False,True,False,False,,,,Brighton Area,South East,England,Alcoholics Anonymous
9eb30b1f-9c2c-5d7f-a232-47f53fc6fdd3,Brighton Live &Amp; Let Live Step &Amp; Tradition,19:30,1hr 30mins,BN1 1EA,50.822634,-0.13946,Chapel Royal,164 North St,lifts.pokers.clip,Tuesday,False,False,True,False,,,Chit system available.,Brighton Area,South East,England,Alcoholics Anonymous
c2358dd2-959f-5953-a886-019512fa0583,Brighton Newcomers Big Book Study,10:30,"1hr ",BN2 1PR,50.82029,-0.129374,St Mary's Church Hall,"61 St James St, Kemptown",quit.stud.invite,Saturday,False,True,True,False,,,,Brighton Area,South East,England,Alcoholics Anonymous
2da107c7-8d93-5528-9a14-7beed227751d,Brighton Step,19:00,1hr 15mins,BN1 3AH,50.829388,-0.150765,Possability Place,14 Windlesham Ave,spite.fight.cards,Monday,False,True,False,False,,,,Brighton Area,South East,England,Alcoholics Anonymous
d45daa9f-9ce8-56f4-9f1e-1a3e7beb3322,Brighton Women Step &Amp; Just For Today,10:00,1hr 30mins,BN2 1ED,50.818723,-0.121586,The Crypt,"St Georges Church, St Georges Rd, Kemptown",smile.pools.preoccupied,Friday,False,False,True,True,Open,,Chit system available.,Brighton Area,South East,England,Alcoholics Anonymous
5fa5d6b8-b5ba-564b-b353-982624b63e8a,Brighton Women's Big Book,10:00,"1hr ",BN1 1YD,50.825952,-0.14055,Brighthelm Centre (Roof Room),North Rd,soils.lung.decay,Thursday,False,True,False,True,Open,,,Brighton Area,South East,England,Alcoholics Anonymous
d4ad63ad-e1a7-5efb-b13d-9e0abf9c27e0,Brighton Women's Steps &Amp; Traditions,10:00,"1hr ",BN1 1YD,50.825952,-0.14055,Brighthelm Centre (Roof Room),North Rd,soils.lung.decay,Monday,False,True,False,True,Open,,,Brighton Area,South East,England,Alcoholics Anonymous
02b283c5-600c-5b92-9949-ba7fa66a94e2,Brighton Womens Step &Amp; Tradition,12:30,1hr 15mins,BN1 1AF,50.822545,-0.141565,Friends Meeting House,Ship St,able.cloak.dawn,Wednesday,False,True,False,False,,,,Brighton Area,South East,England,Alcoholics Anonymous
3396d456-39a8-589d-baae-e2cad6a28ecb,Brighton Young Persons,18:30,"1hr ",BN1 3FH,50.825342,-0.148384,St Mary Magdalen's Church Hall,55 Upper North St,hulk.table.afford,Thursday,False,True,False,False,,,,Brighton Area,South East,England,Alcoholics Anonymous
7fd9faae-db1a-5195-a61a-bc59a317fd53,Hove Big Book Workshop Odaat,19:30,1hr 30mins,BN41 1LB,50.832265,-0.213633,South Portslade Community Centre,Church Rd,studio.scans.bucket,Thursday,False,True,False,False,,,,Brighton Area,South East,England,Alcoholics Anonymous
100f2904-9a07-5ba9-bddc-b6dbec06380a,Hove Just For Today,07:30,"1hr ",BN3 2DF,50.827185,-0.179237,Sunshine Books Art &Amp; Coffee,"Hove Manor, 4 Hove St",deck.faced.encounter,Friday,False,True,False,False,,,https://us04web.zoom.us/j/2334332815 Meeting ID: 233 433 2815,Brighton Area,South East,England,Alcoholics Anonymous
d61c7c37-1320-5d9f-befa-66650a0bddd5,Hove Odaat Always A Newcomer,19:30,1hr 30mins,BN3 2FL,50.82696,-0.165955,Cornerstone Community Centre,"St John's Church, Corner Of, 1St Avenue &Amp; Church Rd, (Off Palmeira Sq)",news.maker.diary,Friday,False,False,False,False,,,https://us02web.zoom.us/j/898955954444 Meeting ID: 898 9559 5444,Brighton Area,South East,England,Alcoholics Anonymous
a9760311-8fba-53c5-834c-8ab19aff6cf0,Hove Odaat Big Book Step,19:00,1hr 30mins,BN3 3QE,50.830401,-0.167141,All Saints Church Hall,Eaton Rd,posts.waving.spark,Sunday,False,False,True,False,,,,Brighton Area,South East,England,Alcoholics Anonymous
c11d34b1-d6bf-5182-8f72-3b630e9fef87,Hove Odaat Newcomers,18:00,"1hr ",BN3 2FL,50.82696,-0.165955,Cornerstone Community Centre,"St John's Church, Corner Of, 1St Avenue &Amp; Church Rd, (Off Palmeira Sq)",news.maker.diary,Friday,False,True,True,True,Open,,Join Zoom Meeting https://us02web.zoom.us/j/89895595444 Meeting ID: 898 9559 5444,Brighton Area,South East,England,Alcoholics Anonymous
ae901ffb-86b0-5246-9acc-177cca4efda6,Portslade Child Friendly,10:30,"1hr ",BN41 1LB,50.832265,-0.213633,South Portslade Community Centre,Church Rd,universally.arch.supporter,Monday,False,True,False,False,,,,Brighton Area,South East,England,Alcoholics Anonymous
65238666-afa1-5d3a-913f-c0d0b01530ed,Portslade Child Friendly,10:30,"1hr ",BN41 1LB,50.832265,-0.213633,South Portslade Community Centre,Church Rd,universally.arch.supporter,Tuesday,False,True,False,False,,,,Brighton Area,South East,England,Alcoholics Anonymous
a07739c9-702b-5a10-9b4e-30076123dbca,Portslade Child Friendly,10:30,"1hr ",BN41 1LB,50.832265,-0.213633,South Portslade Community Centre,Church Rd,studio.scans.bucket,Wednesday,False,True,False,False,,,,Brighton Area,South East,England,Alcoholics Anonymous
c9c7e740-39bf-53e9-a5a7-31afd3849499,Portslade Child Friendly,10:30,"1hr ",BN41 1LB,50.832265,-0.213633,South Portslade Community Centre,Church Rd,studio.scans.bucket,Thursday,False,True,False,False,,,,Brighton Area,South East,England,Alcoholics Anonymous
e7a4e7fe-978d-5eb9-9dea-756ad105e493,Portslade Child Friendly,10:30,"1hr ",BN41 1LB,50.832265,-0.213633,South Portslade Community Centre,Church Rd,studio.scans.bucket,Friday,False,True,False,False,,,,Brighton Area,South East,England,Alcoholics Anonymous
005c0959-1142-5927-af64-aa842d1584e8,A Vision For You,19:30,"1hr ",BS8 1NU,51.458581,-2.608394,Victoria Methodist Church,1A Whiteladies Rd,stand.saves.hobby,Monday,False,True,False,True,Open,,,Bristol and District,South Midlands,England,Alcoholics Anonymous
f6f437ee-b63b-5853-b296-5ff400771661,Aa &Amp; Our Mental Health,18:30,"1hr ",BS5 0RE,51.458896,-2.577928,St Nicholas Of Tolentino Church,Lawfords Gate,detect.costs.guards,Wednesday,False,True,False,False,,,,Bristol and District,South Midlands,England,Alcoholics Anonymous
afd3e660-0587-56d8-a3b7-70ecd9378446,Akron,20:00,"1hr ",BS8 4ST,51.450448,-2.617855,Holy Trinity Church,"Clifton Vale, Hotwells",bravo.rider.mount,Friday,False,False,False,False,,,,Bristol and District,South Midlands,England,Alcoholics Anonymous
d940885f-6ce2-5a88-acd4-3c5f842b018a,Barrow,19:45,1hr 15mins,BS41 9BJ,51.425007,-2.675432,Guide Headquarters,"Weston Rd, Long Ashton",deeper.curiosity.safely,Wednesday,False,True,False,False,,,,Bristol and District,South Midlands,England,Alcoholics Anonymous
e3449b2e-c3fe-5684-8b44-3886530e60ab,Bristol Frenchay Abc Of Recovery,18:00,"1hr ",BS16 1ND,51.496484,-2.519601,Unitarian Chapel,"Beckspool Rd, Frenchay",critic.lame.ground,Sunday,False,True,False,True,Open,,,Bristol and District,South Midlands,England,Alcoholics Anonymous
3cb17d2a-2939-5c4c-a3c1-b5da476800b9,"Bristol Happy, Joyous &Amp; Free",19:00,"1hr ",BS16 3QG,51.474492,-2.53123,St John's Church Hall,Lodge Causeway,remove.alarm.editor,Friday,False,True,False,True,Open,,Doors open 18.30.,Bristol and District,South Midlands,England,Alcoholics Anonymous
bc6e96d9-56b5-5c45-ad99-3551eb7c5775,Bristol How We Recover,19:30,"1hr ",BS9 3TE,51.486051,-2.623565,Westbury-On-Trym Baptist Church,Reedley Rd,fruit.oldest.quick,Wednesday,False,True,False,True,Open,,"Entry via car park at the rear. One week step meeting, one week experience, strength and hope share.",Bristol and District,South Midlands,England,Alcoholics Anonymous
10383b3d-15c9-5b5d-bddd-944c57eaa83f,Bristol Into Action Step,11:00,1hr 15mins,BS16 1NT,51.499439,-2.518252,Friends Meeting House,"Beckspool Rd, Frenchay Common",option.warns.laying,Saturday,True,False,False,True,Open,,,Bristol and District,South Midlands,England,Alcoholics Anonymous
b8bfb829-7adc-5f96-8ad0-7d2b53ba14e8,Bristol Przyjaciele Billa W Polish Speaking,19:00,"1hr ",BS6 5RH,51.467001,-2.591592,Polish R C Church Of The Matka Boska Ostrobramska,", Cheltenham Rd",pure.bubble.polite,Thursday,False,False,True,True,Open,,Chit system available.,Bristol and District,South Midlands,England,Alcoholics Anonymous
6199f8ca-7eba-597a-b0d5-1e0a00d28c89,Bristol Przyjaciele Billa W Polish Speaking,17:00,"1hr ",BS6 5RH,51.467001,-2.591592,Polish R C Church Of The Matka Boska Ostrobramska,", Cheltenham Rd",pure.bubble.polite,Sunday,False,False,True,True,Open,,Chit system availabe.,Bristol and District,South Midlands,England,Alcoholics Anonymous
85e3d530-9c3d-52bd-8750-9ccc2794b2ea,Bristol Sixth Sence,19:00,"1hr ",BS4 3PG,51.439892,-2.552941,St Cuthberts Church,"Sandy Park, Brislington",charm.rock.oddly,Saturday,False,False,False,False,,,,Bristol and District,South Midlands,England,Alcoholics Anonymous
b75f7ad5-6435-5306-b8f7-ace3288020e9,Bristol Spirit Of Recovery - Lgbtqia+ And Ally,17:30,"1hr ",BS3 3BW,51.440279,-2.602223,Bedminster Methodist Church,British Rd. Bedminster,acute.urban.slick,Sunday,False,True,False,True,Open,,,Bristol and District,South Midlands,England,Alcoholics Anonymous
94846369-4b69-5cd6-a7e9-43b143c9323f,Bristol Tower Hill Discussion,19:00,"1hr ",BS2 9DB,51.457992,-2.582709,Friends Meeting House,"Champion Sq, St Pauls",hints.brief.corner,Wednesday,False,True,False,False,,,,Bristol and District,South Midlands,England,Alcoholics Anonymous
f4bb1284-05d4-59a8-8ce4-a4a991b2ae63,Bristol Windmill Hill Steps,19:00,"1hr ",BS3 4EA,51.443145,-2.593443,Windmill Hill City Farm,"Philip St, Bedminster.",origin.wink.flags,Wednesday,False,True,False,False,,,Also held on Zoom - ID: 822-320-187 Password: 100635,Bristol and District,South Midlands,England,Alcoholics Anonymous
0412ccee-a368-5709-86bf-3a32312eaa9f,Bristol Women,19:00,"1hr ",BS2 9RU,51.466587,-2.575506,Parkway Methodist Church,"Conduit Place, St Werburghs",sounds.tapes.basic,Tuesday,False,True,False,False,,,,Bristol and District,South Midlands,England,Alcoholics Anonymous
cfd5e703-bad8-5f48-85f0-8cf0736e78e6,Bristol: Our Primary Purpose,19:30,"1hr ",BS11 0LT,51.498572,-2.665397,Lawrence Weston Baptist Church,117-119 Long Cross,lawn.dinner.deaf,Friday,False,False,False,True,Open,,,Bristol and District,South Midlands,England,Alcoholics Anonymous
1cd64389-a401-5c77-a22e-e9215c5e675b,Central Union Lunchtime,12:30,"1hr ",BS1 3HY,51.457561,-2.591355,Broadmead Baptist Church,"1 Whippington Court, The Horsefair",loaf.decent.dusty,Wednesday,False,True,False,True,Open,,,Bristol and District,South Midlands,England,Alcoholics Anonymous
34cb1a11-5b12-5f2e-9a8e-befca85659e2,Chapter &Amp; Verse,19:00,"1hr ",BS8 3ED,51.462604,-2.616292,All Saints Church,"Pembroke Rd, Clifton",gallons.door.grass,Sunday,False,True,False,False,,,,Bristol and District,South Midlands,England,Alcoholics Anonymous
10323368-99bc-5d44-b296-0ab29a6cbe3c,Chapter &Amp; Verse,20:00,"1hr ",BS8 3ED,51.462604,-2.616292,All Saints Church,"Pembroke Rd, Clifton",gallons.door.grass,Thursday,False,True,False,False,,,,Bristol and District,South Midlands,England,Alcoholics Anonymous
01257a50-3098-504d-b404-2ac6c053b642,Clifton,20:00,"1hr ",BS8 4BT,51.45509,-2.620468,Scout HQ Pavey House,"Waterloo St, Clifton",sadly.once.notes,Wednesday,False,False,False,True,Open,,,Bristol and District,South Midlands,England,Alcoholics Anonymous
311f07da-60d0-554c-bb27-453914eb4d39,Downend Gifts Of Sobriety,20:00,"1hr ",BS16 6NU,51.500004,-2.49394,Badminton Road Methodist Church,"Badminton Rd, Downend",operation.guru.exist,Sunday,False,True,False,False,,,,Bristol and District,South Midlands,England,Alcoholics Anonymous
0bc2eb71-8fb9-5d67-8f26-1e166cf36ac0,Gloucester Road Discussion,18:00,"1hr ",BS7 8PD,51.48127,-2.588377,Horfield Quaker Meeting House,300 Gloucester Rd,penny.eagles.circle,Sunday,True,True,False,True,Open,,,Bristol and District,South Midlands,England,Alcoholics Anonymous
866334a4-a9d4-5f5e-becb-1e17155da4bb,Just For Today,12:30,"1hr ",BS8 2SY,51.466481,-2.612216,Scout Hut (Car Park),"Hurle Rd, Off Whiteladies Rd, Clifton",enter.flock.safely,Friday,False,False,False,True,Open,,,Bristol and District,South Midlands,England,Alcoholics Anonymous
1ad3f9ac-c2c8-5265-b666-07405183a3ba,Kingswood Back To Basics,19:30,"1hr ",BS15 4AR,51.461865,-2.499545,The Park Centre,"High St, Kingswood",number.ages.comet,Tuesday,False,True,False,True,Open,,,Bristol and District,South Midlands,England,Alcoholics Anonymous
475a5f15-dd42-51f7-a55f-0a6679167878,Lodge Causeway,15:00,"1hr ",BS16 3QG,51.474492,-2.53123,St John's Church Hall,Lodge Causeway,remove.alarm.editor,Sunday,True,True,False,True,Open,,,Bristol and District,South Midlands,England,Alcoholics Anonymous
92cd6122-900f-5fbf-bbef-e499a3d7e23b,Nailsea Discussion,19:30,"1hr ",BS48 2LP,51.428115,-2.755268,St Francis Church Hall,"Off Ash Hayes Rd, Nailsea",kick.safety.lately,Monday,False,True,False,True,Open,,,Bristol and District,South Midlands,England,Alcoholics Anonymous
20347fea-a49d-5ee5-9db2-a4188fa0eff7,Newcomers Feelings,19:00,"1hr ",BS8 1LL,51.456315,-2.613331,University Catholic Chaplaincy,"103 Queens Rd, Clifton",drill.flank.pack,Saturday,False,False,False,False,,,,Bristol and District,South Midlands,England,Alcoholics Anonymous
a3d21842-3f1f-5360-b477-19b6eb387fd1,Newcomers Speaker,20:00,"1hr ",BS8 1LL,51.456315,-2.613331,University Catholic Chaplaincy,"103 Queens Rd, Clifton",drill.flank.pack,Monday,False,False,False,True,Open,,Open speaker meeting.,Bristol and District,South Midlands,England,Alcoholics Anonymous
e0bc01e3-29d7-515c-81c5-386b28d274c6,Newcomers Step And Tradition,19:30,"1hr ",BS8 1LL,51.456315,-2.613331,University Catholic Chaplaincy,"103 Queens Rd, Clifton",drill.flank.pack,Wednesday,False,False,False,False,,,Email: [email protected],Bristol and District,South Midlands,England,Alcoholics Anonymous
82ae420c-d418-5e84-87d2-502f11dac9a9,Pathfinder Newcomers,18:00,0hr 45mins,BS7 8SN,51.486537,-2.587091,Horfield Methodist Church,"Churchways Avenue, Horfield",chains.saints.casino,Saturday,False,True,False,True,Open,,,Bristol and District,South Midlands,England,Alcoholics Anonymous
d820c492-0dac-5992-b7c2-1b1df2a07166,Pathfinder Three Speaker,19:00,"1hr ",BS7 8SN,51.486537,-2.587091,Horfield Methodist Church,"Churchways Avenue, Horfield",chains.saints.casino,Saturday,False,True,False,True,Open,,,Bristol and District,South Midlands,England,Alcoholics Anonymous
4ca2e246-1769-5a09-b9d6-ca1407309522,Portishead There Is A Solution,19:30,"1hr ",BS20 6TB,51.471636,-2.77574,North Weston Village Hall,26 Clevedon Rd,untrained.cold.rise,Tuesday,False,True,False,True,Open,,,Bristol and District,South Midlands,England,Alcoholics Anonymous
8088e37c-f86a-59cc-a92d-45983e9a0d99,Salvation Army,19:30,1hr 30mins,BS2 9DB,51.457992,-2.582709,Friends Meeting House,"Champion Sq, St Pauls",food.speak.length,Saturday,False,True,False,True,Open,,,Bristol and District,South Midlands,England,Alcoholics Anonymous
8dfda752-06da-5206-a883-5fa627354d42,Sea Mills How It Works,20:00,"1hr ",BS9 2DY,51.488271,-2.647086,Sea Mills Methodist Church,"140 Shirehampton Rd, Sea Mills",sobs.asserts.dent,Monday,False,True,False,True,Open,,,Bristol and District,South Midlands,England,Alcoholics Anonymous
a60e28c7-9652-519b-b5af-a8209eecfe69,St George,20:00,"1hr ",BS5 9HH,51.458988,-2.555359,Bethseda Chapel,"Church Rd, St George",equal.span.safety,Thursday,False,True,False,True,Open,,,Bristol and District,South Midlands,England,Alcoholics Anonymous
85d8e117-036e-5262-89ed-88f43b3f796c,St Werburghs Steps To Freedom,19:00,"1hr ",BS2 9TJ,51.467967,-2.572874,St Werburghs Community Centre,Horley Rd,reward.unit.each,Thursday,False,True,False,True,Open,,,Bristol and District,South Midlands,England,Alcoholics Anonymous
d10a8fc4-02f6-57a1-8278-3ba21ada38a0,Staple Hill Step &Amp; Tradition,19:30,"1hr ",BS16 5JB,51.482319,-2.510008,Pendennis Evangelical Church,"Pendennis Rd, Staple Hill",farms.miles.bunks,Thursday,False,True,False,False,,,,Bristol and District,South Midlands,England,Alcoholics Anonymous
45d1dfc6-7967-5fe8-9453-fb86fd5dc2a2,Steps To Sobriety,20:00,"1hr ",BS8 1NU,51.458581,-2.608394,Victoria Methodist Church,1A Whiteladies Rd,stand.saves.hobby,Friday,False,True,False,False,,,,Bristol and District,South Midlands,England,Alcoholics Anonymous
af63841b-fcb4-5c0d-9e42-36a969b04b36,Thornbury Discussion,20:00,1hr 15mins,BS35 2QX,51.587797,-2.53105,Jubilee Hall,"Greenhill Rd, Alveston Nr Thornbury",abandons.websites.film,Sunday,False,True,False,False,,,,Bristol and District,South Midlands,England,Alcoholics Anonymous
932d8163-b4af-5bbd-b684-9cffd604e48e,Totterdown,19:00,"1hr ",BS4 2EP,51.434989,-2.568333,Knowle Methodist Church 9 Redcatch Rd,BRISTOL,counts.backs.lasts,Monday,False,False,False,True,Open,,Venue is not Wheelchair Accessible (Stairs) Maximum Capacity 30 Tea and Coffee Available Please adhere to any current Covid-19 guidance.,Bristol and District,South Midlands,England,Alcoholics Anonymous
499a1b3f-4f00-5554-b981-e9a2d636cb5c,Westbury-On-Trym The Steps We Took,20:00,"1hr ",BS9 3AA,51.493005,-2.617684,Methodist Church Hall,Westbury Hill,name.zoom.expand,Tuesday,False,True,False,False,,,,Bristol and District,South Midlands,England,Alcoholics Anonymous
9d67fddc-abbf-50cf-a771-936b3251285d,Alderley Edge Step &Amp; Share,10:00,"1hr ",SK9 7NS,53.303252,-2.234033,St Pius Parish Room,Stamford Rd,blaze.fetch.bolt,Saturday,False,True,False,False,,,,Cheshire East,North West,England,Alcoholics Anonymous
fc1f5d33-49c8-53d3-803d-bf8c3c5b2d93,Altrincham Big Book Study,19:00,1hr 30mins,WA14 4NU,53.389357,-2.354089,The Small School Rm,"Unitarian Chapel, Sylvan Grove",codes.votes.voice,Sunday,False,False,False,False,,,,Cheshire East,North West,England,Alcoholics Anonymous
8970805b-836e-5dce-b243-b673c76d71f1,Altrincham Come &Amp; Stay,11:30,1hr 30mins,WA14 4NX,53.38868,-2.352024,Unitarian Chapel,"Small School Room, Sylvan Grove",spring.sheets.limbs,Friday,False,False,False,True,Open,,,Cheshire East,North West,England,Alcoholics Anonymous
0544d7fa-bbf4-526d-8db1-be95cf681a0a,Altrincham Newcomers,09:00,1hr 15mins,WA14 4NX,53.38868,-2.352024,Unitarian Chapel,"Small School Room, Sylvan Grove",hooks.turns.robots,Saturday,False,False,False,False,,,,Cheshire East,North West,England,Alcoholics Anonymous
aebef2b4-edf0-5d97-8198-dcaafe89df89,Altrincham Step &Amp; Share,19:30,1hr 15mins,WA14 1HF,53.390378,-2.349286,Altrincham Methodist Church,Barrington Rd,angle.bunch.warns,Thursday,False,False,False,False,,,,Cheshire East,North West,England,Alcoholics Anonymous
ca4c9c61-01d8-52ae-80d1-dc0847ab3c4a,Altrincham They Stopped In Time / Young Persons,19:30,1hr 30mins,WA14 1HF,53.390378,-2.349286,Altrincham Methodist Church,Barrington Rd,angle.bunch.warns,Wednesday,False,True,False,False,,,,Cheshire East,North West,England,Alcoholics Anonymous
b57a38dc-cb4f-56c7-ada5-6ae72ec0067b,Burnage Multi-Mtg,13:00,1hr 30mins,M19 1FL,53.431786,-2.201176,St Margaret's Church Hall,250 Burnage Lane,cable.sadly.prefer,Thursday,False,True,False,False,,,,Cheshire East,North West,England,Alcoholics Anonymous
19e2ac39-eaca-5dd1-9b5a-88c107daa6fc,Cheadle Gatley Hill House,10:00,1hr 30mins,SK8 4EY,53.390457,-2.239806,Gatley Hill House Community Centre,"Church Rd, Gatley",gives.insert.scuba,Saturday,False,True,False,False,,,,Cheshire East,North West,England,Alcoholics Anonymous
b337d86d-4b71-571f-b88e-e300f1e76772,Chorlton,20:00,1hr 30mins,M21 9JG,53.441888,-2.282415,Chorlton Methodist Church,Manchester Rd,animal.leave.driver,Wednesday,False,True,False,False,,,,Cheshire East,North West,England,Alcoholics Anonymous
2eccdb43-a5db-539a-bbee-a0d7ec65b711,Chorlton Central Primary Purpose,19:30,1hr 30mins,M21 8BF,53.439543,-2.2743,Chorlton Central Church,Barlow Moor Rd,fines.jaws.angle,Saturday,False,True,False,False,,,,Cheshire East,North West,England,Alcoholics Anonymous
ce123722-4226-5381-b6c6-d78315afd154,Didsbury,13:30,1hr 15mins,M20 2GU,53.416415,-2.239922,Café,"Nazareen College, Dene Rd",closed.retire.formal,Sunday,False,False,False,False,,,,Cheshire East,North West,England,Alcoholics Anonymous
f52a60a4-1e46-5d99-9a62-77db6c7e5df7,Handforth Step &Amp; Share,19:30,"1hr ",SK9 3LF,53.352582,-2.215572,St Mary's Methodist Church,Wilmslow Rd,cubes.voter.dishes,Thursday,False,True,True,False,,,,Cheshire East,North West,England,Alcoholics Anonymous
e7f9a566-dde7-5a97-a581-44744eb4a9d4,Manchester Forum Library Come &Amp; Go,13:30,1hr 30mins,M22 5RX,53.379925,-2.265017,Wythenshawe Forum Library,"IT Room, Ground Floor,, Simonsway",caller.longer.chairs,Thursday,False,True,False,True,Open,,No meetings on Bank Holidays.,Cheshire East,North West,England,Alcoholics Anonymous
ff5aa381-4ebf-51ad-8440-e5fd23e41de2,Manchester Nowa Nadzieja/ New Hope Polish,18:00,"2hr ",M14 4QB,53.458393,-2.236198,Polish R C Church Of Divine Mercy,196 Lloyd St North,report.funded.mirror,Saturday,False,False,False,True,Open,,,Cheshire East,North West,England,Alcoholics Anonymous
0dbe31fe-9156-5b3d-b05a-b1f608e6bb69,Manchester Orton Rd,19:30,1hr 30mins,M23 0LH,53.410348,-2.282055,St Michaels Church,"Orton Rd, Northern Moor",grow.slam.voted,Sunday,False,True,False,False,,,,Cheshire East,North West,England,Alcoholics Anonymous
2e1c5977-248c-5d0e-b32f-4428b3bdc7c7,Manchester Wythenshawe,13:00,1hr 30mins,M22 5RX,53.379925,-2.265017,Wythenshawe Forum Library,"IT Room, Ground Floor,, Simonsway",caller.longer.chairs,Monday,False,True,False,True,Open,,No meetings held on Bank Holidays.,Cheshire East,North West,England,Alcoholics Anonymous
b8c023d0-0388-5d15-893b-ad1b83499f68,Northwich Sisters Of Sobriety,20:00,1hr 30mins,CW9 5HH,53.255248,-2.513588,Carers Centre,146 London Rd,stores.count.bossy,Friday,False,True,False,True,Open,,Also on zoom at the same time - Zoom ID 6320298644 no password needed,Cheshire East,North West,England,Alcoholics Anonymous
4909072a-3b6b-57aa-ab2d-cb11db5b745e,Northwich Step 11 Meditation,19:00,"1hr ",CW8 1ER,53.256352,-2.520211,Castle Community Church,Beeston St,tour.mini.rally,Friday,False,False,False,False,,,,Cheshire East,North West,England,Alcoholics Anonymous
20b7b726-f329-5ab1-9120-e34f30450df5,Sale 1,20:15,1hr 30mins,M33 4PL,53.413551,-2.342676,St John The Devine,186 Brooklands Rd,asking.faces.voted,Monday,False,True,False,True,Open,,,Cheshire East,North West,England,Alcoholics Anonymous
da50ae32-3806-5032-9f15-dda9d26a872f,Sale Brooklands,20:00,1hr 30mins,M33 3PB,53.408371,-2.317693,St John Divine Church,Brooklands Rd,shape.jars.leads,Thursday,False,True,False,False,,,,Cheshire East,North West,England,Alcoholics Anonymous
aea1a4b7-ef15-5aee-85c2-89500d50682c,Sale Women,19:30,1hr 30mins,M33 2PP,53.419597,-2.293477,Sale Moor Methodist Church,303 Northenden Rd,leader.wanted.island,Wednesday,False,True,True,False,,,,Cheshire East,North West,England,Alcoholics Anonymous
b2fce84c-3fec-5ede-8fad-4f7e5040da5d,Stockport Heaton Chapel Big Book Study,13:00,1hr 30mins,SK4 4QG,53.428964,-2.178723,St Thomas's Church,"Wellington Rd North, Heaton Chapel",strut.every.backs,Wednesday,False,True,False,False,,,,Cheshire East,North West,England,Alcoholics Anonymous
1ec07b15-1e1c-521b-b2bc-53488a87ea61,Stockport It Works - It Really Does,19:00,1hr 30mins,SK3 9DX,53.403366,-2.165094,York St Community Centre,York St,office.resist.riding,Friday,False,True,False,False,,,,Cheshire East,North West,England,Alcoholics Anonymous
ff83f2b4-15be-5e77-8580-949a30e21614,Warrington - Stockton Heath,19:30,1hr 30mins,WA4 6LP,53.368423,-2.582427,Stockton Heath Methodist Church,2 Heath St,clown.lasts.privately,Tuesday,False,False,False,False,,,,Cheshire East,North West,England,Alcoholics Anonymous
5ce4fffe-7ac1-5f0f-ad52-36668709b764,"Warrington Living Sober, Happy, Joyous &Amp; Free",11:00,1hr 30mins,WA1 2EG,53.391705,-2.578942,St Elphins Community Centre,St Katherines Way,punt.relay.damage,Saturday,False,True,False,True,Open,,,Cheshire East,North West,England,Alcoholics Anonymous
e75949d8-94b3-5ab8-80a3-e9984398eceb,Wythenshawe Oatlands Road,19:30,1hr 30mins,M22 1AH,53.376342,-2.267716,St Mark's United Reformed Church,Oatlands Rd,probe.movie.basis,Saturday,False,True,False,False,,,,Cheshire East,North West,England,Alcoholics Anonymous
2a6aceff-5380-5515-b3c8-46776e18ac6a,Amersham Lunch Bunch,12:30,"1hr ",HP6 5DR,51.67757,-0.606307,St Michaels Church Hall,70 Sycamore Rd,teams.exit.coffee,Wednesday,False,True,True,True,Open,,There is free parking at the rear of the Church and a pay and display opposite the main entrance.,Chiltern and Thames,South Midlands,England,Alcoholics Anonymous
79ac93c5-f39e-542f-b27b-e2a437ee045d,Aylesbury Big Book Experience,19:30,"1hr ",HP22 5UT,51.783788,-0.790573,Ark,"28 Risborough Rd, Stoke Mandeville",asserts.worldwide.lingering,Tuesday,False,True,True,True,Open,,Chit system available.,Chiltern and Thames,South Midlands,England,Alcoholics Anonymous
832253f8-5b81-5c7e-aa26-1a8b6471369e,Beaconsfield Step,19:00,1hr 15mins,HP9 2JW,51.600237,-0.636436,The Fitzwilliams Centre,"Windsor End, Old Town",cones.oven.rabble,Sunday,False,False,True,False,,,Join Zoom Meeting https://zoom.us/j/96047987451?pwd=OFZCM2hOOElaMVBBWXNLcGNJdXd0QT09 Meeting ID: 960 4798 7451 Passcode: 890899,Chiltern and Thames,South Midlands,England,Alcoholics Anonymous
9b47d6f7-ffe2-58c3-a3d2-74febf2cadfb,Beaconsfield The Weekend Starts Here,19:00,1hr 15mins,HP9 2JW,51.600237,-0.636436,The Fitzwilliams Centre,"Windsor End, Old Town",cones.oven.rabble,Friday,False,False,False,True,Open,,,Chiltern and Thames,South Midlands,England,Alcoholics Anonymous
c7755b00-b852-5f56-a5d5-ee2befc05cbe,Bisham Womens,19:30,1hr 15mins,SL7 1RW,51.560808,-0.777695,All Saints Church,"Church Lane, Bisham",handbags.acrobat.competent,Wednesday,False,True,False,True,Open,,,Chiltern and Thames,South Midlands,England,Alcoholics Anonymous
0e971d5b-50d9-584a-ba76-ef3229d56e02,Cookham As Biil Sees It,19:30,2hr 15mins,SL6 9SP,51.560604,-0.707445,Holy Trinity Parish Centre,Sutton Rd,digit.dock.cove,Wednesday,False,True,False,True,Open,,,Chiltern and Thames,South Midlands,England,Alcoholics Anonymous
e136ae33-7e52-5998-b0e7-bd9f36004640,Frieth Step 3 &Amp; 11 Meditation,18:00,"1hr ",RG9 6PR,51.604945,-0.851588,Frieth Village Hall,Frieth,careless.thudding.norms,Sunday,False,True,False,False,,,,Chiltern and Thames,South Midlands,England,Alcoholics Anonymous
f514a6c1-d4af-5cf5-835f-918d7cd1bf00,Hambleden Men's,19:00,1hr 30mins,RG9 6RP,51.572224,-0.869738,Hambleden Village Hall,Hambleden,admires.sprinkler.insects,Wednesday,False,True,False,False,,,,Chiltern and Thames,South Midlands,England,Alcoholics Anonymous
7fcedb87-ede7-58b4-8c33-ed79bc60d467,High Wycombe As Bill Sees It,19:15,"1hr ",HP11 1BJ,51.626912,-0.742416,Trinity United Reformed Church,London Rd,basis.copper.indoor,Saturday,False,True,True,True,Open,,Zoom meeting ID: 8386196805 No password,Chiltern and Thames,South Midlands,England,Alcoholics Anonymous
874a71cd-157a-57f9-a039-809b1d8defd3,Parmoor Spiritual,16:30,"1hr ",RG9 6PR,51.604945,-0.851588,Frieth Village Hall,Frieth,careless.thudding.norms,Sunday,False,True,True,True,Open,,Freith is sutatued between Lane End and Marlow.,Chiltern and Thames,South Midlands,England,Alcoholics Anonymous
1e618a1f-9fdd-557c-a81c-176ed30effd0,Slough Experience Strength &Amp; Hope (S.E.S.H.),20:00,1hr 15mins,SL1 1SZ,51.507913,-0.59303,Kingsway United Reformed Church,11 Church St,finds.fills.traps,Wednesday,False,False,False,True,Open,,,Chiltern and Thames,South Midlands,England,Alcoholics Anonymous
6089d05a-cc42-5da1-8934-04b873e3f64e,Slough Lunchtime,13:00,1hr 15mins,SL1 1PJ,51.506702,-0.594621,St Marys Church,Church St,acid.makes.stuck,Tuesday,False,False,True,True,Open,,Chit system available.,Chiltern and Thames,South Midlands,England,Alcoholics Anonymous
53591312-b971-5c9d-842d-ed20af4ef314,Studley Green &Amp; Stokenchurch Hybrid,18:30,1hr 15mins,HP14 3UY,51.651859,-0.866867,Studley Green Community Centre,Wycombe Rd,furniture.horseshoe.releasing,Thursday,False,True,True,True,Open,,Zoom meeting ID: 91452943704 Passcode:727730,Chiltern and Thames,South Midlands,England,Alcoholics Anonymous
40dc83dc-1da1-5ec9-875c-585e8014f1d0,City Breakfast,07:30,"1hr ",EC3V 9EA,51.512477,-0.086272,St Edmund The King Church,"Lombard St (Side Entrance In, George Yard)",calls.values.hooks,Monday,False,True,True,True,Open,,No mtg Bank Holiday.,City Of London,London (North),England,Alcoholics Anonymous
2ddb5e34-1b90-5b59-850d-2a6d8a14bf14,City Breakfast: 3-7-11 Step Hybrid,07:30,"1hr ",EC3V 9EA,51.512477,-0.086272,St Edmund The King Church,"Lombard St (Side Entrance In, George Yard)",calls.values.hooks,Tuesday,False,True,False,True,Open,,Join URL: https://us06web.zoom.us/j/614220999?pwd=TGVLL0VZNW5pa1Bhejd0Q0E5Q0dUZz09,City Of London,London (North),England,Alcoholics Anonymous
bef23e62-bec2-53df-bdcc-1f2d8babc5d1,City Starters,07:30,"1hr ",EC3V 9EA,51.512477,-0.086272,St Edmund The King Church,"Lombard St (Side Entrance In, George Yard)",calls.values.hooks,Thursday,False,True,False,True,Open,,,City Of London,London (North),England,Alcoholics Anonymous
c434f050-7294-516f-87f4-ab58e17c9149,Islington Barbican St Joseph's,19:00,"1hr ",EC1Y 8LE,51.522278,-0.090633,Church Of St Joseph,"15 Lamb's Passage, Off Bunhill Row",slope.risks.plots,Monday,False,False,False,True,Open,,,City Of London,London (North),England,Alcoholics Anonymous
7d4baecd-48b3-576f-985e-e6c89d3fa3ba,Lgbtq+ Newcomers Bunhill Row,19:00,"1hr ",EC1Y 8LE,51.522278,-0.090633,Church Of St Joseph,"15 Lamb's Passage, Off Bunhill Row",slope.risks.plots,Thursday,False,False,False,True,Open,,,City Of London,London (North),England,Alcoholics Anonymous
bdc5b4c6-36d5-5dbd-ab96-a958e13a4acf,Old Street Betty Bonkers,11:00,1hr 15mins,EC1V 8BG,51.527828,-0.091969,Betty Brunker Hall,152 Lever St (Community Hall Behind Small Park),void.roofs.tags,Saturday,False,True,True,True,Open,,,City Of London,London (North),England,Alcoholics Anonymous
7fa921ed-58d2-52a6-b348-421f8669a334,Camborne Tuckingmill,19:30,1hr 30mins,TR14 8RQ,50.219743,-5.284481,All Saints Community Centre,"Church View Rd, Off Pendarves St",passports.kingpin.ombudsman,Monday,False,True,False,False,,,,Cornwall,South West,England,Alcoholics Anonymous
31e94278-31d7-5019-a7c6-8f10e3a737c7,Chacewater The Three Legacy,11:00,1hr 40mins,TR4 8PY,50.256664,-5.156671,WI Hall,"The Main Car Park, The Square",sounding.padding.abstracts,Sunday,False,True,False,True,Open,,Zoom Meeting ID: 3542714206170689 Password: 170689,Cornwall,South West,England,Alcoholics Anonymous
0bbae18f-7eb5-5d1d-9e49-be222c7d985d,Truro Lunch Come &Amp; Go,12:30,1hr 30mins,TR1 1SE,50.263951,-5.047586,Our Lady Of The Portal &Amp; St Piran RC Church Hall,", St Austell St",movies.caked.hooked,Thursday,False,True,False,False,,,Zoom meeting ID: 82169 343369 password: 863744,Cornwall,South West,England,Alcoholics Anonymous
f482aa16-2657-52ee-ae25-13df000aa6eb,Truro Thee Is A Solution,19:30,1hr 30mins,TR1 3BD,50.262372,-5.059026,City Life Church,Chapel Hill,tides.store.thanks,Thursday,False,True,False,False,,,,Cornwall,South West,England,Alcoholics Anonymous
c8a8e217-3625-57be-8941-8d4ac4db2c4a,Bedworth,19:30,"1hr ",CV12 0JP,52.474078,-1.500072,Bedworth Heath Community Centre,181 Smorral Ln,zebra.flock.rate,Friday,False,False,False,True,Open,,,Coventry and Warwickshire,Midlands,England,Alcoholics Anonymous
77ff2898-2555-55f9-abfe-e6715ef767ce,"Coventry Experience, Strength &Amp; Hope",20:00,1hr 30mins,CV1 3AY,52.408867,-1.516067,St John The Baptist Church,Fleet St,orchestra.metro.tubes,Tuesday,False,False,False,True,Open,,,Coventry and Warwickshire,Midlands,England,Alcoholics Anonymous
c9b93406-1c24-5e52-a329-3566c4313bb1,Coventry Gnp,18:30,1hr 30mins,CV1 4FB,52.415808,-1.505229,Gurdwara Guru Nanak Parkash,74 Harnall Ln West,grew.rats.theme,Thursday,False,True,False,False,,,Mtg held in the Khalsa College,Coventry and Warwickshire,Midlands,England,Alcoholics Anonymous
c6305eca-0d77-54b8-b36a-6e363c311d48,Leamington Spa Esh,20:00,1hr 30mins,CV32 5HQ,52.290004,-1.53951,Methodist Church,Dale St,than.souk.shady,Tuesday,False,False,False,True,Open,,The car park is on 12 Regent St,Coventry and Warwickshire,Midlands,England,Alcoholics Anonymous
c93e2f8a-1b49-5aaa-bad1-831ca691875a,Pokora Polish Speaking,15:00,1hr 30mins,CV21 2EA,52.371833,-1.268545,Divine Mercy Chapel,17 Lawford Rd,renew.pulse.verge,Saturday,False,False,False,True,Open,,,Coventry and Warwickshire,Midlands,England,Alcoholics Anonymous
71bb11a4-129b-56c6-9592-cd76c21de8e5,Warwick Newcomers Step 1,20:00,1hr 30mins,CV34 5TD,52.294877,-1.571486,The Gap Community Centre,39 Oakwood Grove,librarian.wrong.brains,Wednesday,False,True,False,True,Open,,,Coventry and Warwickshire,Midlands,England,Alcoholics Anonymous
a0627af4-07f5-5f45-8d19-3f099851cff5,Chaddesden A Vision For You,19:00,"1hr ",DE21 4JU,52.938634,-1.440089,St Philips Church Hall,"Taddington Rd, Chaddesden",atomic.detail.pulled,Friday,False,False,False,False,,,Newcomers welcome.,Derbyshire,Midlands,England,Alcoholics Anonymous
5514ba76-3c00-50a1-8ca5-4a278f2789b9,Derby,18:00,1hr 30mins,DE1 3HY,52.926391,-1.481957,Friends Meeting House,56 St Helens St,burst.stump.pirate,Saturday,False,True,True,True,Open,,,Derbyshire,Midlands,England,Alcoholics Anonymous
9aca06ec-dc03-5b13-8c79-548449860577,Derby Newcomers Non Religious Aa,18:00,"1hr ",DE1 3RD,52.934462,-1.473351,The Community Rm,"Centurion Walk, Chester Green",crops.stones.chop,Tuesday,False,True,False,False,,,https://derbynonreligiousalcoholicsanonymous.co.uk/,Derbyshire,Midlands,England,Alcoholics Anonymous
2ba73311-4264-59dd-971e-2334964f61aa,Derby Non Religious Aa,18:00,"1hr ",DE1 3RD,52.934462,-1.473351,The Community Rm,"Centurion Walk, Chester Green",crops.stones.chop,Sunday,False,True,False,False,,,https://derbynonreligiousalcoholicsanonymous.co.uk/,Derbyshire,Midlands,England,Alcoholics Anonymous
ad72d2a8-0481-5c61-8012-b599fc4b989a,Derby Non Religious Aa,18:00,"1hr ",DE1 3RD,52.934462,-1.473351,The Community Rm,"Centurion Walk, Chester Green",crops.stones.chop,Friday,False,True,False,False,,,https://derbynonreligiousalcoholicsanonymous.co.uk/,Derbyshire,Midlands,England,Alcoholics Anonymous
66c69bad-5b87-559e-b9cd-6d34613ef3d4,Matlock Open,19:30,1hr 30mins,DE4 3NG,53.139517,-1.55301,St Joseph's Community Hall,Bank Rd (Next To RC Church),bars.pizzeria.sadly,Wednesday,False,True,False,True,Open,,,Derbyshire,Midlands,England,Alcoholics Anonymous
21319f23-4486-5109-97ea-a8f001b646b4,Axminster Experience Strength &Amp; Hope,19:30,1hr 30mins,EX13 5AQ,50.781214,-2.999304,United Reformed Church,Chard St,stewing.caressed.twig,Friday,False,True,False,True,Open,,"Meeting held in church rooms, beside footpath to left of main church.",Devon Central,South West,England,Alcoholics Anonymous
747eae3e-ed94-55f3-b093-a16bbebc311b,"Exeter Experience, Strength &Amp; Hope",19:30,"1hr ",EX2 4HU,50.720797,-3.525894,Friends Meeting House,"Wynards Lane, Off Magdalen St",calculating.cable.deal,Saturday,False,False,False,True,Open,,All Covid-19 regulations/restrictions in place and adhered to.,Devon Central,South West,England,Alcoholics Anonymous
4cbb4bc4-17ff-5db8-896e-f84125f5f3c4,Exeter Jezyk Serca Polish Speaking Hybrid,18:00,"1hr ",EX1 1EB,50.721193,-3.530681,The Sacred Heart Church,25 South St,admits.twin.waddle,Thursday,False,False,False,False,,,Join Zoom Meeting https://us06web.zoom.us/j/87571767059 Meeting ID: 875 7176 7059.,Devon Central,South West,England,Alcoholics Anonymous
1aaa418d-caf4-54ce-9090-a26fe9365a35,Hartlepool,19:15,"1hr ",TS26 9HT,54.682136,-1.221427,Salvation Army Church Hall,Park Rd,edgy.flood.bought,Friday,False,True,False,False,,,,Durham and Cleveland,North East,England,Alcoholics Anonymous
02e33109-65a6-5433-b5cb-54278379c6a8,Hartlepool Step &Amp; Traditions,19:15,"1hr ",TS26 9HT,54.682136,-1.221427,Salvation Army Church Hall,Park Rd,edgy.flood.bought,Sunday,False,False,False,False,,,Please wear face masks.,Durham and Cleveland,North East,England,Alcoholics Anonymous
6b6b7824-fe50-551d-ae20-1774d0f91878,Newton Aycliffe Friends In Recovery,18:30,"1hr ",DL5 4HT,54.622673,-1.569463,Newton Aycliffe Youth &Amp; Community Centre,Burn Ln,liability.lift.harp,Tuesday,False,True,False,False,,,,Durham and Cleveland,North East,England,Alcoholics Anonymous
250eb51c-9409-5619-9c2e-f1dde4e0cb0f,Redcar Living Sober,18:30,"1hr ",TS10 4BQ,54.604905,-1.070893,Westmorland Community Centre,Westmorland Rd,jumpy.edit.slurs,Tuesday,False,True,False,True,Open,,Daily reflecton - How it apples to me.,Durham and Cleveland,North East,England,Alcoholics Anonymous
88561a0c-dc31-5c6d-b4dd-bdc6af90c1d4,Harlow General Share &Amp; Chair,19:30,1hr 30mins,CM20 3AF,51.775116,0.1127,St Andrews Methodist Church,"Rear Of Church, The Stow",found.forced.badly,Sunday,False,True,False,False,,,Doors open 19.00,East Herts or West Essex,Eastern,England,Alcoholics Anonymous
737edb90-5e68-55dc-9092-47ba95157396,Hertford,18:00,"1hr ",SG13 7DZ,51.798102,-0.070038,Hertford Methodist Church,Ware Rd,acute.exam.goals,Wednesday,False,True,False,True,Open,,,East Herts or West Essex,Eastern,England,Alcoholics Anonymous
5f197280-2e35-5cbb-bc11-259f37929912,Hertford Lunch Come &Amp; Go,13:00,"1hr ",SG13 7DZ,51.798102,-0.070038,Hertford Methodist Church,Ware Rd,acute.exam.goals,Friday,False,True,False,False,,,,East Herts or West Essex,Eastern,England,Alcoholics Anonymous
c74b722e-e32b-5e54-acf3-02c0ca0422f7,Birchington Step &Amp; Tradition,20:00,1hr 30mins,CT7 9BP,51.373604,1.308458,Methodist Church Hall,Canterbury Rd,pinks.dragonfly.suggested,Thursday,False,True,False,False,,,,East Kent,South East,England,Alcoholics Anonymous
27a57853-17dc-5d96-b32c-f6c6be40439b,Canterbury Big Book Step &Amp; Tradition,19:30,1hr 30mins,CT1 2AS,51.280661,1.079237,Friends Meeting House,6 The Friars,boxer.remark.gift,Friday,False,True,False,True,Open,,,East Kent,South East,England,Alcoholics Anonymous
2b97396e-7d5c-5c8a-afb4-a3f38b7f8b92,Oban Step,19:30,"2hr ",CT1 1UT,51.276648,1.085809,Canterbury Baptist Church,"St George's Place, Opp Waitrose",live.free.winter,Saturday,False,False,False,False,,,,East Kent,South East,England,Alcoholics Anonymous
b9a587b6-3bda-54fd-93ca-0757f6f68e26,Ramsgate Speaker &Amp; Discussion,19:30,1hr 15mins,CT11 9AY,51.334225,1.415485,,20 Guildford Lawn,flat.shall.prefer,Wednesday,False,False,False,True,Open,,,East Kent,South East,England,Alcoholics Anonymous
d9b64d20-0f2e-5208-ba2d-c54b304fe826,Tankerton Big Book &Amp; Beginners,19:45,1hr 30mins,CT5 2QU,51.361333,1.068124,St Johns Centre,"11 St Johns Rd, Swalecliffe",shades.firm.slowly,Tuesday,False,True,True,True,Open,,,East Kent,South East,England,Alcoholics Anonymous
0cd07ca1-52b8-5a86-9ea3-66425746ebf4,Tankerton Happy Joyous &Amp; Free,19:30,1hr 15mins,CT0 2HD,51.3616728,1.045417,Church Of The Holy Spirit,"81A Northwood Rd, Whitstable",closer.friday.stuff,Friday,False,False,False,True,Open,,Step meeting.,East Kent,South East,England,Alcoholics Anonymous
02575623-9334-5611-a5b1-6e5ee31b027d,Westgate-On-Sea Morning Big Book Study,10:00,1hr 30mins,CT8 8RE,51.381878,1.336638,The Old Bake House,21 St Mildreds Rd,decisions.mush.screening,Sunday,False,True,True,True,Open,,,East Kent,South East,England,Alcoholics Anonymous
45a8da79-3b13-56cf-b300-9389de470149,Blackburn Fenix (Polish Speaking),18:30,1hr 30mins,BB2 2EF,53.746176,-2.486591,Phoenix Hub,"Salvation Army Hostel Grounds, Heaton St, The Entrance To The Hub Is From Clayton St",clay.impact.rooms,Wednesday,False,False,False,True,Open,,,East Lancs,North West,England,Alcoholics Anonymous
489acb6c-8e5e-5972-b7a2-5254d7416c05,Blackburn Rishton Recovery,19:30,1hr 30mins,BB1 4LJ,53.768719,-2.415564,Rishton People's Centre,4A School St,bound.become.economies,Thursday,False,True,False,False,,,,East Lancs,North West,England,Alcoholics Anonymous
fee8cfca-f913-5863-93cb-34ae1875e45a,Bolton Hall'ithwood,19:30,1hr 30mins,BL1 8UJ,53.600385,-2.416387,Green Way Community Centre,Green Way,count.quick.transfers,Tuesday,False,True,False,False,,,,East Lancs,North West,England,Alcoholics Anonymous
951d75e8-d843-53d4-91e7-4b4c1b95d61b,Bolton Hall'ithwood,19:30,"1hr ",BL1 8UJ,53.600385,-2.416387,Green Way Community Centre,Green Way,count.quick.transfers,Thursday,False,True,False,True,Open,,,East Lancs,North West,England,Alcoholics Anonymous
0f8876ea-97e4-50e8-803a-042777589eab,Bury Greenmount Lunchtime Come &Amp; Go,12:30,1hr 30mins,BL8 4DS,53.625107,-2.337432,Greenmount Old School Community Centre,"Brandlesholme Rd, Greenmount",caravans.public.yachting,Wednesday,False,True,False,True,Open,,,East Lancs,North West,England,Alcoholics Anonymous
1803df34-72b4-5ae5-8c22-4a1da1bbfeb2,Colne 12 Step Recovery,19:00,1hr 30mins,BB8 0SY,53.856159,-2.170889,The Open Door Project,1 Great George St,down.starter.attitudes,Monday,False,False,False,True,Open,,,East Lancs,North West,England,Alcoholics Anonymous
58e2902d-4765-5182-bb7d-bb61d8b3d482,Heywood Ypaa,19:30,1hr 30mins,OL10 3JG,53.592571,-2.240845,Heady Hill Community Centre,Whalley Rd,deeply.else.behave,Monday,False,True,False,False,,,,East Lancs,North West,England,Alcoholics Anonymous
75b524a6-c281-51c4-9c4b-b790c55e7cbb,Ramsbottom Step 11 Prayer &Amp; Meditation,19:30,1hr 45mins,BL0 9AD,53.648594,-2.317559,St Pauls Church,Bridge St,bought.paces.expectant,Friday,False,True,False,True,Open,,,East Lancs,North West,England,Alcoholics Anonymous
f1da1f4e-b1dd-5a53-80f9-d897deb92e2c,Bethnal Green 12 X 12,18:30,"1hr ",E2 9PA,51.527774,-0.055182,St John`S Church Hall,"Bethnal Green, Opp Tube Stn Side, Entrance (Roman Rd)",forgot.simply.habit,Wednesday,False,False,False,False,,,Face masks are required.,East London,London (North),England,Alcoholics Anonymous
6e3643fc-eec7-5b25-b968-fb27c3575f04,Bethnal Green Emotional Sobriety,13:00,"1hr ",E2 9QT,51.528942,-0.056846,Keddlestone Walk Community Centre,3 Hollybush Gardens,verge.boxer.fees,Friday,False,True,False,False,,,,East London,London (North),England,Alcoholics Anonymous
d4b9a3ed-cbdd-5de4-8221-2c7c9390f1ff,Bethnal Green Newcomers Step And Tradition,20:00,1hr 30mins,E2 6JL,51.5243,-0.058889,The Good Shepherd Mission,17 Three Colts Ln,tame.launch.fruit,Monday,False,True,False,True,Open,,,East London,London (North),England,Alcoholics Anonymous
9b8b9d83-606a-59d4-882f-8e4ea448e1d5,Bring Your Own Big Book (Byobb),19:30,"1hr ",E2 9HP,51.533784,-0.052184,Canal Club Community Centre,"Belmont Wharf, Waterloo Gdns",hope.alive.walks,Thursday,False,False,False,False,,,"Format of the meeting is a selected Big Book reading followed by raised voice sharing Open meeting, all welcome Bring your own Big Book. No dogs.",East London,London (North),England,Alcoholics Anonymous
e684e7b5-a015-5c77-a2a0-826e4e71d3e7,Canning Town 12X12,19:00,1hr 15mins,E16 4HB,51.51651,0.00917,St Margaret &Amp; All Saints Church,79 Barking Rd,rubble.friday.encounter,Wednesday,False,False,False,True,Open,,Venue is through the black gates to the hall. Push the door to open. Hall is upstairs,East London,London (North),England,Alcoholics Anonymous
ae443f70-e756-5940-8c0c-f3fb5506e7b2,First Clapton,19:30,1hr 30mins,E5 8DJ,51.556649,-0.056778,Rear Of St James The Great Church In Powell Rd,Hackney,pile.dishes.mini,Tuesday,False,False,False,False,,,,East London,London (North),England,Alcoholics Anonymous
0bc5e5df-43f6-5073-8024-d9ec895878a6,Goodmayes Serenity Lounge/Newcomers,14:30,1hr 30mins,IG3 8XE,51.569554,0.111278,St Pauls Church &Amp; Community Centre,Barley Ln,burst.begun.rope,Sunday,False,False,False,False,,,,East London,London (North),England,Alcoholics Anonymous
fed82201-ab3c-52a2-b095-5b6ea00c13af,Hackney Edward Gibbons House,20:00,1hr 30mins,E2 9NG,51.532439,-0.055154,Edward Gibbons House,"1 Parmiter St, Cambridge Heath Rd",closes.pine.novel,Monday,False,True,True,True,Open,,Chit system available.,East London,London (North),England,Alcoholics Anonymous
1c65a021-f8bf-5fde-aa9a-8a3afa9e5121,Hackney Step &Amp; Tradition,19:15,1hr 30mins,E9 7DL,51.540904,-0.045578,Prideaux House Community Centre,10 Church Cres,submit.plays.fancy,Friday,False,True,False,False,,,,East London,London (North),England,Alcoholics Anonymous
c3449f73-37f7-5e95-8075-f1850a4818e6,Ilford Seven Kings Candlelit Speaker,20:00,1hr 30mins,IG2 7BB,51.570971,0.093925,St Johns Church,"St Johns Rd, Seven Kings, Access Is Through The Small Porch Located On, Alborough Rd Sth - Where The Parade Of Shops Are.",freed.hunter.blocks,Thursday,False,True,True,True,Open,,Chit system available.,East London,London (North),England,Alcoholics Anonymous
191d8856-344e-54c8-8665-a0fb861af622,Ilford Wschod (Polish Speaking),20:00,"1hr ",IG3 9XE,51.56485,0.108739,,"2 Ashgrove Rd, Goodmays",hang.badge.flank,Monday,False,False,False,True,Open,,,East London,London (North),England,Alcoholics Anonymous
c2e31fff-e195-5e96-97bf-9f618eb3911b,Leytonstone Whipps Cross,20:00,1hr 30mins,E11 1NR,51.578831,0.002638,Board Rm,"Junction 6, Main Corridor, Whipps Cross Hospital,, Whips Cross Rd",orange.invite.basic,Wednesday,False,True,False,False,,,Access is via the main entrance. Follow the main corridor to junction 6. The boardroom is on the right.,East London,London (North),England,Alcoholics Anonymous
31637d3e-7bd5-5ddf-8428-c3e9580cd2df,Leytonstone Whipps Cross,20:00,1hr 30mins,E11 1AY,51.57085,0.003442,Ground Flr,"Leytonstone United Free Church, 55 Wallwood Rd",orange.invite.basic,Friday,False,True,False,True,Open,,,East London,London (North),England,Alcoholics Anonymous
5615133d-4154-5c5d-a0c8-04cf6394fe0e,Mare St Step,07:30,"1hr ",E8 3QE,51.540961,-0.055497,Hackney Methodist Church,219 Mare St,lights.pose.awards,Monday,False,False,False,False,,,,East London,London (North),England,Alcoholics Anonymous
38a21384-f7c5-5146-91f6-e82e1b022f0d,Reading Is Fundamental Lgbtqia+ Big Book Study,19:30,"1hr ",E8 4EP,51.540161,-0.074624,All Saints Centre,Haggerston Rd,oils.detect.tester,Monday,False,False,False,False,,,,East London,London (North),England,Alcoholics Anonymous
79590004-0542-56e4-a084-4a70ef44add1,Romford No Half Measures,20:00,1hr 30mins,RM7 0PH,51.564977,0.184353,YMCA,29 Rush Green Rd,brands.stay.avoid,Friday,False,True,False,True,Open,,,East London,London (North),England,Alcoholics Anonymous
e7ab5e89-01e2-5341-91b6-d6dd820240cb,Romford Serenity,11:00,1hr 30mins,RM7 0PH,51.564977,0.184353,YMCA,29 Rush Green Rd,brands.stay.avoid,Saturday,False,True,False,True,Open,,,East London,London (North),England,Alcoholics Anonymous
59f5ec47-0695-59c2-9944-eb45ceb3c206,Vic Park Women's,18:15,"1hr ",E9 7DL,51.540904,-0.045578,Prideaux House Community Centre,10 Church Cres,submit.plays.fancy,Wednesday,False,True,False,False,,,Doors open 5.45pm.,East London,London (North),England,Alcoholics Anonymous
c0aa3a25-dfcf-5c1a-b68b-23e2cc40d836,Walthamstow,20:00,1hr 30mins,E17 9HU,51.582786,-0.007178,Our Lady &Amp; St George's Church Hall,132 Shernall St,rides.down.drove,Saturday,False,True,False,True,Open,,,East London,London (North),England,Alcoholics Anonymous
fafa754c-ee73-5ecb-af05-fd591723f93f,Walthamstow Big Book,12:00,"1hr ",E17 9HU,51.582786,-0.007178,Our Lady &Amp; St George's Church Hall,132 Shernall St,rides.down.drove,Thursday,False,True,False,True,Open,,,East London,London (North),England,Alcoholics Anonymous
97882f91-4f14-5b79-872d-fb913ad295a7,Woodford St Andrew's,19:30,1hr 30mins,IG8 9QP,51.611083,0.019165,St Andrew's Church,"56 Chingford Ln, Woodford",dozen.sudden.fully,Friday,False,True,False,False,,,,East London,London (North),England,Alcoholics Anonymous
324ecd10-0092-5bf7-bc1c-51f23e1d5f37,Woodford Women In Recovery,13:00,1hr 15mins,IG8 0RB,51.616091,0.024963,The Beckett Centre,"St Thomas Of Canterbury, High Rd",hops.light.lied,Friday,False,False,True,False,,,,East London,London (North),England,Alcoholics Anonymous
cb4e8367-2d28-5631-ae6a-c8cac9e72ec7,Lewes,20:00,1hr 30mins,BN7 2LE,50.872727,0.014363,Quaker Meeting House,Friars Walk,stressed.sliders.limelight,Friday,False,True,False,False,,,,East Sussex,South East,England,Alcoholics Anonymous
fec7e3d7-1dee-562b-93e8-9c3ff078b861,Lewes Early Birds,09:30,1hr 30mins,BN7 2FG,50.872738,0.017391,Linklater Pavilion,Railway Lane,kingpin.eaten.quail,Monday,False,True,False,True,Open,,Also held on zoom - https://zoom.us/j/97777840202?pwd=dkVVek9razMvMTNLSkt6TnQxK1ROQT09 Meeting ID: 977 7784 0202 Passcode: 937242,East Sussex,South East,England,Alcoholics Anonymous
bf5fbca6-8dba-50ee-883d-cf6271f99c3d,Newhaven Steps &Amp; Traditions,09:30,1hr 30mins,BN9 9HN,50.790932,0.04477,St Michael's Church Hall,36 Second Ave,inhabited.steroids.calm,Friday,False,True,False,True,Open,,,East Sussex,South East,England,Alcoholics Anonymous
b37e2268-2f9f-572f-8684-0df36b79b8de,Ringmer Step &Amp; Tradition,12:15,1hr 30mins,BN8 5QH,50.892948,0.05569,Ringmer Village Hall,Lewes Rd,hurry.commander.grinning,Friday,False,True,False,False,,,,East Sussex,South East,England,Alcoholics Anonymous
