Guid,Title,Time,Duration,Postcode,Latitude,Longitude,Venue,Address,What3Words,Day,Hearing,Wheelchair,Chit,Open,OpenFormat,Format,Note,Region,Area,Country,Type
253149fc-d46a-5c1e-85d3-8ae0f8917d08,Aylesbury Bob's Place,18:30,"1hr ",HP19 7HT,51.817159,-0.840246,Fairford Leys Church,Hampden Sq,,Friday,False,True,True,True,Open,,,,,England,Alcoholics Anonymous
d882cdb5-3bfc-5000-b05d-af6b0f84edcc,Barnard Castle,10:30,1hr 15mins,DL12 8PW,54.544348,-1.925393,Barnard Castle Methodist Church,Flatts Rd,,Saturday,False,True,False,False,,,,,,England,Alcoholics Anonymous
56043294-c17c-5327-abf0-da4d26b9148e,Bournemouth Big Book Step,19:00,"1hr ",BH1 1BZ,50.721115,-1.877715,Bournemouth Oratory,1 Albert Road (Entrance Via Richmond Hill),,Friday,False,True,False,False,,,,,,England,Alcoholics Anonymous
c2e52ba0-f336-5b32-b79f-bc6e499dd6ec,Brackley,19:30,1hr 30mins,NN13 7ZX,52.029525,-1.146363,Brackley Methodist Church,High St,,Thursday,False,True,False,True,Open,,,,,England,Alcoholics Anonymous
d8f01b51-1160-594b-bc28-3b2e02a52d7f,Burnham-On-Sea,19:30,1hr 30mins,TA18 1AS,50.8856366,-2.7736462,Methodist Church,35A College St,,Monday,False,True,False,False,,,,,,England,Alcoholics Anonymous
5a227138-ee69-595c-9e44-eb2f8e732853,Chepstow Living Sober,10:00,"1hr ",NP16 7AG,51.639045,-2.659409,Sedbury Space Community Hub,"11 King Alfred's Rd, Sedbury",,Saturday,False,True,False,True,Open,,,,,England,Alcoholics Anonymous
80bd8607-e899-581b-a326-f7f3bf7f9f80,Chester There Is A Solution,20:00,1hr 30mins,CH2 1HD,53.213783,-2.884301,Upton By Chester Pavilion,"Wealstone Ln, Upton",,Tuesday,False,True,True,True,Open,,"What 3 words address https://what3words.com/dizzy.minus.circle. Lots or available onsite free parking, 10 minutes walk from Bache Train Station. First meeting of the month is a ""Step"" meeting (of which one of the 12 steps of the program is the topic of the meeting) and is also an ""Open"" meeting which is also inclusive to non AA members, Friends, Family, Al-anon etc",,,England,Alcoholics Anonymous
e41af891-8c91-591d-ad03-dda054bbfd48,Chipping Camden Lunchtime,13:00,"1hr ",GL55 6DA,52.049331,-1.780712,Baden Powell Centre,"Recreation Ground, George Ln",,Wednesday,False,False,False,True,Open,,,,,England,Alcoholics Anonymous
8f4a9a8d-3472-5078-980a-fce7136af3ba,Harrow Big Book,12:30,"1hr ",HA3 5EE,51.601392,-0.338745,Salvatorian Provincial Office,191 High St,,Wednesday,False,False,False,False,,,,,,England,Alcoholics Anonymous
d4dfd85e-f589-5c0b-b066-6be511d40e20,Kencot Womens Step & Tradition,19:30,"1hr ",GL7 3QT,51.737657,-1.633959,Kencot Village Hall,Kencot,,Tuesday,False,True,False,False,,,,,,England,Alcoholics Anonymous
aee042dd-edc8-5969-872a-1f127d1d73bc,Keynsham New Freedom New Happiness,18:30,"1hr ",BS31 2BL,51.416833,-2.497313,Keynsham Parish Church,1 The Park,,Friday,False,True,False,False,,,,,,England,Alcoholics Anonymous
474700f6-656d-5cc8-8c64-592d8393dfba,Leatherhead,20:00,1hr 15mins,KT22 7EZ,51.299803,-0.324259,Our Lady & St Peters Rc Church Hall,Garlands Rd,,Tuesday,False,True,False,True,Open,,,,,England,Alcoholics Anonymous
a918a539-d830-552c-b017-e441c7b44a09,Mayfair Hybrid,20:00,1hr 30mins,W1K 2PA,51.509058,-0.151222,Grosvenor Chapel,24 South Audley St (Right-Hand Side Entrance),,Friday,False,False,False,True,Open,,https://us02web.zoom.us/j/85769418347?pwd=VVJQQWhkRTA3RDBjZFhJKzRBdFBjQT09  Zoom Meeting ID: 857 6941 8347 Passcode: 297547,,,England,Alcoholics Anonymous
28e649b9-3d66-5d05-a3bb-a96b3e1848e4,Newton Leys Life Starts Here,20:00,"1hr ",MK3 5SP,51.9782765,-0.7339245,Newton Leys Pavilion,"Furzey Way, Newton Leys",,Tuesday,False,True,False,False,,,,,,England,Alcoholics Anonymous
cd9380e8-5454-5e80-a2c8-7149fdb46f47,Polesworth Big Book (Every Other Week),20:00,1hr 30mins,B78 1DU,52.620138,-1.612629,Polesworth Abbey,High St,,Thursday,False,False,False,True,Open,,Meeting held on every other Thursday ONLY.  Starting 30th January 2025 and thereafter every other week.,,,England,Alcoholics Anonymous
fe6d7723-1890-5123-91bc-4baadd734ff4,Tottenham Indigo Polish Speaking,19:30,1hr 15mins,N17 9TA,51.596073,-0.068348,Friends Meeting House,594 High Rd,,Friday,False,False,True,True,Open,,,,,England,Alcoholics Anonymous
5acbaa55-da95-530c-9ba1-09539ed3e29b,Whitley Bay Bill W,13:00,"1hr ",NE26 2LY,55.041465,-1.440614,The Big Local,158 Whitley Rd,,Saturday,False,False,False,False,,,,,,England,Alcoholics Anonymous
58b04190-6650-59d2-87dd-87b377c175da,Birmingham Longridge,19:00,1hr 30mins,B45 9TY,52.395285,-1.993769,Longbridge Methodist Church,1648/54 Bristol Rd Sth,,Sunday,False,True,False,True,Open,,,Birmingham,Midlands,England,Alcoholics Anonymous
60f95241-6ccf-5967-81c5-0c1ef459e0ed,Perry Barr Women's,18:30,1hr 30mins,B20 2QQ,52.516178,-1.905109,St Teresa's Rc Church,"The Presbytery, Wellington Rd,, Perry Barr",,Saturday,False,False,False,True,Open,,,Birmingham,Midlands,England,Alcoholics Anonymous
5eb1019d-2528-5cef-a87b-e4ee8a42c359,Bournemouth Bh1 Akron House,15:00,1hr 15mins,BH1 4HP,50.729771,-1.843971,Bh1 Project,107 Palmerston Rd,,Friday,False,True,False,False,,,,Bournemouth District,South West,England,Alcoholics Anonymous
a2be377b-f926-57d0-8ff8-37171bf10a45,Bournemouth Big Book Study,12:30,1hr 15mins,BH1 4HS,50.728251,-1.8421,Boscombe Baptist Church,26 Palmerstone Rd,,Friday,False,True,False,False,,,,Bournemouth District,South West,England,Alcoholics Anonymous
d1ecafc0-906f-5284-b86c-ca4b7268fe75,Bournemouth Living Sober On Monday,12:30,1hr 15mins,BH1 4HS,50.728251,-1.8421,Boscombe Baptist Church,26 Palmerstone Rd,,Monday,False,True,False,True,Open,,Regrettably No Dogs.,Bournemouth District,South West,England,Alcoholics Anonymous
d39d2040-ca2a-5869-ae2f-f90a50898f1b,Bournemouth Przystan Polish,19:00,1hr 30mins,BH1 3RD,50.7244101,-1.8516201,United Reform Church,65 St Swithun's Rd,,Wednesday,False,False,False,False,,,,Bournemouth District,South West,England,Alcoholics Anonymous
30b89763-0340-5fe6-9189-030e95840727,Aa And Our Mental Health,18:00,"1hr ",BS5 0RE,51.458896,-2.577928,St Nicholas Of Tolentino Church,Lawfords Gate,,Wednesday,False,True,False,False,,,,Bristol and District,South Midlands,England,Alcoholics Anonymous
866334a4-a9d4-5f5e-becb-1e17155da4bb,Just For Today,12:30,"1hr ",BS8 2SY,51.466481,-2.612216,The Scout Hut,"Hurle Rd Off Whiteladies' Rd, Clifton",,Friday,False,False,False,True,Open,,,Bristol and District,South Midlands,England,Alcoholics Anonymous
574a833a-63db-5f89-a3ef-ef855d3fbe09,Lyde Green Recovery,19:00,"1hr ",BS16 7GW,51.498281,-2.468495,Lyde Green Community Centre,Thistle Close,,Saturday,False,True,False,True,Open,,,Bristol and District,South Midlands,England,Alcoholics Anonymous
1030b025-c996-5a06-84fd-f90373ca7b03,Altrincham Sylvan Grove Morning,09:00,1hr 15mins,WA14 4NX,53.38868,-2.352024,Unitarian Chapel,"Small School Room, Sylvan Grove",,Saturday,False,False,False,False,,,What 3 Words Address: https://what3words.com/valley.pass.coherent,Cheshire East,North West,England,Alcoholics Anonymous
43ddeddc-e11f-52ef-b83a-937f3bd70dd3,Bisham Women's,19:30,1hr 15mins,SL7 1RW,51.560808,-0.777695,All Saints Church,"Church Lane, Bisham",,Wednesday,False,True,False,True,Open,,No dogs please.,Chiltern and Thames,South Midlands,England,Alcoholics Anonymous
02150d8f-9bff-5e44-81af-7cb97d7d3d1a,Old Street Recovery Group - Newcomer Focused Speaker,18:15,1hr 15mins,EC1V 8BG,51.527828,-0.091969,Betty Brunker Hall,152 Lever St (Community Hall Behind Small Park),,Friday,False,True,False,True,Open,,Doors open at 17.45.,City Of London,London (North),England,Alcoholics Anonymous
dfde0056-7fa4-5d60-b510-74424f51df6c,Penzance Just For Today,18:00,"1hr ",TR18 4BH,50.116857,-5.535917,Salvation Army Community Hall,Queen St,,Sunday,False,True,False,True,Open,,,Cornwall,South West,England,Alcoholics Anonymous
4f45e76d-2c71-54ad-9f1b-ed7309df2a7d,Belper First Things First,19:30,1hr 30mins,DE56 1AR,53.022084,-1.484332,The Cottage Project Methodist Church,Off Chapel St.,,Thursday,False,False,False,False,,,,Derbyshire,Midlands,England,Alcoholics Anonymous
f4fa0a00-d489-54fd-99c3-73554b1b76f0,Derby Step,11:00,"1hr ",DE24 9BH,52.889748,-1.453311,St Martins Methodist Church,"Flint St, Allenton",,Saturday,False,True,False,False,,,,Derbyshire,Midlands,England,Alcoholics Anonymous
4af4844c-bc45-5742-bef4-6d38012e12a9,Burnley Traditions Workshop Monthly Mtg,14:15,"1hr ",BB11 1DU,53.788861,-2.244595,Central Methodist Church,"Hargreave St, (Opp Blockbusters)",,Friday,False,True,False,False,,,This meeting is held on the 1st Friday of each month only.,East Lancs,North West,England,Alcoholics Anonymous
baa3e5cd-fffb-513e-b779-3be25622d117,Nelson Back To Basics,19:30,1hr 30mins,BB9 7EL,53.836095,-2.217442,Salvation Army. Stanley St,Nelson,,Friday,False,False,False,True,Open,,,East Lancs,North West,England,Alcoholics Anonymous
59c943d6-b718-5e0c-ab65-134c4ab0c10f,Rawtenstall Step,19:00,1hr 30mins,BB4 7NE,53.701041,-2.285739,Longholme Methodist Church,Bacup Rd,,Sunday,False,False,False,False,,,,East Lancs,North West,England,Alcoholics Anonymous
45e7779c-278d-560a-bafa-5c4f9e90e162,Chingford,20:00,1hr 30mins,E4 6AL,51.633025,0.00975,Station Buffet Room,"Chingford Community Hub, Station Approach",,Thursday,False,True,False,True,Open,,"Meeting takes place at the Chingford Community Hub, immediately outside of Chingford Station, on the right as you exit the station.",East London,London (North),England,Alcoholics Anonymous
eeb945a8-68e6-5b79-b029-f2e5bbd70882,Chelmsford A New Beginning,19:30,1hr 30mins,CM1 2XB,51.738159,0.463394,Trinity Methodist Church,Rainsford Rd,,Friday,False,True,False,True,Open,,Candlelight meeting,Essex,Eastern,England,Alcoholics Anonymous
c5657d49-9273-5918-975d-256c52929068,Peterborough Krok Po Kroku Polish Speaking,19:00,1hr 30mins,PE1 1DY,52.569314,-0.242184,Aspire House,"1St Floor, 102-104 Bridge St, (Aspire House Is Opp Peterborough Magistrates Ct)",,Friday,False,False,True,True,Open,,,Fenland,Eastern,England,Alcoholics Anonymous
358498cd-3481-51f3-a833-1db69eb4a3f4,Holme-On-Spalding-Moor,19:00,"1hr ",YO43 4AA,53.836445,-0.767565,,"4 Village Courtyard, High St",,Saturday,False,True,False,True,Open,,,Hull and East Riding,North East,England,Alcoholics Anonymous
b2cd27fe-c682-588c-b5ac-dd927952fe4f,Hemel Women’S Life In Recovery,18:30,"1hr ",HP2 7AZ,51.768992,-0.44805,Dens - The Elms,Redbourne Rd,,Tuesday,False,False,False,True,Open,,,Lea Valley,Eastern,England,Alcoholics Anonymous
b61f5441-e9f7-596d-8a5d-dd428de0f146,Charlie's Angels Big Book,12:00,1hr 30mins,L12 7JY,53.430915,-2.913773,West Derby Methodist Church,"Crosby Green, West Derby Village",,Thursday,False,False,False,True,Open,,,Liverpool City,North West,England,Alcoholics Anonymous
23da8641-09a2-5d35-8111-f7b6dd2cbb8c,Delamere,19:15,"1hr ",CW8 2EH,53.237276,-2.60568,Delamere Health Ltd,"7 Forrest Rd, Cuddington",,Wednesday,False,True,False,False,,,,Liverpool City,North West,England,Alcoholics Anonymous
ed10369c-c5ed-5be8-b42c-fa536b74afd5,Liverpool Chinatown,16:00,1hr 30mins,L1 5BD,53.40023,-2.979158,St Michael In The City,Upper Pitt St,,Sunday,False,True,False,True,Open,,,Liverpool City,North West,England,Alcoholics Anonymous
edea68c1-a5c9-5d3a-9c7e-a3960e0a99bc,Misja Polish Speaking,18:30,1hr 30mins,L13 7EB,53.421116,-2.926564,Polskie Merseyside,"Amber House, Green Ln, Old Swan",,Tuesday,False,False,True,True,Open,,,Liverpool City,North West,England,Alcoholics Anonymous
20adc4e9-f87c-5f3b-a23d-88c4b2d08520,Sutton Inspire Newcomers,13:00,1hr 30mins,SM2 5JG,51.3415952,-0.2044415,Inspire,"Orion House, 19 Cedar Rd",,Wednesday,False,True,False,False,,,,London Croydon Epsom and Sutton,London (South),England,Alcoholics Anonymous
5e928792-52dc-5a1a-a6cd-d3eb96174957,Kensington Vision For You Step & Tradition Beginners,19:00,1hr 15mins,W8 6BL,51.498738,-0.1948,Kensington United Reformed Church,Allen St,,Sunday,False,True,False,True,Open,,,London Kensington and Fulham,London (North),England,Alcoholics Anonymous
b20748bc-694e-5b57-97f3-8f8f6c49ceb9,Holloway Rd Newcomers,19:00,"1hr ",N7 8LT,51.548178,-0.106926,St Mary Magdalene Church,Holloway Rd,,Tuesday,False,True,True,True,Open,,Chit system available.,London North,London (North),England,Alcoholics Anonymous
48e0d746-3400-5b6b-8801-0c480e3f5532,We Stopped In Time: Young In Recovery,19:30,"1hr ",N1 2TX,51.538405,-0.10201,Garden Rm,"St Mary's Church Community Centre, St Mary's Church Gardens, Upper St, (The Garden Rm Is Not In The Main Church, It Is Across The Garden, Behind Dansk Flowers)",,Monday,False,True,False,True,Open,,,London North East,London (North),England,Alcoholics Anonymous
b565b5ce-65f9-509b-8fb2-6d3ba803a5d3,Hampstead Big Book Study,12:00,"1hr ",NW6 6UU,51.5437594,-0.1970833,Hampstead Community Centre,78 High St (Upstairs),,Tuesday,False,False,False,True,Open,,,London North West,London (North),England,Alcoholics Anonymous
a8e0e289-6387-5f30-af43-03872a841cd8,Camberwell Sunday Lunch - Food For Thought,13:00,1hr 30mins,SE5 0HF,51.475561,-0.0908654,Cambridge House,"Corner Of Walworth Rd, 1 Addington Sq, Temp Closed 20/3/20",,Sunday,False,True,True,True,Open,,Chit system available.,London South,London (South),England,Alcoholics Anonymous
7a3f00d4-61ab-5d78-93d1-fe8a543e58f4,Lee Bright Spot Of Our Lives,10:00,"1hr ",SE12 8HQ,51.455259,0.018572,St Peter's Church,58 Eltham Rd,,Thursday,False,True,True,True,Open,,,London South East (East),London (South),England,Alcoholics Anonymous
08da1ec6-6f79-56e2-8381-94970acbde6d,Carry This Message (Bb) One Page At A Time,19:00,"1hr ",SW18 3NZ,51.442082,-0.186434,Earlsfield Baptist Church,271 Magdalen Rd,,Tuesday,False,False,False,True,Open,,,London South West,London (South),England,Alcoholics Anonymous
533d2582-67de-57f3-b093-d442bcb12898,Friday Night At The Den,19:00,"1hr ",W10 6NT,51.518925,-0.218246,St Helens Church Hall,Entrance On St. Quintin Ave,,Friday,False,False,False,True,Open,,What three Words	///belt.with.sorters,London Westway,London (North),England,Alcoholics Anonymous
a81d094a-91d8-5265-9267-1c44a692f883,Atherton Recovery,19:00,1hr 30mins,M46 0EW,53.524551,-2.493762,Atherton Independent Methodist Church,"91 Mealhouse Ln, Atherton",,Saturday,False,True,False,True,Open,,,Manchester,North West,England,Alcoholics Anonymous
d94d0192-daaf-5903-8ee6-6edef932005e,North Holmwood Women's As Bill Sees It,20:00,"1hr ",RH5 4JW,51.211096,-0.329056,St John's Church,"Inholms Lane, North Holmwood",,Thursday,False,True,False,False,,,,Mid Surrey,South East,England,Alcoholics Anonymous
8d203827-1e53-5653-aa0c-09e048bd15ea,Walton-On-Thames Step,20:00,1hr 25mins,KT12 2SR,51.388998,-0.416552,Walton Methodist Church (Rear Hall),Terrace Rd,,Monday,False,True,False,False,,,,Mid Surrey,South East,England,Alcoholics Anonymous
d7ec51e2-6096-58e1-bde5-abbd86d204ae,Westcott Meditation,18:30,"1hr ",RH4 3PW,51.227595,-0.364494,St John's Chapel,"Chapel Ln, Westcott",,Friday,False,True,False,False,,,,Mid Surrey,South East,England,Alcoholics Anonymous
1ce3a91e-9f4b-5a4f-b957-6dc5dcc2e185,Milton Keynes Polish Speaking,20:00,1hr 15mins,MK9 1LR,52.033925,-0.77208,Old Bus Station,"401 Elder Gate, Station Sq",,Monday,False,False,False,True,Open,,,Milton Keynes,Eastern,England,Alcoholics Anonymous
ef5af2f2-98b4-5b0f-acfc-4bf81ae603b7,Bury St Edmunds,19:30,1hr 30mins,IP33 1EB,52.246487,0.713654,Trinity Methodist Church,Brentgovel St,,Thursday,False,True,True,False,,,,North East Anglian,Eastern,England,Alcoholics Anonymous
18199094-f5c1-55a6-92ff-2713bf0e89ee,Fakenham,19:00,1hr 30mins,NR21 9DY,52.831497,0.846275,Salvation Army Citadel,Oak St,,Wednesday,False,True,False,False,,,,North East Anglian,Eastern,England,Alcoholics Anonymous
bd543b21-542a-5477-a0d4-b7eb70131d63,Norwich Morning Awakenings,07:30,"1hr ",NR3 3AP,52.633471,1.292441,Norwich Central Baptist Church,"St Mary's Plain, Duke St",,Friday,False,False,False,False,,,,North East Anglian,Eastern,England,Alcoholics Anonymous
f0c12369-4e1c-5c68-8e33-5d5b53712b9b,Stotfold Sober Saturday,18:00,"1hr ",SG5 4NE,52.015158,-0.22464,St Mary's Church Hall,"Church Rd, Stotfold",,Saturday,False,False,False,True,Open,,,North Herts and North Beds,Eastern,England,Alcoholics Anonymous
d379ac6a-67a4-5798-8342-c824fd4719ab,Hornchurch Discussion,19:30,"1hr ",RM13 7XT,51.534812,0.194746,St Johns & St Matthews Church,South End Rd,,Tuesday,False,True,False,False,,,,North Thames,Eastern,England,Alcoholics Anonymous
16a16406-0f98-503b-a1cf-e34dfcb721c9,Carnforth,20:00,1hr 15mins,LA5 9LR,54.125877,-2.762576,Carnforth Free Methodist Church,101 Kellet Rd,,Tuesday,False,True,False,True,Open,,,North West,North West,England,Alcoholics Anonymous
f4f9dc5f-8009-50db-be24-b118c7941650,Leeds Horsforth Road To Recovery,20:00,"1hr ",LS18 5LA,53.84067,-1.640366,St Margaret's Parish Centre,"St Margaret's Church, Church, Lane, Horsforth",,Wednesday,False,True,False,True,Open,,"Please arrive at or after 19.45.  We are a Covid friendly meeting eg windows open, masks required & no drink facilities.",North Yorkshire,North East,England,Alcoholics Anonymous
2525c257-18bb-5737-874a-550c90f5cc9b,Pickering Castle Newcomers,19:30,"1hr ",YO18 7AX,54.248475,-0.776419,Friends Meeting House,19 Castlegate,,Monday,True,True,False,True,Open,,,North Yorkshire,North East,England,Alcoholics Anonymous
455cf955-be56-5bf9-bcd7-717bdaf49b81,"Pocklington Together, Strength & Hope",10:00,"1hr ",YO42 2ET,53.932327,-0.777445,The Methodist Church,Chapmangate,,Saturday,False,True,False,True,Open,,,North Yorkshire,North East,England,Alcoholics Anonymous
05f475f6-4f43-5622-b18f-65104f2a55f1,Eastleigh A Fresh Start,20:00,1hr 15mins,SO50 9DF,50.969284,-1.354716,Holy Cross Rc Church,53 Leigh Rd,,Tuesday,False,True,False,True,Open,,,Northdown,South East,England,Alcoholics Anonymous
67e9ca1d-f174-56b8-bf8e-d572f0b56583,Mansfield Steps To Life The Big Book Way,19:15,1hr 45mins,NG18 1RB,53.147251,-1.205274,Friends Meeting House,124 Rosemary St,,Saturday,False,True,False,False,,,,Nottinghamshire or Leicestershire,Midlands,England,Alcoholics Anonymous
bd08c5ba-db13-595b-82a7-c4ab0058a898,Nottingham Living Sobar,17:30,"1hr ",NG1 6DQ,52.952374,-1.15202,Sobar Café (Upstairs),22 Friar Lane,,Wednesday,False,True,False,True,Open,,,Nottinghamshire or Leicestershire,Midlands,England,Alcoholics Anonymous
e5cc5b22-0c21-54fe-846d-1cdd4355cd3e,Kinson There Is A Solution,19:30,1hr 15mins,BH10 7LN,50.771195,-1.903857,St Andrews Church,Millhams Rd,,Tuesday,False,True,True,False,,,,Poole and District,South West,England,Alcoholics Anonymous
67d00095-4ef5-5dc3-a2ee-116564698845,Stafford,10:30,1hr 30mins,ST16 3DU,52.8176047,-2.1273888,The Northfields Centre,Stafford,,Sunday,False,False,False,False,,,If using a Sat nav use postcode ST16 3BZ.,Potteries and District,Midlands,England,Alcoholics Anonymous
e28207e6-d596-5ab4-8c26-ef6c373c8a75,Doncaster 11Th Step,11:30,"1hr ",DN1 2EZ,53.523835,-1.127095,Aspire,41 Thorne Road,,Sunday,False,True,False,False,,,,South Yorkshire and North East Derbyshire,North East,England,Alcoholics Anonymous
878fac1e-9faf-5ef6-a521-fca46dee5fd0,Rotherham Wickersley Big Book,19:30,1hr 30mins,S66 1JJ,53.421635,-1.278147,Wickersley Library,"286 Bawtry Rd, Wickersley",,Wednesday,False,True,False,True,Open,,,South Yorkshire and North East Derbyshire,North East,England,Alcoholics Anonymous
31149264-bbbc-55d1-8d3e-95edab96c736,Sheffield Women Living Sober,19:30,1hr 30mins,S7 2DL,53.352039,-1.489781,St Oswald's & St Peter's Church,Bannerdale Rd,,Monday,False,True,False,False,,,,South Yorkshire and North East Derbyshire,North East,England,Alcoholics Anonymous
b557d455-3e0c-56ca-a269-8f5d1df6deb0,Emsworth Big Book Discussion,10:00,"1hr ",PO10 7BY,50.848829,-0.936873,Emsworth Baptist Church,North St,,Saturday,False,False,False,True,Open,,,Southdown,South East,England,Alcoholics Anonymous
a798cffb-e6d8-5fb9-9a61-52fc433c5da5,Gosport Discussion,19:30,1hr 30mins,PO12 1ES,50.794363,-1.118816,The Henry Cook Centre,South St,,Tuesday,False,True,False,True,Open,,Doors open 19.00,Southdown,South East,England,Alcoholics Anonymous
9ea1cbe2-4d31-5330-ad26-f58dd679b7f2,Haslemere Evening,20:00,"1hr ",GU27 1LD,51.087511,-0.731273,Ground Floor,"Haslemere Methodist Church, Lion Green",,Wednesday,False,True,False,True,Open,,,Southdown,South East,England,Alcoholics Anonymous
ca1bbf8b-15ed-5cb3-9f33-2b80743967e0,Shanklin Big Book Study,18:00,1hr 30mins,PO37 6HU,50.6266238,-1.1910982,Ymca Winchester House,Sandown Rd,,Saturday,False,False,True,False,,,,Southdown,South East,England,Alcoholics Anonymous
65e2e6d2-558d-53f2-81e9-e3b2896511ee,Rochester Lunchtime,12:00,"1hr ",ME1 1LS,51.389826,0.504119,Friends Meeting House,3 Northgate,,Wednesday,True,True,True,True,Open,,,West Kent,South East,England,Alcoholics Anonymous
2426350a-7364-55c9-8302-fa5b5c9f1c94,Featherstone Simply Recovery,19:00,1hr 15mins,WF7 5EZ,53.676007,-1.356477,St Thomas Church Hall,Victoria St,,Friday,False,True,False,True,Open,,,West Riding,North East,England,Alcoholics Anonymous
99de3412-b828-52e9-b632-a161e6653902,Kippax Step Multi-Mtg,19:30,"1hr ",LS25 7AQ,53.767494,-1.367459,Kippax Methodist Church,23 Hopewell Terrace,,Wednesday,False,True,True,True,Open,,,West Riding,North East,England,Alcoholics Anonymous
70d5f390-1612-51a9-a7b9-7f3efc450d15,Kippax Step Multi-Mtg,19:00,"1hr ",LS25 7AQ,53.767494,-1.367459,Kippax Methodist Church,23 Hopewell Terrace,,Sunday,False,True,True,True,Open,,,West Riding,North East,England,Alcoholics Anonymous
0772ed66-b8ef-5ac4-ad02-84ba9394db9f,Crawley,20:00,1hr 30mins,RH11 0HD,51.122463,-0.208792,Ifield Community Centre,Ifield Drive,,Tuesday,False,True,False,True,Open,,,West Sussex,South East,England,Alcoholics Anonymous
b96f8289-2ba2-5506-83aa-bfc4b7a0ef48,Brighouse,19:00,"1hr ",HD6 2BJ,53.707723,-1.784252,Waring Green Community Centre,"Marion St Entrance, Marion St",,Monday,True,True,False,True,Open,,,West Yorkshire,North East,England,Alcoholics Anonymous
92aabb04-f4b7-5e79-b752-97ee206cb2d4,Brighouse Speaker,20:00,"1hr ",HD6 2BJ,53.707723,-1.784252,Waring Green Community Centre,"Marion St Entrance, Marion St",,Friday,False,False,False,True,Open,,,West Yorkshire,North East,England,Alcoholics Anonymous
18a678d9-79cf-5d06-8c25-b642a5917e7a,Bath Just For Today Feelings,18:00,"1hr ",BA1 1JW,51.378725,-2.356708,Ground Floor,"Baptist Church, Manvers St",,Monday,False,False,False,False,,,,Wiltshire and Bath,South Midlands,England,Alcoholics Anonymous
f8df509a-8b4a-5c2a-ac96-317a2b8fd0e0,Frome Womens,17:15,"1hr ",BA11 1PL,51.230152,-2.321058,St John's Cottage,Church Steps,,Saturday,False,False,False,False,,,Small Big Book focused meeting for women. Sorry no dogs are permitted in the building. Meeting is up a flight of stairs.,Wiltshire and Bath,South Midlands,England,Alcoholics Anonymous
2671f5e3-192f-5a2c-bec5-3221f83d6640,South Wraxall,19:30,1hr 15mins,BA15 2SE,51.383294,-2.241516,St James' Church Village Hall,"62 Green Close, South Wraxall",,Monday,False,True,False,True,Open,,,Wiltshire and Bath,South Midlands,England,Alcoholics Anonymous
b47d19c3-8aab-56e8-b8e6-0d9418b7e93f,Birkenhead,19:30,1hr 15mins,CH41 4NF,53.390883,-3.030235,Birkenhead Community Fire & Ambulance Station,Exmouth St,,Tuesday,False,True,False,False,,,,Wirral,North West,England,Alcoholics Anonymous
88f0b282-92a8-5f41-b7d9-1c9508f690d3,Ballymoney,20:00,,BT53 6JZ,55.0675054,-6.5165834,,"75 Castle Street,Ballymoney,Antrim,BT53 6J4",,Tuesday,False,False,False,False,,,,Antrim,Northern Ireland,Northern Ireland,Alcoholics Anonymous
d10e031d-550f-523a-8030-4008ab733602,Belfast Derryvolgie,19:00,,BT9 6FP,54.578167,-5.943836,St. Brides Hall,"40 Derryvolgie Avenue,Malone Road,Belfast",,Thursday,False,False,False,False,,,"To request link/codes to online meeting, email U238@alcoholicsanonymous.ie",Antrim,Northern Ireland,Northern Ireland,Alcoholics Anonymous
b002c829-5c01-52e2-af42-a3ee4d2caac4,Newtownabbey Abbey,19:30,,BT37 0SL,54.676235,-5.89353,Whiteabbey Methodist Church Hall,"566-568 Shore Road,Newtownabbey,Co. Antrim",,Monday,False,False,False,False,,,"Zoom ID - 6254156080 
Password - 71pwiz",Antrim,Northern Ireland,Northern Ireland,Alcoholics Anonymous
972f35d1-4a86-511b-8062-6cca5b1fc63a,Omagh Cloughfin AA,20:30,,,54.6351234,-6.8811491,Cloughfin Old School,"138 Cloughfin Road,,Sixmile Cross,Omagh,Tyrone,BT7 99EQ",,Friday,False,False,False,False,,,,Tyrone,Northern Ireland,Northern Ireland,Alcoholics Anonymous
a39d490c-3043-58a9-951e-e17d439a5c17,Athy Live & Let Live 2,20:30,,,53.007048,-7.0061313,Cuan Mhuire Treatment Centre,"Vicarstown Road,Athy,Co. Kildare",,Tuesday,False,False,False,False,,,,,,Republic of Ireland,Alcoholics Anonymous
03dac39c-2042-583a-a105-3c5769269452,Athy Live & Let Live 2,20:30,,,53.007048,-7.0061313,Cuan Mhuire Treatment Centre,"Vicarstown Road,Athy,Co. Kildare",,Saturday,False,False,False,False,,,,,,Republic of Ireland,Alcoholics Anonymous
f7e3420b-15a9-5b65-bd26-0a92ecf64273,Castleblaney,20:00,,A75 TY89,54.1168751,-6.7327571,Parish Centre,"St.Mary's Church,Upper York St,Onomy,Castleblaney,Co. Monaghan",,Saturday,False,False,False,False,,,This meeting lasts 1 hr 30 minutes,,,Republic of Ireland,Alcoholics Anonymous
ba62d0e0-033f-5bfe-b9f7-de97f0460bc5,Castleblaney Doohamlet Group,20:00,,E75 EF99,54.1285353,-6.8280717,Doohamlet Community Centre,"Doohamlet,Castleblaney,Monaghan",,Sunday,False,False,False,False,,,,,,Republic of Ireland,Alcoholics Anonymous
60b4027f-2028-5bd4-adee-5835a85db2f1,Drogheda BW Group,18:00,,,53.7167829,-6.3501583,St. Peter's Church Of Ireland,"Community Hall,St. Peter's Street,Drogheda,Co. Louth",,Friday,False,False,False,False,,,,,,Republic of Ireland,Alcoholics Anonymous
fa1b865e-7760-582d-9a4c-854a20b99ddd,Glenamoy No. 2,21:00,,F26 P8K8,54.2410693,-9.688129,Health Centre,"Glenamoy,Ballina,Co. Mayo",,Thursday,False,False,False,True,,,,,,Republic of Ireland,Alcoholics Anonymous
300209e5-070a-5959-b4f7-ccc2cc541ad0,Kilkee,12:00,,,52.6780447,-9.6446003,Community Centre,"Circular Road,Kilkee,Co. Clare",,Sunday,False,False,False,False,,,100M from RC Church,,,Republic of Ireland,Alcoholics Anonymous
f9102f8b-a9a7-587e-8ad0-4f560d189e82,Kilkenny Let Go Let God,17:30,,,52.6617881,-7.2607584,Villa Maria,"Talbot's Inch,Freshford Road,Kilkenny",,Monday,False,False,False,False,,Big Book,,,,Republic of Ireland,Alcoholics Anonymous
c8c5b0ad-693c-580d-a3ab-6a48893b38ba,New Ross Hook Group,20:30,,Y34 DP26,52.2459931,-6.9181102,South West Wexford,"Family Resource Centre,Ramsgrange,New Ross,Co. Wexford",,Saturday,False,False,False,False,,,,,,Republic of Ireland,Alcoholics Anonymous
41fb1e32-533a-519a-a489-819909bc9b5e,Cork City Solas,20:00,,T12 W728,51.8883244,-8.5080773,Church Of The Descent Of The Holy Spirit,"Dennehys Cross,The Crypt,Cork City",,Monday,False,False,False,False,,,"Zoom Meeting: 
To request link to online meeting, email M64@alcoholicsanonymous.ie",Cork,Republic of Ireland,Republic of Ireland,Alcoholics Anonymous
2a206d63-35d9-5caa-8d62-e16dc48c1994,Cork City Solas,20:00,,T12 W728,51.8883244,-8.5080773,Church Of The Descent Of The Holy Spirit,"Dennehys Cross,The Crypt,Cork City",,Wednesday,False,False,False,False,,,"Zoom Meeting: 
To request link to online meeting, email M64@alcoholicsanonymous.ie",Cork,Republic of Ireland,Republic of Ireland,Alcoholics Anonymous
78ada93a-570f-552b-8863-c9f55ac14e6e,Cork City Solas,11:00,,T12 W728,51.8883244,-8.5080773,Church Of The Descent Of The Holy Spirit,"Dennehys Cross,The Crypt,Cork City",,Friday,False,False,False,False,,,"Zoom Meeting: 
To request link to online meeting, email M64@alcoholicsanonymous.ie",Cork,Republic of Ireland,Republic of Ireland,Alcoholics Anonymous
48113de1-744d-5495-8c91-a95ad2af31e1,Milford,20:30,,,55.1268975,-7.4544699,Health Centre,"Lower Main Street,Milford,Co. Donegal",,Thursday,False,False,False,True,,,Step meeting last Thursday of the month,Donegal,Republic of Ireland,Republic of Ireland,Alcoholics Anonymous
129d54de-4a21-545f-9d74-6a7cab53215e,Artane,13:00,,,53.3876108,-6.2148574,Oratory Of Resurrection,"Kilmore Road,Artane,Dublin 5",,Monday,False,False,False,False,,,,Dublin,Republic of Ireland,Republic of Ireland,Alcoholics Anonymous
94bdf95a-8f1a-58e6-b182-04a770fa3117,Artane,20:30,,,53.3876108,-6.2148574,Oratory Of Resurrection,"Kilmore Road,Artane,Dublin 5",,Tuesday,False,False,False,False,,Beginner,,Dublin,Republic of Ireland,Republic of Ireland,Alcoholics Anonymous
f5cfdef1-06b2-5c88-9844-6d9e343f6a51,Artane,20:30,,,53.3876108,-6.2148574,Oratory Of Resurrection,"Kilmore Road,Artane,Dublin 5",,Thursday,False,False,False,False,,Steps,,Dublin,Republic of Ireland,Republic of Ireland,Alcoholics Anonymous
6c6a0965-b6fb-5a55-ac21-e168ef91ec89,Ballyroan,20:30,,,53.2849053,-6.3053393,Church Annex,"Ballyroan,Dublin 14",,Thursday,False,False,False,False,,,Please note that the meeting is now in The ANNEX on the left hand side of the church.,Dublin,Republic of Ireland,Republic of Ireland,Alcoholics Anonymous
60b5ef99-5e0f-509f-af86-740890f10d18,Clonsilla,17:00,,D15 WTX8,53.3831711,-6.4100179,Lohunda  Lodge,"Clonsilla Village,Clonsilla,Dublin 15",,Saturday,False,False,False,False,,,To request a link to an online meeting please send an email to L30@alcoholicsanonymous.ie,Dublin,Republic of Ireland,Republic of Ireland,Alcoholics Anonymous
1d1ac9f8-7a4f-5c5a-a68b-66f8b3407012,Clontarf Group,20:30,,D03 DPK7,53.3645545,-6.2147193,St. Anthony's House,"St. Lawrence Road,Clontarf,Dublin 3,0",,Wednesday,False,False,False,False,,,Rear of St. Anthony's Church,Dublin,Republic of Ireland,Republic of Ireland,Alcoholics Anonymous
ec893326-ba20-5d3b-83b4-be54f6f6a968,Clontarf Group,20:30,,D03 DPK7,53.3645545,-6.2147193,St. Anthony's House,"St. Lawrence Road,Clontarf,Dublin 3,0",,Thursday,False,False,False,False,,Steps,Rear of St. Anthony's Church,Dublin,Republic of Ireland,Republic of Ireland,Alcoholics Anonymous
670d5f53-6835-56f1-89af-4b1e4ca7b862,Clontarf Group,20:30,,D03 DPK7,53.3645545,-6.2147193,St. Anthony's House,"St. Lawrence Road,Clontarf,Dublin 3,0",,Friday,False,False,False,False,,Beginner,Rear of St. Anthony's Church,Dublin,Republic of Ireland,Republic of Ireland,Alcoholics Anonymous
eaaab312-d246-5762-9492-31c5f4ca07b1,Clontarf Group,20:30,,D03 DPK7,53.3645545,-6.2147193,St. Anthony's House,"St. Lawrence Road,Clontarf,Dublin 3,0",,Saturday,False,False,False,False,,,Rear of St. Anthony's Church,Dublin,Republic of Ireland,Republic of Ireland,Alcoholics Anonymous
f908e575-ff59-5481-aaef-7902f859a4b4,Dublin City Haddington Road Meeting,20:30,,,53.3349356,-6.2416136,Parish Centre,"St. Mary's Church,Haddington Road,Dublin City,Dublin 4",,Wednesday,False,False,False,False,,Steps,,Dublin,Republic of Ireland,Republic of Ireland,Alcoholics Anonymous
eb9bb4c8-7afe-5b15-a298-b2d5821f1ba3,Rathmines Black Church,19:00,,,53.3202589,-6.2625317,Church Of The Holy Trinity,"Church Avenue,Rathmines,Dublin 6",,Saturday,False,False,False,False,,,,Dublin,Republic of Ireland,Republic of Ireland,Alcoholics Anonymous
d5517165-91a8-58a3-a188-3b360db32499,Barnaderg A Vision For You,19:30,,H54 EW71,53.4822794,-8.7257182,Barnaderg National School,"Barnaderg,Galway",,Wednesday,False,False,False,False,,Big Book,Meeting closed on Christmas Day 2024,Galway,Republic of Ireland,Republic of Ireland,Alcoholics Anonymous
83b7f89b-4fff-5aad-a3f7-e984da7c060d,Craughwell,20:00,,,53.268054,-8.9297008,St. Michael's Community Hall,"Main Street,Craughwell,Co. Galway",,Saturday,False,False,False,False,,,,Galway,Republic of Ireland,Republic of Ireland,Alcoholics Anonymous
9cc23e18-fbf9-5dd3-bf85-5bde8693bd8e,Galway City Saturday Daytime 1Pm,13:00,,,53.2804847,-9.0468843,Bohermore Community Centre,"Bohermore,Galway City",,Saturday,False,False,False,False,,,,Galway,Republic of Ireland,Republic of Ireland,Alcoholics Anonymous
7185e1e1-f6cf-5563-91e0-502bb1841526,Headford AA,20:30,,,53.4694617,-9.106134,Parish Hall Headford,"Headford,Co. Galway,H91 NSPG",,Monday,False,False,False,False,,,,Galway,Republic of Ireland,Republic of Ireland,Alcoholics Anonymous
112627e2-e68c-58d7-affe-8756694bbc85,Headford AA,20:30,,,53.4694617,-9.106134,Parish Hall Headford,"Headford,Co. Galway,H91 NSPG",,Saturday,False,False,False,False,,,,Galway,Republic of Ireland,Republic of Ireland,Alcoholics Anonymous
511423cd-33bb-5159-ae7c-ad8d9bec8dab,Laragh,20:30,,,53.00713,-6.30011,Brockagh Centre,"Laragh,Glendalough,Co. Wicklow",,Monday,False,False,False,False,,,,Wicklow,Republic of Ireland,Republic of Ireland,Alcoholics Anonymous
199087a3-956a-57aa-9dc6-29dc1cdcab0a,Cambuslang Monday 12 Steps & 12 Traditions Recovery,19:00,1hr 15mins,G72 7UP,55.810632,-4.1402102,Toil Pitch Pavillion,"21 Hamilton Rd, Cambuslang",,Monday,False,True,False,False,,,,,,Scotland,Alcoholics Anonymous
7a124899-681e-5f03-9b41-65ec2651e76c,Cumbernauld Recovery,19:30,1hr 45mins,G67 4LS,55.931341,-4.023909,Macauley Centre,"14 Rannoch Court, Condorrat",,Monday,False,True,False,False,,,,,,Scotland,Alcoholics Anonymous
fbd5da06-85a1-52b7-b64e-bec3ef58a81f,Dundee Beginners Plain Language,19:00,1hr 15mins,DD2 1HJ,56.457658,-2.9977,Logie & St John's Parish Church,Shaftesury Terrace,,Wednesday,False,True,True,False,,,,,,Scotland,Alcoholics Anonymous
34c5dd14-7253-517e-8788-6d2d1382c720,Greenock Monday Night,20:00,1hr 35mins,PA16 8NA,55.952802,-4.765032,St Marys Church Hall,Houston St,,Monday,False,True,False,False,,,,,,Scotland,Alcoholics Anonymous
7c24c5a2-04e2-59cc-9fa5-b1aeb886263a,Hairmyres Hospital,19:00,1hr 30mins,G75 8RG,55.759825,-4.221977,Hairmyres Hospital,"Ground Floor, Across From Education Centre, 218 Eaglesham Rd",,Saturday,False,True,False,False,,,,,,Scotland,Alcoholics Anonymous
7af88e90-d9a3-5e7b-8866-0b00bc91fde3,Dundee No3,12:30,1hr 30mins,DD1 1EN,56.464456,-2.97097,,81 Meadowside,,Tuesday,False,True,False,False,,,,Dundee and Area,East of Scotland,Scotland,Alcoholics Anonymous
c8e76885-50cf-5d60-8eb4-23e8611bf185,Edinburgh Courage To Change,07:30,"1hr ",EH8 7DB,55.954581,-3.149138,Willowbrae Church,1A Willowbrae Rd,,Friday,False,True,False,False,,,,Edinburgh and Midlothian,Scotland,Scotland,Alcoholics Anonymous
3fcf89b3-f69e-5660-ae29-81c28e9d5e08,A New Beginning,20:00,1hr 30mins,G31 4DJ,55.851691,-4.199691,St Michaels Chapel Hall,"1350 Gallowgate, Parkhead",,Tuesday,False,True,False,False,,,,Glasgow East,Glasgow,Scotland,Alcoholics Anonymous
cfd04225-58e0-5da0-904e-739a26e180b7,Clydebank As Bill Sees It,19:30,1hr 30mins,G81 1BL,55.90173,-4.405902,New Beginning Rms,45B Kilbowie Rd,,Monday,False,True,False,False,,,,Glasgow North West,Glasgow,Scotland,Alcoholics Anonymous
c9e73f42-1a04-552e-a71e-1ccc582073e1,Maryhill Courage To Change Big Book,19:00,1hr 30mins,G20 8TS,55.884913,-4.283044,Maryhill Community Centre,"35 Avenuepark St, Maryhill",,Wednesday,False,False,False,False,,,,Glasgow North West,Glasgow,Scotland,Alcoholics Anonymous
d9cd9567-df67-502e-a389-1cb4a6dda70f,Sober Women In Glasgow,18:00,"1hr ",G11 5LW,55.871231,-4.308518,Room 9,"Partick Burgh Hall, Burgh Hall St",,Thursday,False,True,False,False,,,,Glasgow North West,Glasgow,Scotland,Alcoholics Anonymous
847b3538-07e2-5dbc-8924-a561ee05d41c,Just For Today,19:30,1hr 30mins,G53 5DP,55.830359,-4.34086,Pollok Community Centre,"134 Langton Rd, Pollok",,Wednesday,False,True,False,False,,,,Glasgow South,Glasgow,Scotland,Alcoholics Anonymous
eb52ac56-3a57-5041-a4f2-55ad62e7edc9,Inverness Friars St,12:30,1hr 15mins,IV1 1RJ,57.480817,-4.230725,Church Of God,Friars St,,Friday,False,True,False,False,,,,Inverness and District,Highland and Islands,Scotland,Alcoholics Anonymous
b4330721-74d3-5a54-a71c-08ac17ff6144,Inverness Friars St,12:30,1hr 15mins,IV1 1RJ,57.480817,-4.230725,Church Of God,Friars St,,Tuesday,False,True,False,False,,,,Inverness and District,Highland and Islands,Scotland,Alcoholics Anonymous
12e4dc2f-aadc-513b-b396-299662ee676f,Inverness Just Stay,12:30,1hr 15mins,IV1 1RJ,57.480817,-4.230725,Church Of God,Friars St,,Wednesday,False,False,False,False,,,,Inverness and District,Highland and Islands,Scotland,Alcoholics Anonymous
08561406-7f39-53d9-82d6-00db698de205,Uddingston Joe & Charlie Audio Big Book Study,19:30,1hr 30mins,G71 7PE,55.8294618,-4.076798,The Castle Rooms,63 Old Mill Rd,,Monday,False,True,True,False,,,,Lanarkshire,Scotland,Scotland,Alcoholics Anonymous
68fcfc3c-fdd8-581c-acd3-9d441b08406e,Irine Bourtreehill,19:00,1hr 30mins,KA11 1PY,55.61908,-4.629435,Towerlands Community Centre,"Towerlands Farm Rd, Bourtreehill Sth",,Sunday,False,True,False,False,,,,North and East Ayrshire,South West Scotland,Scotland,Alcoholics Anonymous
c263d861-bf79-5c01-af20-0020a006e414,Holyhead,18:00,"1hr ",LL65 1TR,53.308294,-4.635053,St Mary's Church,Longford Rd,,Wednesday,False,False,True,False,,,,,,Wales,Alcoholics Anonymous
eb73adec-cbb9-5c9d-ab78-7dd2c79a61fe,Briton Ferry,13:00,"1hr ",SA11 2PL,51.633089,-3.823554,Neath & District Sea Cadets,"Regent St West, Briton Ferry",,Monday,False,True,False,False,,,,Swansea and District,Wales and Borders,Wales,Alcoholics Anonymous
6933c02d-ea86-5ee2-8cf7-a41a8908d024,Swansea,13:00,"1hr ",SA1 2AW,51.624641,-3.939086,Missionary Of Charities Sisters,The Strand,,Monday,False,True,False,False,,,,Swansea and District,Wales and Borders,Wales,Alcoholics Anonymous
99111759-e39b-5ffb-9e69-7c936d320e1e,Swansea Is Aa For You Monthly Meeting,10:00,"1hr ",SA1 2AW,51.624641,-3.939086,Missionary Of Charities Sisters,The Strand,,Saturday,False,True,False,False,,,,Swansea and District,Wales and Borders,Wales,Alcoholics Anonymous
968f896e-e6c7-5c01-9c7d-ea7e4fe6ecb8,Sharing The Solution,19:30,1hr 30mins,BN3,50.8402951,-0.1778205,Cornerstone Community Centre,"Church Rd Ln,Brighton And Hove,Hove",,Thursday,False,True,False,True,This meeting is open and anyone may attend.,"In-person,Newcomer,Open,Speaker,Wheelchair Access","Christmas & New Years Information:
26/12/2024: OPEN:
FESTIVE UNITY: 6.30pm - 9.00pm",,,England,Cocaine Anonymous
d93742ff-c9de-5067-b405-96b0ad85b784,Step 11 Serenity Seekers Meeting,09:30,1hr,BR3 4LS,51.408956,-0.040282,Venue 28,"28 Beckenham Rd,Beckenham",,Sunday,False,False,False,False,,In-person,,,,England,Cocaine Anonymous
d040f817-9cda-5a27-ab0e-7998107f42b9,Rescued From Shipwreck,20:00,1hr 15mins,BT1 2AG,54.600253,-5.925498,St. George's Church,"105 High Street,Belfast,Co. Antrim",,Saturday,False,False,False,False,,"In-person,Speaker","On site parking
The meeting will be closed for 1 night on Saturday 9th September.
The meeting will be on as normal from the following week on",Antrim,Northern Ireland,England,Cocaine Anonymous
741fcd4d-5bca-5631-9686-6d6abd712a49,Clean And Free Bromsgrove,19:30,1hr,B61 7JW,52.333972,-2.065218,St John's Church,"14 Kidderminster Rd,Bromsgrove",,Friday,False,False,False,False,,"In-person,Big Book,Discussion,Newcomer,Speaker,Step Meeting",,Birmingham,Midlands,England,Cocaine Anonymous
f5c4da93-3257-52a4-a9b5-428238ea352f,The Message,19:30,1hr 30mins,BH1 3RD,50.7244101,-1.8516201,United Reform Church,65 St Swithun's Rd,,Monday,False,False,False,False,This meeting is closed; only those who have a desire to stop using may attend.,"In-person,Closed",Doors open at 19:00 for fellowship,Bournemouth District,South West,England,Cocaine Anonymous
53b2072d-3eb7-56bf-9d75-3544147db751,A Vision Of Recovery (Women),19:00,1hr,M20 2ZD,53.422731,-2.255864,Christ Church,"Darley Ave,Manchester",,Friday,False,False,False,False,,"In-person,11th Step Meditation,Child-Friendly,Speaker,Women","The meeting is at the rear of the church
Women-only Child-friendly
Unity at 6.30-7 pm & a 10-minute comfort break in the meeting
Meetings schedule
1st Fri = Step 11 Meditation
2nd Fri = General shares
3rd Fri = Main share
4th Fri = General shares",Cheshire East,North West,England,Cocaine Anonymous
07f747dd-1460-5d7a-af1d-a58c55292159,Cocaine Anonymous,19:30,1hr,TR10,50.1619109,-5.1521553,Town Hall,"Higher Market St,Penryn",,Thursday,False,False,True,False,,"In-person,Big Book,Newcomer,Speaker","Chit
Car park nearby
Please be COVID aware
Bring your own tea, coffee and biscuits as we are not allowed to use the kitchens",Cornwall,South West,England,Cocaine Anonymous
6f45ce5f-fd2b-55d0-815f-28cb0efdd42e,Cocaine Anonymous,19:30,1hr,CV12 9RJ,52.474448,-1.424814,Bulkington Club For Young People,"Bulkington,Bedworth",,Wednesday,False,True,True,True,This meeting is open and anyone may attend.,"In-person,12 Steps & 12 Traditions,Big Book,Discussion,Newcomer,Open,Speaker,Wheelchair Access",Chit,Coventry and Warwickshire,Midlands,England,Cocaine Anonymous
dcf874fd-5bc7-5475-9242-850a77738511,Prometeusz | Hybrid Meeting In Polish,17:30,1hr,CV1 4AE,52.411448,-1.51404,CGL,"1A Lamb St,Coventry",,Wednesday,False,False,False,False,,"In-person,Online,Literature,Newcomer,Speaker","Zoom link: <a href='https://us02web.zoom.us/j/84925834600?pwd=YldJaWRWbnpRS212alh4NVFZRjZKdz09' target='_blank'>https://us02web.zoom.us/j/84925834600?pwd=YldJaWRWbnpRS212alh4NVFZRjZKdz09</a>
Zoom Meeting ID: 849 2583 4600
Password: Coventry
On site parking",Coventry and Warwickshire,Midlands,England,Cocaine Anonymous
9c897856-2336-53e7-8c2c-7d7d3a35bfcd,Back To Basics,11:30,1hr 45mins,L5 7QP,53.433513,-2.984935,Kirkdale Neighbourhood Community Centre (The Gordon),"238A Stanley Rd,Kirkdale,Liverpool",,Monday,False,False,False,False,,In-person,,Liverpool City,North West,England,Cocaine Anonymous
59f5d00e-585d-5d8f-8452-fb7605ea3274,Inspire,18:15,1hr,SM2 5JG,51.3415952,-0.2044415,Inspire,"Orion House, 19 Cedar Rd",,Tuesday,False,False,False,False,,In-person,"This is an open H&I meeting - please note that there is no parking onsite and members are not permitted to use the on-site parking area.""",London Croydon Epsom and Sutton,London (South),England,Cocaine Anonymous
d0dadc5e-7314-5809-8283-3636938b7a05,A Safe Place Women's Meeting,19:00,1hr 30mins,BR1 3RE,51.411309,0.013486,Regency House,"Regency House,33-49 Farwig Ln,Bromley",,Wednesday,False,False,False,False,,"In-person,Women","Doors open at 18:30
Street Parking",London North Kent,London (South),England,Cocaine Anonymous
a8583411-5789-591b-a356-061d69cd8ea4,Candle Lit - Meditation Cocaine Anonymous,18:30,1hr,M7 3ND,53.514534,-2.269595,Aliya Youth Project,"469 Bury New Rd,Salford",,Friday,False,False,False,False,,"In-person,11th Step Meditation,Candlelight,Discussion",Open meeting - 1st Friday of the month,Manchester,North West,England,Cocaine Anonymous
2bd6ad76-ba34-5c08-8bcc-ba1632d44944,Cocaine Anonymous,18:00,1hr,M7 3ND,53.514534,-2.269595,Aliya Youth Project,"469 Bury New Rd,Salford",,Sunday,False,False,True,True,This meeting is open and anyone may attend.,"In-person,Discussion,Open",Chit,Manchester,North West,England,Cocaine Anonymous
ccdb3bda-c638-5290-bf89-0e4ecb3b2fb5,Cocaine Anonymous Discussion,19:00,1hr 30mins,M7 3ND,53.514534,-2.269595,Aliya Youth Project,"469 Bury New Rd,Salford",,Monday,False,False,True,True,This meeting is open and anyone may attend.,"In-person,Child-Friendly,Discussion,Newcomer,Open","Chit
Street parking",Manchester,North West,England,Cocaine Anonymous
87c93c25-cc00-54a7-9898-c67a64a920e9,Road To Recovery,19:00,1hr 30mins,M7 3ND,53.514534,-2.269595,Aliya Youth Project,"469 Bury New Rd,Salford",,Tuesday,False,False,False,True,This meeting is open and anyone may attend.,"In-person,Open",,Manchester,North West,England,Cocaine Anonymous
75e97dd2-ff27-57ff-bcbb-83da4327fe2c,Salford Discussion Meeting,18:30,1hr,M7 3ND,53.514534,-2.269595,Aliya Youth Project,"469 Bury New Rd,Salford",,Saturday,False,False,True,False,,"In-person,Discussion","Chit system
Main Share last Saturday of each month",Manchester,North West,England,Cocaine Anonymous
b78abd2d-d7d1-5e72-a5b4-5e954b1256af,Salford Monday Lunchtime,12:00,1hr,M7 3ND,53.514534,-2.269595,Aliya Youth Project,"469 Bury New Rd,Salford",,Monday,False,False,False,True,This meeting is open and anyone may attend.,"In-person,Discussion,Newcomer,Open",Street parking,Manchester,North West,England,Cocaine Anonymous
7af137ab-b5e8-5202-aa2f-3e65f795f64d,Wednesdays Higher Power Hour,18:00,1hr,M7 3ND,53.514534,-2.269595,Aliya Youth Project,"469 Bury New Rd,Salford",,Wednesday,False,False,False,True,This meeting is open and anyone may attend.,"In-person,Discussion,Open",Street Parking,Manchester,North West,England,Cocaine Anonymous
269f6a16-d82c-587e-b4d5-0520feb2480a,Chertsey CA,19:15,1hr 5mins,B37,51.3925226,-0.5038949,St Peter's Church,"5,Chertsey",,Saturday,False,False,False,True,This meeting is open and anyone may attend.,"In-person,Open,Speaker",,Mid Surrey,South East,England,Cocaine Anonymous
6740034b-dcbe-50d4-a321-a9462f602dee,A Light In The Dark,19:00,1hr 30mins,SG1,51.9049501,-0.202641,Hampson Park Community Centre,"Hampson Park,Stevenage",,Monday,False,False,False,True,This meeting is open and anyone may attend.,"In-person,12 Steps & 12 Traditions,Discussion,Literature,Open,Speaker,Tradition Study",Max 25 people,North Herts and North Beds,Eastern,England,Cocaine Anonymous
3fd2ae46-8e5b-5033-9cd0-67a27f8b089b,Stevenage CA,19:30,1hr 30mins,SG1,51.9049501,-0.202641,Hampson Park Community Centre,"Hampson Park,Stevenage",,Friday,False,False,False,True,This meeting is open and anyone may attend.,"In-person,Open",On site parking,North Herts and North Beds,Eastern,England,Cocaine Anonymous
d9d1ce2a-2321-5129-bdb3-c695d1747727,We Can Recover,20:00,1hr,HG1 5PP,53.991142,-1.530849,Friends Meeting House (Upstairs),12A Queen Parade,,Wednesday,False,False,True,False,This meeting is closed; only those who have a desire to stop using may attend.,"In-person,Big Book,Closed,Speaker",This meeting supports the CHIT system.,North Yorkshire,North East,England,Cocaine Anonymous
95a92dd6-6b5c-593b-92fd-86e9c408624f,Andover Friday,19:30,1hr 15mins,SP10 1BE,51.206294,-1.479923,The Bridge,"31-33 Bridge St,Andover",,Friday,False,False,False,False,,"In-person,12 Steps & 12 Traditions,Big Book,Speaker",,Northdown,South East,England,Cocaine Anonymous
86f15c58-e412-5873-91da-22c559b7ed1b,Keep It Simple,19:30,1hr,OX11 7ER,51.611215,-1.251482,All Saints Youth & Community Hall,"Roman Pl,Didcot",,Friday,False,True,True,True,This meeting is open and anyone may attend.,"In-person,Open,Wheelchair Access","Social distancing observed, hand sanitizer on entry and exit of the building. Face masks supplied for optional use.
Chit system.
Limited parking available.",South Midlands,South Midlands,England,Cocaine Anonymous
21efa1db-9e62-572c-a0f5-e33561a00ad6,Reading Spirit Of The Sunlight,19:30,1hr 30mins,RG1 4BW,51.453409,-0.961866,Wesley Methodist Church,Queens Rd,,Wednesday,False,False,False,False,,"In-person,Speaker,Step Meeting",,Thames Valley,South Midlands,England,Cocaine Anonymous
abc1af03-c967-51bb-8729-786a37864904,CA Newcastle,18:00,1hr,NE4 7JN,54.967194,-1.625848,George Street Social,45-51 George St,,Saturday,False,False,False,True,This meeting is open and anyone may attend.,"In-person,Big Book,Child-Friendly,Discussion,Literature,Newcomer,Open,Young People",,Tyne and Northumbria,North East,England,Cocaine Anonymous
0b799355-e546-53f5-9805-1e85e5d864f4,Steps Towards Change,18:30,1hr,HX1 2AL,53.720483,-1.863943,Basement House,10 Carlton St,,Monday,False,False,False,True,This meeting is open and anyone may attend.,"In-person,Big Book,Newcomer,Open,Speaker",,West Yorkshire,North East,England,Cocaine Anonymous
fb893e10-80ab-5f0f-8cc8-5bc1b4f608f0,C.A. Athy,20:30,,R14X H79,52.9923585,-6.9833981,Cuan Mhuire Treatrment Centre,"Oldmill Vicarstown Road, Athy",,Monday,False,False,False,False,,Beginners / Newcomers Meeting,,,,Ireland,Cocaine Anonymous
e0757f8e-07ae-5a4e-9296-c2d6ce22d51c,C.A. Drimnagh,19:30,,D12E DN2,53.5315562,-1.0900952,St John Bosco Youth Centre,"Davitt Rd, Goldenbridge, Drimnagh, Dublin 12",,Monday,False,False,False,False,,Beginners / Newcomers Meeting,,,,Ireland,Cocaine Anonymous
15374e56-1b99-5543-b939-909437da4d0a,C.A. Dunshaughlin,20:00,,A85W 886,53.5127078,-6.5300903,Pastoral Centre (Behind The Church),"Main St, Dunshaughlin",,Friday,False,False,False,False,,Beginners / Newcomers Meeting,,,,Ireland,Cocaine Anonymous
fedcde3a-260c-5e47-a89c-0e7f5247441d,C.A. Longford,19:00,,N39R 9X8,53.7264756,-7.7969278,St Joseph's Temperance Hall,"New Street, Longford",,Monday,False,False,False,False,,Beginners / Newcomers Meeting,,,,Ireland,Cocaine Anonymous
bcc6fc8c-2b7c-5926-b3ff-544fb08b6334,C.A. Never Too Young To Recover,19:30,,D17K 272,43.1616236,0.5190221,The Glin Centre,"Glin Rd, Priorswood, Dublin 17",,Tuesday,False,False,False,False,,Young People's Meeting,,,,Ireland,Cocaine Anonymous
b70e54f4-7438-54ac-9c34-ff3ae56a91fa,C.A. Newbridge,20:00,,,53.1802057,-6.8104535,Newbridge Family Resource Centre,"Dara Park, Moorfield, Newbridge, Co. Kildare",,Tuesday,False,False,False,False,,Beginners / Newcomers Meeting,,,,Ireland,Cocaine Anonymous
22a7b59d-c3cf-526c-8f5e-2f30692eed28,C.A. Newbridge,20:00,,,53.1802057,-6.8104535,Newbridge Family Resource Centre,"Dara Park, Moorfield, Newbridge, Co. Kildare",,Friday,False,False,False,False,,Beginners / Newcomers Meeting,,,,Ireland,Cocaine Anonymous
487f4a42-deb7-5cef-8110-5804c4cb962f,C.A. Common Journey,19:00,,BT42 2BQ,54.857088,-6.276532,Carson Project,"176 Queen St, Ballymena , Co. Antrim, Northern Ireland, UK",,Sunday,False,False,False,False,,Beginners / Newcomers Meeting,,Antrim,Northern Ireland,Ireland,Cocaine Anonymous
b2e7fa12-0fff-56ac-b5b3-6f7c135e3255,C.A. Glenview Big Book Study,19:00,,BT14 7DP,54.613674,-5.950111,Sacred Heart Church,"1B Glenview Street,Belfast,Antrim",,Tuesday,False,False,False,False,,Big Book Study Meeting,,Antrim,Northern Ireland,Ireland,Cocaine Anonymous
2c0bc8c1-530a-5cf4-8c5d-2e4f56810f16,C.A. Bandon,20:00,,P72E 862,51.7442283,-8.7368113,St Patrick's Church,"St Patrick's Quay, Cloghmacsimon, Bandon, Co. Cork",,Monday,False,False,False,False,,Speaker Meeting,,Cork,Republic of Ireland,Ireland,Cocaine Anonymous
6d4d6148-eee4-574b-9b40-4dfdc94d44a4,C.A. Ashbourne,19:30,,A84X 085,53.5101801,-6.3990905,The Pantry Ashbourne,"27 Killegland St., Killegland, Ashbourne, Co. Meath",,Monday,False,False,False,False,,Beginners / Newcomers Meeting,,Dublin,Republic of Ireland,Ireland,Cocaine Anonymous
56dc9c83-0f2f-55e2-b837-9cec4ed4d5a0,C.A. Neilstown,19:30,,D22E 2Y2,53.3445434,-6.3948707,North Clondalkin Library,"1 Liscarne Cl, Rowlagh, Dublin",,Thursday,False,False,False,False,,Beginners / Newcomers Meeting,,Dublin,Republic of Ireland,Ireland,Cocaine Anonymous
3de1f5be-6c83-5537-b8f4-954d456b6239,C.A. Shankill,20:00,,A98V X58,53.2197733,-6.1204866,St James Church,"Crinken, Co. Dublin",,Wednesday,False,False,False,False,,Beginners / Newcomers Meeting,,Dublin,Republic of Ireland,Ireland,Cocaine Anonymous
680207bf-b4c7-5bae-9ab0-8687a0f5eafc,C.A. Sheriff St.,19:00,,D01A 439,53.3542585,-6.2460465,St. Joseph's OCB GAA Clubhouse,"1 Seville Pl, North Dock, Dublin",,Tuesday,False,False,False,False,,Beginners / Newcomers Meeting,,Dublin,Republic of Ireland,Ireland,Cocaine Anonymous
e43fe4d4-b878-57cb-8337-f6aa5a2f7b8f,C.A. Oz House,15:30,,H91V 3PV,53.2720078,-9.0513204,Ozanam House,"Room 3, St. Augustine Street, Galway",,Monday,False,False,False,False,,Big Book Study Meeting,,Galway,Republic of Ireland,Ireland,Cocaine Anonymous
5412fbb7-427c-588e-a660-f7c3173d4cd7,C.A. Oz House,10:00,,H91V 3PV,53.2720078,-9.0513204,Ozanam House,"Room 3, St. Augustine Street, Galway",,Friday,False,False,False,False,,12 Steps & 12 Traditions Study Meeting,,Galway,Republic of Ireland,Ireland,Cocaine Anonymous
ee87c5c4-7de0-56f5-80e6-02daca299144,Magic Mondays,20:00,1hr 30mins,G73 1DU,55.829373,-4.213344,Reuther Hall,Victoria St (Next To Train Stn),,Monday,False,False,False,True,,"In-person,Newcomer,Open",,,,Scotland,Cocaine Anonymous
a34b8171-5c01-56fb-a6d9-b471a7fe5ff8,Quaker House (Kelso),19:30,"1hr ",TD5,55.5353449,-2.3583213,Quaker House,"Abbey Row, Kelso",,Thursday,False,False,False,True,,"In-person,Newcomer,Online,Open",,,,Scotland,Cocaine Anonymous
0bd58fe4-1015-5eee-a3e1-e70927a23f29,Reaching Out,17:30,"1hr ",PH2,56.357329,-3.4341242,Trinity Nazarene Church,"York Pl, Perth",,Tuesday,False,False,False,True,,"In-person,Newcomer,Open",,,,Scotland,Cocaine Anonymous
4a7b843f-ffaa-555c-bfd6-c4d8e7284ecf,TGI Friday Paisley CA,19:30,1hr 30mins,PA1,55.8489335,-4.4013781,Salvation Army,"Mill St, Paisley",,Friday,False,False,False,True,,"In-person,Newcomer,Open",,Paisley and District,South West Scotland,Scotland,Cocaine Anonymous
fc8daa32-b215-546e-bb70-36cf2e166e83,Swansea 12 Steps &Amp; 12 Traditions Meeting,11:00,1hr 15mins,SA1 6RY,51.633033,-3.968707,Swansea,"Ebeneezer Gospel Hall,Townhill,Swansea",,Thursday,False,False,True,False,,"In-person,12 Steps & 12 Traditions","CHIT System
Street Parking",Swansea and District,Wales and Borders,Wales,Cocaine Anonymous
f18f8591-fbdf-5a8c-a7ee-6baac459ab32,Swansea Big Book Meeting,11:00,1hr 15mins,SA1 6RY,51.633033,-3.968707,Swansea,"Ebeneezer Gospel Hall,Townhill,Swansea",,Tuesday,False,False,True,False,,"In-person,Big Book","CHIT System
Street Parking",Swansea and District,Wales and Borders,Wales,Cocaine Anonymous
ab86877d-2488-5c57-98a5-c9870ab5a450,A Spiritual Principle A Day,18:00,1hr 15mins,SP2 7RG,51.068999,-1.798819,United Reformed Church,30 Fisherton St,,Saturday,False,True,False,False,Open to addicts only,"Beginner/Newcomer,Discussion/Participation,Spiritual Principle A Day","Venue Info: Entrance through the side gate if the door closed please ring bell
Bus Routes: R1
Travel Comment: The venue is a 5-10-minute walk from the station.",,,England,Narcotics Anonymous
685e7e9f-7569-57e2-bab6-bef03439cb68,Alive Again,19:30,1hr 30mins,KT12 3NH,51.383008,-0.402589,"Main Hall, Cromwell Community Centre","St. Johns Drive,Walton-On-Thames",,Friday,False,True,False,True,Open to all,"Beginner/Newcomer,Basic Text,Candlelight,Speaker,Format Varies,Chit/MAC,Share meeting,Parking Available","Experience Strength and Hope chair / Literature Reading alternate weeks.
Bus Routes: 461
Travel Comment: The venue is a 10 minute walk from Walton-on-Thames Train Station.",,,England,Narcotics Anonymous
8bd9a176-9a40-5117-81ab-719df648b972,Andover NA,19:00,"1hr ",SP10 1BL,51.207208,-1.481315,The Methodist Church,Bridge St,,Wednesday,False,True,False,True,Open to all on request,"Beginner/Newcomer,Just For Today Book Study,Speaker,Topic,Format Varies,No pets,No children,Spiritual Principle A Day","Venue Info: Door at the side up to church hall
Travel Comment: Nearest parking is Town Mills car park",,,England,Narcotics Anonymous
aa393228-d34f-5546-94a1-48ba41769538,Doncaster NA - Clean Around The Campfire,19:00,1hr 30mins,DN5 0AA,53.545471,-1.14674,"Around The Campfire, Bentley Urban Farm","High Street,Bentley,Doncaster",,Wednesday,False,True,False,True,Open to all on request,"Children Welcome,Topic,Share meeting,Parking Available,Pets Welcome","Venue Info: The Venue is Down a Road Between Bentley School and Church. At the End of the Road there is Free Parking. There are also Signs from the Car Park.
The format for this Meeting is Ask It Basket. There is an Open Campfire During the Warmer Months and When Weather Permits. There is an Inside Location at Other Times on Site.",,,England,Narcotics Anonymous
4f44bde5-e5cf-5524-8ad3-ad2d7d305f57,Dorridge Sunday,18:30,1hr 15mins,B93 8DX,52.373546,-1.756629,St Philips Church,"Manor Road,Dorridge,Dorridge",,Sunday,False,True,False,True,Open to all on request,"Just For Today Book Study,Speaker,Step,Tradition,Format Varies,No pets,Share meeting,Parking Available","Venue Info: Enter the Left Side of the Building. If Fellow Entering Through the Main Entrance, Turn Left and the Room is on the Right-Hand Side at the End of the Hall.
Multi-Format and Open on Request.",,,England,Narcotics Anonymous
32dc4f97-1e90-5fc3-aff2-3816d19401ce,Eastbourne Saturday,18:00,1hr 30mins,BN21 3HG,50.768325,0.289238,The Recovery Café,5 North St,,Saturday,False,False,False,True,Open to all on request,"Format Varies,No pets,Share meeting",Venue Info: Door on Right and up the Stairs,,,England,Narcotics Anonymous
c74d06d5-b29f-52a6-9f5a-8389bbf9db75,Eastbourne Tuesday,19:00,1hr 30mins,BN21 3HG,50.768325,0.289238,The Recovery Café,5 North St,,Tuesday,False,False,False,True,Open to all on request,"Just For Today Book Study,No pets,Share meeting,No children",The Format of the Meeting is Reading from the Just for Today and Sharing Back.,,,England,Narcotics Anonymous
ae7156b7-a77b-5646-a4d7-5381d9c0e558,Feel Good Friday's In Tamworth,19:00,1hr 15mins,B77 2EA,52.624522,-1.661473,Sacred Heart Church Tamworth,"Silver Link Road,Glascote Heath,Tamworth",,Friday,False,True,False,True,Open to all on request,"Format Varies,Share meeting","Venue Info: Car park at venue. Come in through the main front door, it's the room on the left after the toilets.",,,England,Narcotics Anonymous
aed68b65-da3b-538e-927d-94c947a1e0a7,Freedom Fridays (I Can’T We Can ),11:00,1hr 30mins,WS15 2HX,52.757002,-1.939651,"Talbot Room, Rugeley Community Centre","Burnthill Lane,Rugeley",,Friday,False,True,False,True,Open to all on request,"Beginner/Newcomer,Basic Text,Living Clean Study,Speaker,Parking Available",Venue Info: The venue is on Burnthill lane There is parking is 7 mins from train station and 5 from bus station,,,England,Narcotics Anonymous
40e19329-010c-51d7-8ca0-270eceff365b,Friday Fix,19:00,1hr 15mins,SO50 5SD,50.965944,-1.35247,St Andrews Methodist Church,Blenheim Rd,,Friday,False,False,False,False,Open to addicts only,"Format Varies,No children",,,,England,Narcotics Anonymous
25ab7483-0cc3-5e63-9888-0d87ef05403d,Friday Freedom,19:15,"1hr ",TN40 1DG,50.83888,0.472671,Quaker Meeting House,"15A Albert Road,Bexhill-On-Sea",,Friday,False,True,False,True,Open to all,"Candlelight,Step",,,,England,Narcotics Anonymous
50d801d2-4a59-5537-99ac-26af3948da89,From Haverhole To Have A Go,18:30,"1hr ",CB9 0JB,52.084498,0.443427,"Small Room, Chalkstone Community Centre","Millfields Way,Haverhill",,Monday,False,True,False,True,Open to all,"Children Welcome,Just For Today Book Study,Speaker,No pets,Share meeting,Parking Available,Spiritual Principle A Day","Venue Info: Meeting May Change Room Inside the Venue.
The Format of the Meeting is the Just for Today Reading or the Spiritual Principle a Day Reading. 
Last Monday of the Month - Main Share. 
Fellows Bringing Children, Please Can they be Accompanied at all Times and Wearing Headphones.
Travel Comment: Parking is Limited Outside the Venue. There is a Small Car Park as you Turn into the Road of the Venue.",,,England,Narcotics Anonymous
157a7a5c-5250-553e-b335-2011d78e9aee,Guiding Principles,19:30,1hr 30mins,B37 7TP,52.477931,-1.727234,Three Trees Centre,"Hedingham Grove,Chemsleywood,Birmingham",,Thursday,False,True,False,False,Open to addicts only,Speaker,,,,England,Narcotics Anonymous
f636689e-4375-5241-a895-c0a5c63fe3b0,Halesowen A New Hope Group,19:30,1hr 15mins,B63 3AJ,52.448709,-2.047799,Lifecentral Church,Little Cornbow,,Tuesday,False,True,False,True,Open to all on request,"Beginner/Newcomer,Living Clean Study,Literature Study,Speaker,Format Varies,Parking Available","Venue Info: Go down the driveway towards two large green double doors at the top of some steps where you will be greeted and let into the building.
Travel Comment: Most West Midlands buses go to Halesowen bus station. The venue is a 5-minute walk from the bus station.",,,England,Narcotics Anonymous
adec2736-aa92-5b10-bea8-336cb2f34831,Happy Mondays,18:00,1hr 30mins,SR1 2AU,54.908248,-1.374898,"Dining Room, Salvation Army Swan Lodge","Hight Street East,Sunderland",,Monday,False,True,False,True,Open to all on request,"Beginner/Newcomer,Speaker,Share meeting",Travel Comment: 10 minute walk from Sunderland bus station on the outskirts of the town,,,England,Narcotics Anonymous
adfe80e4-7069-5728-b06e-d32c18acbd88,Happy Mondays,19:00,1hr 30mins,B44 0QN,52.543199,-1.879046,Christ The King Rc Church,124 Warren Farm Rd,,Monday,False,True,False,True,Open to all on request,Speaker,Bus Routes: 33,,,England,Narcotics Anonymous
fc7cd5b5-eaea-5c3a-9c2a-c0acdb6d9a92,HAPPY MONDAYS,19:00,1hr 30mins,B44 0QN,52.543199,-1.879046,Christ The King Rc Church,124 Warren Farm Rd,,Monday,False,True,False,True,Open to all on request,"Speaker,Format Varies,No pets,Share meeting","Bus Routes: 28, 33
Travel Comment: 28 then the 33. 33 on its own.You can catch the 907 which leaves you a short 15-minute walk. The closest bus is the 33. Will drop you just outside. You can catch the 28 bus then either walk of jump the 33.",,,England,Narcotics Anonymous
3a7b6f42-2e70-55a5-b839-d737a16238d2,Hastings Living Clean,19:00,"1hr ",TN34 3EY,50.858912,0.593325,"Meeting Room, St Mary Star Of The Sea Church","1 High Street,Hastings",,Monday,False,True,False,True,Open to all,Living Clean Study,"Venue Info: Venue is in the Old Town, Hastings.Door is at the back of the church. Go round side and it's just there. Parking available at the venue - Bourne Car Park off A259 Old London Road.",,,England,Narcotics Anonymous
d84f9648-f846-55c9-bae3-d55f464daedb,Haverhill Just For Today NA,19:30,1hr 30mins,CB9 0JB,52.084498,0.443427,Chalkstone Community Centre,"Millfields Way,Haverhill",,Friday,False,False,False,True,Open to all,"Beginner/Newcomer,Candlelight,Children Welcome,Just For Today Book Study,Speaker,No pets,Share meeting,Parking Available",The Format of the Meeting is the Just for Today Reading and a Main Share.,,,England,Narcotics Anonymous
d7cf336a-daaf-51d3-9310-e30d82e32758,High Barnet Meditation Meeting,17:30,"1hr ",EN5 4BW,51.653312,-0.204831,Church House,Wood St,,Sunday,False,False,False,True,Open to all,"Candlelight,Just For Today Book Study,Meditation,No pets,Parking Available","Venue Info: Venue is inside the smaller building just behind the main Barnet Church. There will be an NA sign on the door handle. The church has asked us to lock the door during the meeting - if you are late, please knock on the door or ring the bell and someone will let you in.
10 minute guided candlelit meditation at the start of the meeting.",,,England,Narcotics Anonymous
fc9fbd32-2360-5548-bac6-fd829227b09d,Horley Men’S Meeting,19:45,1hr 30mins,RH6 8RG,51.175925,-0.173431,"Anderson Room, Horley Baptist Church","289 Court Lodge Road,Horley",,Tuesday,False,True,False,False,Open to addicts only,"Beginner/Newcomer,Men,Speaker,Share meeting,Parking Available",,,,England,Narcotics Anonymous
58c2753b-c796-59ad-8012-f2bc9eb5bfa8,I Do Like Mondays,19:30,1hr 30mins,B98 8LT,52.30546,-1.932263,Building At Rear Of Church,"Our Lady Of Mount Carmel R C Church, Beoley Road West,Redditch",,Monday,False,True,False,True,Open to all on request,"Candlelight,No pets","Venue Info: Doors open at 7pm. Onsite parking available
The meeting has a mixed format.
Travel Comment: The venue is a 10 minute walk from the train station",,,England,Narcotics Anonymous
f974f43b-32ac-5f60-98d3-eb6e51bb9267,LA Does NA,17:00,"1hr ",BN17 5EG,50.809923,-0.543474,Littlehampton United Church,1 High St,,Saturday,False,True,False,False,Open to addicts only,"Children Welcome,Speaker,Share meeting","Venue Info: Parking Passes Available In Local Shops for £3 for the Year.
The Format of the Meeting is an Experience, Strength & Hope Main Chair Every Week. 
Please Can Children Attending Wear Headphones.
Bus Routes: 700",,,England,Narcotics Anonymous
29ff2d6f-13f3-5ee5-bdd7-5dd540bba33d,Lowestoft NA,19:00,1hr 30mins,NR32 1HB,52.477723,1.754392,United Reformed Church,London Road North,,Tuesday,False,True,False,True,Open to all,"Beginner/Newcomer,Basic Text,Children Welcome,Discussion/Participation,Share meeting","Venue Info: The meeting is held in the North Lowestoft United Reform Church at the top of London Road North. Entrance is via the red door at the front of the building. If the door is shut after the meeting has started please ring the bell and you will be let in.
This is a literature-based meeting with a reading from the Basic Text. We have an Experience, Strength & Hope share from an NA member on the last Tuesday of the month.
Bus Routes: X22
Travel Comment: The venue is a 5-minute walk from both stations.",,,England,Narcotics Anonymous
b8070489-e88d-5589-b13f-1a7449a18a4a,Lowestoft NA,19:30,1hr 30mins,NR32 1HB,52.477723,1.754392,United Reformed Church,London Road North,,Friday,False,True,False,True,Open to all,"Beginner/Newcomer,Children Welcome,It Works Study,Chit/MAC,Share meeting,Pets Welcome","Venue Info: The Meeting is Located at the Top of London Road North. The Entrance is Via the Red door at the front of the church. Please Use the Doorbell if it is Closed or Look for Contact Details Displayed Outside.The Meeting Room is Upstairs and a Stannah Lift is Available for Those with Mobility Needs.
The Meeting is Focused on a Reading from the How it Works and Why Book. Each Week Alternating Between a Step and a Tradition. 
1st Friday of every Month - A share on a step or tradition.",,,England,Narcotics Anonymous
cbc0ac98-82e6-513c-bdf5-7e27db0df341,Lowestoft NA,12:00,1hr 30mins,NR32 1HB,52.477723,1.754392,United Reformed Church,London Road North,,Saturday,False,True,False,True,Open to all,"Beginner/Newcomer,Children Welcome,Speaker,Topic,Chit/MAC,Share meeting,Parking Available,Pets Welcome","Venue Info: Entrance via the red door at the front of the church.Use doorbell if door is shut.
Ask it Basket meeting with ESH share on the 2nd Saturday of the month. Meeting is located at the top of London Road North. The church is located on the right if you are walking north.",,,England,Narcotics Anonymous
70224323-760a-5cc7-8118-c9fc96048c04,Maxstoke NA Meeting,19:00,"1hr ",B46 2QN,52.479689,-1.654096,Maxstoke Village Hall,"Church Lane,Maxstoke,Birmingham",,Thursday,False,True,False,True,Open to all on request,Literature Study,"Week 1: Step Reading (Month number)
Week 2: Spiritual Principle a Day
Week 3: Ask it Basket
Week 4: Living Clean
Week 5: Share - ESH or Topic",,,England,Narcotics Anonymous
e7cc85ef-0d39-599a-b703-fa542187b952,Men's Step A Month Thursday Night Meeting,18:45,"1hr ",GU51 4NB,51.283605,-0.842123,"Building Next To Church, All Saints Church","34 Church Road,Fleet",,Thursday,False,True,False,False,Open to addicts only,"Basic Text,Children Welcome,Men,Speaker,Step,Share meeting,Pets Welcome","First Week in Month - Step Meeting
Week 2/3/4 - Chair, Experience Strength and Hope",,,England,Narcotics Anonymous
ac2f944e-82e1-5c69-ac6f-a5b32756a7a8,NA In LA,17:00,"1hr ",BN17 5EG,50.809923,-0.543474,Littlehampton United Church,1 High St,,Saturday,False,True,False,False,Open to addicts only,"Beginner/Newcomer,Basic Text,Discussion/Participation,Speaker,Share meeting,Parking Available","Venue Info: A couple of times a month the meeting may be moved upstairs
Bus Routes: 700",,,England,Narcotics Anonymous
4b005a67-e8ea-50e6-97c2-b480ebfa044e,Salem Mill NA Hebden Bridge,18:00,1hr 15mins,HX7 6HB,53.741001,-2.015988,Salem Community Centre,"Salem St, Off Burnley Rd",,Saturday,False,True,False,True,Open to all on request,No pets,,,,England,Narcotics Anonymous
1c809eec-1ca6-59fe-8e0e-1bcd23d2ab93,Salisbury Meeting,19:45,1hr 30mins,SP2 7RG,51.068999,-1.798819,United Reformed Church,30 Fisherton St,,Thursday,False,False,False,True,Open to all,"Children Welcome,Just For Today Book Study,No pets,Share meeting","Venue Info: Entrance Through the Side Gate (Right Side if Facing Building). If the Door is Closed Please Ring the Bell.
The Format of the Meeting is a Just for Today Book Study
Bus Routes: R1",,,England,Narcotics Anonymous
b3066063-1b8e-598c-8797-e92dd0cf583c,Sunburys Sunday Steps,18:00,1hr 15mins,TW16 6QQ,51.412445,-0.418215,Open Door Church Centre,"Rooksmead Road,Sunbury",,Sunday,False,False,False,True,Open to all,Step,Venue Info: Doors open at 17:30,,,England,Narcotics Anonymous
998eb3de-b7d3-5655-a8cc-18d1cbe31f9b,Sunday Serenity,11:00,1hr 15mins,WS14 9DT,52.678599,-1.825781,"1St Floor, Betterway Recovery","Management House,71-73 Upper St. John Street,Lichfield",,Sunday,False,False,False,True,Open to all on request,"Beginner/Newcomer,Literature Study,Speaker,Step,Topic,Share meeting","Venue Info: The Meeting is Under the Archway on the Left
Travel Comment: The Meeting is 5 Minutes from Bus and Train station.",,,England,Narcotics Anonymous
1d6a5afe-0b19-5bff-9e71-390ab3e0a215,Tamworth NA,19:30,1hr 15mins,B79 7EX,52.635138,-1.69777,St John's Baptist RC Church,"2 St John Street,Tamworth",,Wednesday,False,True,False,True,Open to all on request,"Speaker,Share meeting,Parking Available","Candle lit Experience, Strength and Hope Share weekly",,,England,Narcotics Anonymous
8073cc36-8870-5285-8394-070cc11c5f85,Todmorden Wednesday,19:00,"1hr ",OL14 7BD,53.714087,-2.097842,"Crypt, St Mary's Church","Burnley Road,Todmorden",,Wednesday,False,True,False,True,Open to all on request,"Basic Text,Children Welcome,Share meeting,Pets Welcome",The Format of the Meeting is Reading from the Basic Text and Sharing Back.,,,England,Narcotics Anonymous
d103b6da-2778-524a-8d9a-785883d4a2f0,Wholesome Wednesdays,19:15,1hr 30mins,B98 8LT,52.30546,-1.932263,"Parish Hall, Our Lady Of Mount Carmel Roman Catholic Church","Beoley Road West,St Georges,Redditch",,Wednesday,False,True,False,True,Open to all,"Candlelight,Speaker,Format Varies,Parking Available","Venue Info: Venue Open From 7:00pm Carparking Available at Venue Parish Hall is behind the church on the right
Bus Routes: 58,57
Travel Comment: Bus Stops are a small walk away from the church on Holloway Lane and Ipsley Street The Church is around a 10 Minute walk away from train station.",,,England,Narcotics Anonymous
a3a5e314-4c9b-5f51-95eb-612a4ed126cf,Working It Wednesday,19:30,1hr 30mins,TW16 6QQ,51.412445,-0.418215,"Hall, Open Door Church Centre","Green St (Building Enterance Is On The Corner Of Rooksmead Rd And Green St),Sunbury-On-Thames",,Wednesday,False,True,False,True,Open to all,"Beginner/Newcomer,Children Welcome,Speaker,Share meeting","Venue Info: Hall Behind Main Church.The building enterance is on the corner of Rooksmead Rd and Green St
Experience, Strength, and Hope Share
Travel Comment: It is a 12 minute walk from station",,,England,Narcotics Anonymous
7855a1e4-528e-55e8-9dae-87072205793e,All Inclusive Meeting,19:00,1hr 15mins,B15 2HU,52.467102,-1.906274,Edgbaston Community Centre,"40 Woodview Drive,Birmingham",,Wednesday,False,True,False,True,Open to all on request,"Beginner/Newcomer,LGBT+,Literature Study,Speaker,Step,No pets,Share meeting,Book Study,Parking Available","Wednesday Night Meeting - All Inclusive Meeting
The Meeting Format Varied Each Week from Main Shares, Book Readings, Spiritual Sticks and Topic Electric Chair.
Fellows Bringing Children, Please can they be Supervised and Ideally Wearing Headphones.",Birmingham,Midlands,England,Narcotics Anonymous
93c4735b-7127-5827-acad-d9431a3a221a,Brothers And Sisters In Arms,19:30,"1hr ",B27 6HG,52.451343,-1.818717,Acocks Green Baptist Church,39 Yardley Rd,,Tuesday,False,True,False,False,Open to addicts only,"Speaker,Chit/MAC,Share meeting","Venue Info: The Venue is 50 meters from Acocks Green Police Station. The entrance to the meeting is on Alexander Road off of Yardley Road
This is an Experience, Strength and Hope Speaker Meeting, it is a mixed meeting and men and women are both welcome
Bus Routes: 11A,11C,4
Travel Comment: The Venue is a 2 Minute's Walk from the Acock Green Station. The 11a and 11c Run alongside the Venue and Yardley Road. Should Fellow get the Number 4 Bus, get off at Acocks Green village and the Venue is a 10 minute Walk to the venue.",Birmingham,Midlands,England,Narcotics Anonymous
b4d7c604-0566-5d08-8952-ab71703d717c,Business As Usual,19:00,1hr 30mins,B33 9QY,52.481919,-1.78379,"Front Room, St Richard's Church Of England","Hallmoor Road,Kitts Green,Birmingham",,Thursday,False,False,False,False,Open to addicts only,"Basic Text,Children Welcome,Literature Study,No pets,Share meeting,Book Study,Parking Available","The Format of the Meeting is a Basic Text Study.
Fellows Bringing Children, Please Can they be Supervised and Wearing Headphones.",Birmingham,Midlands,England,Narcotics Anonymous
68a16cc3-0249-579c-85bc-f641bbdbf472,Coming Home,11:30,1hr 30mins,B10 0PR,52.470231,-1.866041,"Meeting Room, All Saints Church","172 Herbert Road,Small Heath,Birmingham",,Wednesday,False,True,False,True,Open to all on request,"Children Welcome,Living Clean Study,Speaker,Step,Topic,Share meeting","The Format of the Meeting 
Week 1 - Experience, Strength & Hope Share 
Week 2 - Living Clean Reading
Week 3 - Step Share
Week 4 - Topic Share",Birmingham,Midlands,England,Narcotics Anonymous
a35fb9cd-14cd-5a0b-9429-323806c8c67e,Droitwich Friday Night Meeting,19:00,"1hr ",WR9 8AW,52.261834,-2.152846,Methodist Church,Worcester Rd,,Friday,False,True,False,False,Open to addicts only,,"Venue Info: The meeting is in Amphlett House, parking on site. Glass doors.
This is a Just For Today and Share meeting.",Birmingham,Midlands,England,Narcotics Anonymous
1e8a3da0-53b5-5440-9d86-7e0dc3097be6,"Fox Hollies Meeting, ""We Do Recover""",19:30,1hr 30mins,B27 7UL,52.445417,-1.829275,Acocks Green Christian Centre,"100 Westley Road,Acocks Green",,Monday,False,True,False,True,Open to all on request,"Beginner/Newcomer,Speaker,Chit/MAC,Share meeting,Parking Available","Venue Info: Rear of 100.Small drive way near the Westley Arms Hotel, continue to bottom of the driveway and the venue will be in front of you. Parking facilities available
Bus Routes: 4,11,31
Travel Comment: The venue is a 10-15 minute walk from Acocks Green Station.",Birmingham,Midlands,England,Narcotics Anonymous
34b9a619-4ad3-5610-aff8-4a52c5595cc9,Freedom Thursday,19:30,1hr 30mins,B10 0PR,52.470231,-1.866041,"Upstairs Room, All Saints Church","172 Herbert Road,Small Heath,Birmingham",,Thursday,False,True,False,True,Open to all on request,"Basic Text,Literature Study,Speaker,Share meeting,Book Study,Pets Welcome","Venue Info: The Meeting is Held in the upstairs room accessed by the stairs on the left inside the main entrance of the church.Bring your Basic Text.
The Format of the Meeting Alternates from an Experience, Strength & Hope Main Share and a Topic Share. 
Last Thursday of the Month - Step Share. 
Doors Open at 19:00. There will be a Committee Member on the Gates up until the meeting starts
Bus Routes: 60, 17
Travel Comment: Buses from City Centre. Number 60 to Cranes Park. Number 17 to Small Heath.",Birmingham,Midlands,England,Narcotics Anonymous
0e0e3797-895c-54db-bd42-04dbb642d83d,Friendly Friday,19:30,1hr 30mins,B24 8AD,52.520672,-1.842705,Six Ways Baptist Church,"Wood End Road,Erdington,Birmingham",,Friday,False,True,False,True,Open to all on request,Format Varies,"Bus Routes: 11A, 11C",Birmingham,Midlands,England,Narcotics Anonymous
b16e0acb-0c0c-52ef-b32c-ab9f28944a8d,Harborne Old Skool,19:30,1hr 15mins,B17 0DH,52.456994,-1.955395,Harborne Baptist Church,Harborne,,Wednesday,False,True,False,True,Open to all on request,"Just For Today Book Study,Speaker,Step,Format Varies,No pets,Parking Available","Venue Info: Car Park at Rear enter to left of front of building  Walk straight through to room directly opposite the entrance small garden room
The Format of the Meeting Varies.
Bus Routes: Number 11A , 11C , 23 , 24 , 55 .",Birmingham,Midlands,England,Narcotics Anonymous
d6168165-07d2-55c1-a448-3bb39c76151d,Harborne Women's,19:30,1hr 30mins,B17 0DH,52.456994,-1.955395,Harborne Baptist Church,Harborne,,Thursday,False,True,False,True,Open to all on request,"Children Welcome,Speaker,Women,Share meeting,No children,Parking Available","Venue Info: Entrance is Through the Last Door on the Left of the Building.
The Format of the Meeting is an Experience, Strength & Hope Share Every Week. 
Fellows Bringing Children, Please Can they be Supervised and Wearing Headphones.
Bus Routes: 11, 19, 23, 24, 48, 76, 822
Travel Comment: Parking is Available Down the Drive, Behind the Building.",Birmingham,Midlands,England,Narcotics Anonymous
27487028-a6f2-582d-9416-b8ef419848a5,Hope In The Trenches,19:30,1hr 30mins,B34 7HU,52.500892,-1.769621,"Main Hall, Timberley Lane Baptist Church","177 Brownfield Road,Shard End,Birmingham",,Wednesday,False,True,False,True,Open to all on request,"Speaker,Parking Available","Venue Info: Main Hall to the left of entry
Bus Routes: 55, 55a, 72 & 94",Birmingham,Midlands,England,Narcotics Anonymous
80607a42-e89b-53e8-a5d7-d110a3bcf78a,Jazebe Birmingham,19:00,1hr 30mins,B16 8RW,52.478121,-1.922717,Ladywood Church,"184 Vincent Street,Ladywood,Birmingham",,Sunday,False,True,False,False,Open to addicts only,"Beginner/Newcomer,Speaker,No pets,Share meeting,No children,Parking Available","The Format of the Meeting is Experience, Strength & Hope Every Week.",Birmingham,Midlands,England,Narcotics Anonymous
b15d6767-8779-524a-af99-89a7e9ec2092,Just For Friday,12:30,1hr 30mins,B9 4DY,52.475965,-1.880982,Sifa 48-52 Allcock St,Birmingham,,Friday,False,True,False,True,Open to all,Beginner/Newcomer,"Bus Routes: All Buses heading city centre
Travel Comment: This Meeting is in Birmingham Clean Air Zone, Clean Air Zone Charges apply.",Birmingham,Midlands,England,Narcotics Anonymous
63fe5e1d-ecd4-5652-90ca-ef0ce000c6ab,Just For Today Thursdays,11:00,1hr 30mins,B12 9AH,52.456983,-1.885448,"Back Building, The Old Print Works","498-506 Moseley Road,Balsall Heath,Birmingham",,Thursday,False,False,False,True,Open to all,"Beginner/Newcomer,Children Welcome,Living Clean Study,Speaker,No pets","Venue Info: It's the Back Building Right Hand Side Down the Drive, Knock Window Anytime after 12.30 Onwards.
Week 1- Speaker meeting
Week 2- Spiritual principle a day reflections
Week 3- Step meeting
Week 4- Tradition meeting
Week 5- Just for today reflections
Bus Routes: 50",Birmingham,Midlands,England,Narcotics Anonymous
b96cd049-cc4c-5868-80cc-8de4ccb0d178,Kings Heath - Birmingham,19:00,1hr 15mins,B14 7JZ,52.435797,-1.89291,"Church Hall Upstairs, New Life Baptist Church","80 High Street,Kings Heath,Birmingham",,Saturday,False,False,False,True,Open to all on request,"Format Varies,Share meeting,Parking Available","Venue Info: Entrance is through the white door through the car park on the left side of the church building. Once inside turn right then left and take the stairs up, the meeting room is on the right at the top of the stairs.
Currently Experience, Strength, and Hope main shares.
Bus Routes: 11A, 11C, 27, 35, 50, 76
Travel Comment: The venue is a bus route away from the station.",Birmingham,Midlands,England,Narcotics Anonymous
e1de579b-afd1-5185-bb8b-16466e7bcadb,LGBTQIA+ All Inclusive Meeting,19:00,1hr 15mins,B1 1EQ,52.47472,-1.899677,"LGBT Centre Cafe, Birmingham LGBT Centre","38-40 Holloway Circus Birmingham,Birmingham",,Friday,False,True,False,True,Open to all on request,"Beginner/Newcomer,LGBT+,Format Varies,Share meeting","All service positions currently available.
Travel Comment: 5 minute walk from New Street Station7 minute walk from Moor Street Station",Birmingham,Midlands,England,Narcotics Anonymous
abf6a9d7-77f2-56b8-8e8a-282be7cb6e7c,Mission Monday,19:30,1hr 30mins,B16 9JN,52.473639,-1.945043,,"9 Lyttleton Rd, Off St Augustines Rd, Edgbaston",,Monday,False,True,False,True,Open to all on request,"Beginner/Newcomer,Basic Text,Restricted Access,Format Varies,Share meeting,No children,Pets Welcome","Venue Info: St Augustine's House is not at the main church but across the road.
Service positions available.
Travel Comment: All buses and trains that arrive in the city centre. The venue is next to the mailbox and 5 min walk from grand central station",Birmingham,Midlands,England,Narcotics Anonymous
9d359e49-0823-556d-9b69-72bcabaeddda,Rahaei Birmingham,17:00,1hr 30mins,B10 0PR,52.470231,-1.866041,All Saints Church,"172 Herbert Road,Birmingham",,Sunday,False,True,False,False,Open to addicts only,"Beginner/Newcomer,Speaker,Format Varies,No pets,No children,Parking Available","The Format of Meeting is Experience, Strength & Hope Every Week.",Birmingham,Midlands,England,Narcotics Anonymous
5c20bd61-f134-5861-ac63-f0cd9759512e,Saturday Night Survival,18:00,1hr 30mins,B27 6HE,52.45122,-1.820351,Arthur Moor Hall,"2B Alexander Road,Acocks Green,Birmingham",,Saturday,False,True,False,True,Open to all,"Format Varies,Share meeting",,Birmingham,Midlands,England,Narcotics Anonymous
748f58d7-3061-53cf-aef1-8bd7a6635766,Serene On The Green,12:00,"1hr ",B27 6HE,52.45122,-1.820351,Arthur Moor Hall,"Alexander Road,Acocks Green,Birmingham",,Saturday,False,True,False,True,Open to all,"Beginner/Newcomer,Children Welcome,Speaker","The meeting's format is an experience, strength, and, hope share followed by general share.
Travel Comment: The venue is a less than 5-minute walk from Acocks Station station.",Birmingham,Midlands,England,Narcotics Anonymous
0b8c4d0b-14f5-5bfb-8897-5ba57d0c3bef,Serenity On A Sunday Morning,11:00,1hr 30mins,B13 8DD,52.447087,-1.888401,"Main Hall, St Columba URC Church Moseley","Chantry Road,Moseley,Birmingham",,Sunday,False,True,False,True,Open to all on request,Speaker,"Venue Info: Enter at ally, in-between Church & hall.",Birmingham,Midlands,England,Narcotics Anonymous
9841a060-5c0a-5f5e-b36c-161c0a41fab2,Serenity Sundays,18:00,"1hr ",B45 8SN,52.391276,-2.003174,"Main Hall, Edgewood Road Tenants Hall","Edgewood Road,Rednal",,Sunday,False,False,False,True,Open to all on request,"Beginner/Newcomer,Just For Today Book Study,Speaker,Share meeting","Venue Info: 5 Minutes Walk from Rubery Morrisons
The Format of the Meeting Alternates from an Experience, Strength & Hope Main Share and the Just for Today Reading and Sharing Back.",Birmingham,Midlands,England,Narcotics Anonymous
15801413-708f-5b68-8432-5704ac20463a,Solihull,19:30,1hr 30mins,B91 3QE,52.413698,-1.78105,"Church Hall, St Augustine’S Church","1 Herbert Road,Solihull",,Friday,False,True,False,True,Open to all,"Beginner/Newcomer,Children Welcome,Speaker,Step,Share meeting,Parking Available,Pets Welcome","Venue Info: The Entrance Door to the Meeting is in the Car Park Round at the Rear of the Church.
The Format of the Meeting is an Experience, Strength & Hope Chair Every Week.",Birmingham,Midlands,England,Narcotics Anonymous
8f7af351-a811-5bd3-8b55-9b059892a51b,Step In The Right Direction,19:00,1hr 15mins,B25 8JF,52.460529,-1.819292,South Yardley Methodist Church,"Broadyates Road,Birmingham",,Sunday,False,False,False,True,Open to all on request,Beginner/Newcomer,Venue Info: corner of Broadyates Road and Coventry Road,Birmingham,Midlands,England,Narcotics Anonymous
28c5c76b-fcd7-517a-82fa-eb501a77408c,Sunday Night Survivors,19:00,1hr 30mins,B73 6AA,52.563825,-1.824317,Sutton Coldfield United Reform Church,"1 Brassington Avenue,Sutton Coldfield",,Sunday,False,True,False,True,Open to all on request,"Beginner/Newcomer,Speaker,Chit/MAC,No pets","Venue Info: The Venture Entrace is at the Front
The Format of the Meeting is a Weekly Share.
MAC
Bus Routes: X3, X4, X5, 66, 907,
Travel Comment: The Venue is Opposite Parkers Cars",Birmingham,Midlands,England,Narcotics Anonymous
9afdcda5-60c6-568c-b1c2-97272da41a70,Thank God Its Northfield On Fridays,19:30,"1hr ",B31 1TT,52.421954,-1.98248,Holloway Hall Community Centre,"Holloway,Birmingham",,Friday,False,True,False,True,Open to all,"Beginner/Newcomer,Literature Study,Speaker,Format Varies,Chit/MAC","Venue Info: Front door through and the first hall on the left-hand side.
Literature and Experience, Strength, and, Hope meeting.
Bus Routes: 18",Birmingham,Midlands,England,Narcotics Anonymous
5cb3c348-5000-5dc4-a414-9fbddf91018e,The Spirit Of Recovery,19:00,1hr 30mins,B27 7YE,52.443723,-1.822994,"Main Hall, Acocks Green Methodist Church","1 Botteville Road,Birmingham",,Friday,False,True,False,True,Open to all on request,"Topic,Chit/MAC","Venue Info: Parking is available on the street outside the venue.
Meeting format Topic experience strength and hope on a spiritual principle.
20 minutes main share
3 minutes share back time
Bus Routes: 4A, 11",Birmingham,Midlands,England,Narcotics Anonymous
793122d4-eeff-5032-9c15-4088c5cb0606,Together We Can,19:30,1hr 30mins,B90 3AG,52.411437,-1.827224,"The Lounge, The Bridge","234 Stratford Road,Shirley,Solihull",,Tuesday,False,True,False,True,Open to all on request,"Speaker,Chit/MAC,No pets,Share meeting,Parking Available","Venue Info: The bridge is located in Shirley Park.Parking available on Stratford Road also venue has a limited amount of parking.
1hr 30 minute meeting. 10 minute comfort break at 8.15pm
Smoking not permitted (smokers have to go to other side of carpark)
Bus Routes: 4A,5,6",Birmingham,Midlands,England,Narcotics Anonymous
93ee1011-bb15-52f8-ae40-47f8604b7064,Treasure Tuesdays,19:00,1hr 15mins,B60 3JP,52.323366,-2.069319,St Andrews Church,"Lyttleton Avenue,Charford,Bromsgrove",,Tuesday,False,True,False,True,Open to all on request,"Beginner/Newcomer,Basic Text,Children Welcome,Literature Study,Speaker,Share meeting,Pitch/Electric Share,Parking Available,Pets Welcome","Venue Info: In the Big Wooden Shed at the Top of the Hill
The Format of Meeting can Alternate from an Experience, Strength & Hope Main Chair, Ask-it-Basket and NA Literature.
Travel Comment: The Venue is 15 Minutes Walk from Station",Birmingham,Midlands,England,Narcotics Anonymous
83fb85ca-c613-5929-9e57-5c8d9a98a43e,West Midlands Serenity,19:00,"1hr ",B33 9QY,52.481919,-1.78379,"St Richards Vicarage, Hallmoor Rd, Birmingham B33 9QY, St Richards Church","Hallmoor Road,Birmingham",,Tuesday,False,True,False,False,Open to addicts only,"Basic Text,No children","Venue Info: Back door to enter into meeting access point
To start on the 7th January 25
Bus Routes: 97 and 14",Birmingham,Midlands,England,Narcotics Anonymous
bcff83c7-b782-5451-8a55-e76d8022606b,Widney Manor Tuesdays,19:00,1hr 15mins,B93 9AB,52.390958,-1.767754,St Columbus Missionary,"Widney Manor Road,Widney Manor,Solihull",,Tuesday,False,True,False,True,Open to all on request,"Living Clean Study,Literature Study,Speaker,Step,Format Varies,No pets,Share meeting,No children,Book Study,Parking Available,Spiritual Principle A Day","Venue Info: Picture of Entrance to St Columbus. Go to the End of the Car Park, Entrance is Through the Double Brown Glazed Doors and the Room is on the Left.
The Format of the Meeting is a Literature Study and a Main Share Once a Month. 
Week 1 - Living Clean Chapter 
Week 2 - Step Main Share
Week 3 - JFT & Basic Text Readings 
Week 4 - Spiritual Principle a Day Reading",Birmingham,Midlands,England,Narcotics Anonymous
a6ed5f82-ad0f-5c7e-be87-65f6a8c04d87,Candlelit,19:30,1hr 30mins,WV10 0QQ,52.595781,-2.097666,St Patrick's Rc Church,299 Wolverhampton Rd (Rear Of Church),,Friday,False,False,False,True,Open to all,"Candlelight,Speaker,Share meeting,Parking Available",Vaping no longer allowed at this meeting - visitors welcome,Black Country,Midlands,England,Narcotics Anonymous
392a2799-4623-5fbc-913a-c4d842cabdf2,Cannock NA,19:30,1hr 30mins,WS11 1DE,52.688971,-2.029694,St Luke's Church,"Church Street,Cannock",,Thursday,False,True,False,True,Open to all on request,"Beginner/Newcomer,Basic Text,Speaker,Step,Format Varies,Share meeting,Parking Available",Venue Info: Community building at back of Church,Black Country,Midlands,England,Narcotics Anonymous
be8c257d-ad88-5e0a-933d-44247c38b9d4,Friday Freedom,12:30,1hr 30mins,DY9 8EL,52.460915,-2.116029,Atlantic Recovery Center,"Dudley Road,Brierly Hill,Stourbridge",,Friday,False,True,False,True,Open to all on request,Format Varies,"Venue Info: The post code takes you close, but not directly to the venue, look for the air ambulance building and go up the drive across the front of there. Look out for the Aldi.
Bus Routes: 9,7",Black Country,Midlands,England,Narcotics Anonymous
944b6bf2-9412-5f63-98e2-644700588869,Friday Friends In Recovery,19:00,1hr 30mins,DY8 1UR,52.458812,-2.150467,Quaker Meeting House,Scotts Rd,,Friday,False,False,False,True,Open to all on request,"Beginner/Newcomer,Smoking,Speaker,Step,Format Varies,No pets,Share meeting,Parking Available",Venue Info: No parking is allowed by the Quaker meeting house. Please use the car park on Enville Street. The venue can be accessed through the alley next to the car park which will be sign posted.,Black Country,Midlands,England,Narcotics Anonymous
d3900569-76c1-582b-a148-ca132e223f0a,Happy Mondays In The Bungalow,19:00,1hr 15mins,WS11 4PS,52.697825,-2.03189,"Living Room, Bevan Lee Community Centre","28 Bevan Lee Road,Cannock",,Monday,False,False,False,True,Open to all on request,"Beginner/Newcomer,Basic Text,Candlelight,Format Varies,Share meeting",Venue Info: Bungalow on the corner,Black Country,Midlands,England,Narcotics Anonymous
f674bd94-d2ab-5a43-a886-ffc443de4591,Just For Today,09:30,1hr 15mins,DY1 1LA,52.51148,-2.080864,"Main Room, Cranstoun Here4youth Dudley","1 Castle Street,Dudley,Dudley",,Sunday,False,True,False,True,Open to all,Just For Today Book Study,"Venue Info: The venue is next to the church on Castle Street.
The meeting is just for today book study and on the first Sunday of each month, there is an experience, strength, and hope share.",Black Country,Midlands,England,Narcotics Anonymous
a8cf38b7-6abb-586c-80d6-2f069f0cdef4,Just For Today,18:30,"1hr ",DY1 1LA,52.51148,-2.080864,"Main Room, Cranstoun Here 4Youth Dudley","1 Castle Street,Dudley",,Sunday,False,True,False,True,Open to all on request,"Just For Today Book Study,No pets,Share meeting","Venue Info: The Venue is next to the Church on Castle Street.
The Format of the Meeting is Reading from the Just for Today and Sharing Back.",Black Country,Midlands,England,Narcotics Anonymous
e6238f90-a624-57bd-965b-791fc49ad09b,Just For Today,16:00,1hr 40mins,DY1 1QD,52.508857,-2.087263,Top Church,High St,,Saturday,False,False,False,True,Open to all on request,"Beginner/Newcomer,Basic Text,Just For Today Book Study,Questions & Answers,Speaker","Venue Info: Meeting is hold in Lithuanian languageWhen attending please ring the bell, or knock the doors
We are lithuanian speaking meeting but welcome any addict searching help.",Black Country,Midlands,England,Narcotics Anonymous
f98bc563-e751-59fb-bc24-93f43fea1abb,Men's NA Living Clean Meeting,19:30,1hr 30mins,DY1 1QD,52.508857,-2.087263,Top Church,High St,,Wednesday,False,True,False,True,Open to all on request,"Living Clean Study,Men,Topic,Chit/MAC,No pets,Share meeting,Book Study","Venue Info: Located at the end as you enter the buildingEntrance facing the road, greeters will be outside till the meeting starts.
NA Living Clean book reading then open for people to share back. There is a Topic share first Wednesday of the month.",Black Country,Midlands,England,Narcotics Anonymous
170676bc-2ab1-5676-9860-3f5bd89d731b,Monday's NA Message,19:30,1hr 30mins,WS2 9JZ,52.584343,-1.986172,"Main Room, CGL Walsall","30-30A Station Street,Walsall",,Monday,False,False,False,True,Open to all,Format Varies,Venue Info: Come to the back of the venue via the car park on the side and rear,Black Country,Midlands,England,Narcotics Anonymous
c6708345-0bc7-548f-abfe-88b5f2f665a0,Never Alone Never Again,19:00,1hr 15mins,WS13 6HL,52.682171,-1.827571,"In The Loft, Wade Street Church","Wade Street,Lichfield",,Tuesday,False,False,False,True,Open to all on request,"Beginner/Newcomer,Just For Today Book Study,Format Varies,Share meeting","Venue Info: Entrance is on Frog Lane, follow Wade Street oneway to the back of the church and entrance is on left of building down the left side",Black Country,Midlands,England,Narcotics Anonymous
a86bf625-9c8b-5142-8971-282ec12f7cda,Saturday Night Surrender,18:00,1hr 15mins,WS13 6HL,52.682171,-1.827571,"The Hall, Wade Street Church","Wade Street,Lichfield",,Saturday,False,False,False,True,Open to all on request,"Beginner/Newcomer,Basic Text,Speaker,Step,Format Varies","Venue Info: Entrance is on Frog Lane at back of the church follow one way system round. There is a side alley entrance, but greeters will be Outside the building.",Black Country,Midlands,England,Narcotics Anonymous
7bee78c0-7c15-5165-95c8-ee46442f66c3,Saturday Women's,11:00,1hr 15mins,DY9 8BQ,52.463514,-2.115167,Atlantic House,Dudley Rd,,Saturday,False,True,False,True,Open to all,"Beginner/Newcomer,Children Welcome,Speaker,Format Varies,Women,Parking Available","Venue Info: Use the main entrance if meeting has started, knock on the window far left on the building. Sometimes using a satnav takes you further up the road, the venue is behind the JAM building
Last meeting of the month finishes 15 minute early to allow time for group conscience
Bus Routes: 7, 9",Black Country,Midlands,England,Narcotics Anonymous
3527b6c4-6917-5551-89cc-ff32b4aa7ab2,Spiritual Sisters,19:30,1hr 30mins,WV10 0QQ,52.595781,-2.097666,St Patrick's Rc Church,299 Wolverhampton Rd (Rear Of Church),,Wednesday,False,True,False,True,Open to all on request,"Children Welcome,Just For Today Book Study,Speaker,Women,Share meeting,Parking Available,Pets Welcome","Venue Info: The Church is on the Main Road and When you pull in go to the Back of the Car Park and the Meeting Building is on the Left.
The Meeting Format is the Just for Today Reading and Share Back. 
First Wednesday of Every Month is an Experience, Strength & Hope Chair.",Black Country,Midlands,England,Narcotics Anonymous
88132c03-af52-5f45-a9f5-7a34168d49bb,Sundays Are For Sharing,18:00,1hr 15mins,WS3 2HR,52.616131,-2.005525,All Saints Church Hall,"3 Elmore Row,Bloxwich",,Sunday,False,True,False,True,Open to all on request,,Venue Info: At the top of Bloxwich High Street.,Black Country,Midlands,England,Narcotics Anonymous
99a833fe-6f9b-504f-bebc-651a57d303f5,Survivors Sundays,18:30,1hr 30mins,DY10 2JN,52.390389,-2.250655,"Annex Building Attached To Side Of Church, St Mary And All Saints Church","Churchfields,KIDDERMINSTER",,Sunday,False,True,False,True,Open to all on request,"Beginner/Newcomer,Basic Text,Literature Study,Speaker,Step Working Guide Study,Parking Available","Venue Info: There is a carpark at side of building
Open every week on a Sunday evening",Black Country,Midlands,England,Narcotics Anonymous
aa7f838f-5972-552a-b423-36da41a76e26,The War Is Over,19:30,1hr 30mins,WS1 3DG,52.581384,-1.977805,"Room 3, St Matthews Church Centre","St Matthews Close,Walsall",,Thursday,False,True,False,True,Open to all on request,"Beginner/Newcomer,Candlelight,Speaker,Format Varies,Venue unavailable on public holidays,Share meeting,Timer,Parking Available","Venue Info: Ring entry button room 3 to access after start time.
Step share 1 week
Experience, strength and hope 1 week
Spiritual principles 1 week
Just for today 1 week
Travel Comment: The venue is a 15-minute walk from Walsall Train Station and a 10-minute walk from Walsall Bus Station.",Black Country,Midlands,England,Narcotics Anonymous
de6c0fe9-7cbe-5ff3-9999-3cdbd11e8c0c,Thursday Lye,19:00,1hr 30mins,DY9 8BQ,52.463514,-2.115167,Atlantic House,Dudley Rd,,Thursday,False,True,False,True,Open to all on request,"Speaker,No pets,Share meeting,No children,Parking Available",Travel Comment: The venue is a 5-minute walk from the station.,Black Country,Midlands,England,Narcotics Anonymous
9a2bb7cf-09ad-50d2-9811-d0e358eb16d6,Truth In Lye,18:30,1hr 15mins,DY9 8BQ,52.463514,-2.115167,Atlantic House,Dudley Rd,,Monday,False,True,False,False,Open to addicts only,"Beginner/Newcomer,Basic Text,Just For Today Book Study,Speaker,Step,No pets,Share meeting,No children,Parking Available","The Format of the Meeting Varies, Step or Experience, Strength & Hope Share. Literature Reading. or Ask it Basket. 
Service Dogs Allowed at Meeting.
Bus Routes: 9, 7",Black Country,Midlands,England,Narcotics Anonymous
a12cb1dc-9d2b-5eca-bf97-5e1a52c4f5af,Wolverhampton E.S.H Shares,19:30,1hr 30mins,WV10 0QQ,52.595781,-2.097666,St Patrick's Rc Church,299 Wolverhampton Rd (Rear Of Church),,Tuesday,False,True,False,True,Open to all,"Beginner/Newcomer,Speaker,Tradition,Share meeting,Parking Available","Venue Info: The entrance is at the back of the church, by the car park. There is a smaller building at the back of the car park where the meeting is held.
E.S.H
Bus Routes: 59",Black Country,Midlands,England,Narcotics Anonymous
d5f4d1f6-fe4a-5b47-8a79-c48b6fd1046c,Wolverhampton Saturday Night,18:30,1hr 30mins,WV2 4AD,52.582191,-2.125727,St Mary & St John,Snow Hill,,Saturday,False,False,False,True,Open to all,"Format Varies,Parking Available",Venue Info: Entrance to the meeting room is to the right of the church through side door,Black Country,Midlands,England,Narcotics Anonymous
d515bbbe-3179-59e7-9e4c-fba7e581379f,Basic Text Study Group Meeting,19:30,1hr 30mins,BN1 3LJ,50.825008,-0.143427,St. Nicholas Church,"Church Street,Brighton",,Monday,False,True,False,True,Open to all,"Basic Text,Children Welcome,Book Study","Doors Open at 7.00pm. Bring Your Basic Text.
Travel Comment: A Couple of Minutes Walk from Brighton Station",Brighton Area,South East,England,Narcotics Anonymous
b26e1c66-fd83-514b-835f-180919e646ee,Bright’N Shiny,10:00,1hr 15mins,BN1 1AF,50.822545,-0.141565,Friends Meeting House,Ship St,,Saturday,False,False,False,False,Open to addicts only,Speaker,"Venue Info: Turn left in the entrance and up the stairs.
This is a Speaker Meeting
Travel Comment: The Venue is a 10-minute Walk from Brighton Station",Brighton Area,South East,England,Narcotics Anonymous
97c07a09-c5dc-5dc6-85c5-6c3f769b553f,Brighthelm Meeting,12:30,"1hr ",BN1 1YD,50.825952,-0.14055,Brighthelm Centre (Roof Room),North Rd,,Wednesday,False,True,False,False,Open to addicts only,Just For Today Book Study,,Brighton Area,South East,England,Narcotics Anonymous
32f23535-886a-5d09-a2c9-95969118d5d7,Brighton Womens Meeting,18:30,1hr 30mins,BN2 1ED,50.818723,-0.121586,The Crypt,"St Georges Church, St Georges Rd, Kemptown",,Wednesday,False,True,False,False,Open to addicts only,"Speaker,Step,Format Varies,Women,No pets",Newcomers Welcome.,Brighton Area,South East,England,Narcotics Anonymous
60870861-6d50-547e-950c-99bec30c756f,Early Risers,10:45,1hr 15mins,BN1 1YD,50.825952,-0.14055,Brighthelm Centre (Roof Room),North Rd,,Sunday,False,True,False,False,Open to addicts only,Speaker,"""Open to all"" 1st Sunday of month",Brighton Area,South East,England,Narcotics Anonymous
6a2b2352-6eb7-5808-b32c-25c62e435cd8,Hanover Friday - Spiritual Principles,18:00,1hr 30mins,BN2 9UD,50.828861,-0.129599,Hanover Community Centre,"33 Southover Street,Brighton",,Friday,False,False,False,True,Open to all on request,"Children Welcome,Speaker,Share meeting",,Brighton Area,South East,England,Narcotics Anonymous
5cf86e7d-f69d-54b9-b395-1625af7b7b3c,Hanover SATURDAY,19:30,1hr 30mins,BN2 9UD,50.828861,-0.129599,Hanover Community Centre,"33 Southover Street,Brighton",,Saturday,False,False,False,False,Open to addicts only,"Discussion/Participation,Speaker,Share meeting",,Brighton Area,South East,England,Narcotics Anonymous
c1dc195c-a9de-5d25-9661-1587fc8645ad,"Lesbian, Gay, Bi-Sexual Transgender Meeting",18:30,1hr 30mins,BN2 1SA,50.821333,-0.134046,Dorset Gardens Methodist Church,"Dorset Gardens, Kemptown",,Tuesday,False,True,False,True,Open to all on request,"LGBT+,Just For Today Book Study,Share meeting","This meeting is for people who identify as LGBTQI+ but we welcome any addict regardless of their sexuality. 
We share on JFT and sometimes have a main chair who shares their experience, strength and hope.",Brighton Area,South East,England,Narcotics Anonymous
58b48836-f43c-5368-94a7-7abbaf10c66e,Monday Just For Today,19:30,1hr 30mins,BN3 4BB,50.830841,-0.190143,"Main Hall, St Philip's Church","71 New Church Road,Hove",,Monday,False,True,False,False,Open to addicts only,"Just For Today Book Study,Share meeting","Venue Info: Meeting is now in the Main Hall, not the Vestry.
Just For Today reading. Round Robin Sharing.",Brighton Area,South East,England,Narcotics Anonymous
3060f1f5-650a-5285-8241-32277fd8dcce,Queer Connection,18:30,1hr 30mins,BN2 1PR,50.820361,-0.129272,St Mary's Church Hall,"61 St James St, Kemptown",,Friday,False,True,False,False,Open to addicts only,"LGBT+,Format Varies,Share meeting",For the LGBTQ+ Community. After the Meeting There will be Informal Fellowship Over Dinner or Coffees Around the Area.,Brighton Area,South East,England,Narcotics Anonymous
c5086081-8c3e-53c9-9214-d112ec4246f3,Recovery Hub,19:30,1hr 30mins,BN1 4SB,50.83035,-0.134737,Recovery Hub,"St. Peter's Place,Ditchling Road,Brighton",,Tuesday,False,True,False,False,Open to addicts only,"Discussion/Participation,Speaker,Share meeting","Venue Info: The venue is at St Peters Church end of the level.
Travel Comment: The venue is a 15-20 minute walk from Brighton Station.",Brighton Area,South East,England,Narcotics Anonymous
