Guid,Title,Time,Duration,Postcode,Latitude,Longitude,Venue,Address,What3Words,Day,Hearing,Wheelchair,Chit,Open,OpenFormat,Format,Note,Region,Area,Country,Type
b133b92f-7194-54b9-8980-294f77e9af5e,A Woman's Way Through The Twelve Steps,19:00,1hr 15mins,CV36 4DY,52.066217,-1.632041,Catholic Church Of Our Lady & St Michael,Darlingscote Rd,dumpling.gadget.operated,Sunday,False,True,False,False,,,,,,England,Alcoholics Anonymous
05e95c78-10e2-5bba-94d9-274b907920af,Acton Living Sober With The Steps,17:30,1hr,W3 8AA,51.506165,-0.269336,Emmaus House,3 Berrymead Gardens,system.comet.stuck,Sunday,False,True,True,True,All mtgs 'open'.,,Chit system available.,,,England,Alcoholics Anonymous
5f183a0b-ec90-5990-97af-e08dd7cd1b62,Bridlington Themed/Open Discussion,19:30,1hr 30mins,YO15 3EP,54.084338,-0.198695,The Old Parcel Office,Station Approach,traded.solve.anyway,Tuesday,False,True,False,True,2nd Mon each month 'open'.,,,,,England,Alcoholics Anonymous
b1c211c2-97e3-573c-9255-6bf91578a668,Kidderminster,19:30,1hr 30mins,DY10 2NP,52.393419,-2.246322,Salvation Army,"Jerusalem Walk,Off Queen St",policy.bits.hero,Tuesday,False,True,True,True,'Open' mtgs on request.,,Chit system available.,,,England,Alcoholics Anonymous
99aed7d6-4187-5c2a-a42b-4968988ef77a,Kidderminster,19:30,1hr 30mins,DY10 2NP,52.393419,-2.246322,Salvation Army,"Jerusalem Walk,Off Queen St",policy.bits.hero,Thursday,False,True,True,True,'Open' mtgs on request.,,Chit system available.,,,England,Alcoholics Anonymous
93e0c135-afe2-5c14-8537-9fd424710dad,Lincoln Mint Lane Big Book Study,19:30,1hr,LN1 1UD,53.229828,-0.541622,Mint Lane Cafe,12 Mint Lane,dawn.moth.begins,Wednesday,False,False,False,False,,,,,,England,Alcoholics Anonymous
5b48856b-88ec-5029-bb02-53892b1fa65b,New Cross Nareszcie Polish Speaking,19:30,1hr,SE14 6TJ,51.474937,-0.02749,466 New Cross Rd,466 New Cross Rd,noon.plots.fuel,Tuesday,False,False,True,True,All mtgs 'open'.,,Chit system available.,,,England,Alcoholics Anonymous
60c6644b-a96f-56ac-926e-513a5100e699,Sober In Shoreditch,20:00,1hr 30mins,N1 6NP,51.530534,-0.083638,St John's The Baptist Church,Pitfield St,wiping.damp.suffer,Thursday,False,False,True,False,,,Chit system available.,,,England,Alcoholics Anonymous
bc032f56-3042-5af3-a201-09815766c891,Liskeard Recovery - A Woman's Perspective,18:15,1hr,PL14 6BW,50.455709,-4.466296,The New Room,3-5 West St,cropping.exulted.elated,Thursday,False,True,False,True,'Open' mtgs on request.,,,Antrim,Northern Ireland,England,Alcoholics Anonymous
95cede52-46d7-50af-918e-0fcbec791fdc,Bridlington Step Discussion,19:30,1hr 30mins,YO15 3EP,54.084338,-0.198695,The Old Parcel Office,Station Approach,traded.solve.anyway,Friday,False,True,False,True,Last Fri each month 'open'.,,,Armagh,Northern Ireland,England,Alcoholics Anonymous
dffe407c-3018-5d5e-a9f6-8c82bd88f251,Dawlish,19:30,1hr 15mins,EX7 9AP,50.581642,-3.475626,Room 4A,"The Manor House,Old Town St",composts.sulk.rainy,Friday,False,False,False,True,Last Fri each month 'open'.,,,Birmingham,Midlands,England,Alcoholics Anonymous
def84ffd-4962-5fa2-a687-36cb94fa53a6,West End Venice Beach,18:30,1hr,W1W 6HS,51.520058,-0.140077,St Charles Borromeo Church,8 Ogle St.,duke.frozen.making,Wednesday,False,False,False,False,,,,"Blackpool, Fylde and Wyre",North West,England,Alcoholics Anonymous
31e9cc6a-1057-5bab-b30a-ee16c8636013,Portsmouth Zycie Polish Speaking,19:00,1hr 30mins,PO5 2PL,50.785742,-1.077242,St Swthun's Church,"105 Waverley Rd,Southsea",supporter.chose.jams,Saturday,False,False,True,True,All mtgs 'open'.,,Chit system available.,Brighton Area,South East,England,Alcoholics Anonymous
58d906a4-6483-523a-9161-58ca4239a754,Todmorden LGBTQ+ & Allies,19:00,1hr,OL14 7LD,53.712226,-2.099201,The Kindness Hub,36 Rochdale Rd,voucher.gobblers.intruders,Friday,False,False,False,False,,,,Bristol and District,South Midlands,England,Alcoholics Anonymous
c10d6152-b246-5589-8546-22f73a04e490,Soho Late Lunch With Bill,13:30,1hr,WC2H 0EW,51.515109,-0.130276,Soho Recovery Centre,123 Charing Cross Rd,tuck.drum.transit,Saturday,False,False,False,False,,,,Chiltern and Thames,South Midlands,England,Alcoholics Anonymous
58772dc4-7ba5-542a-a9ac-4618039e9bbb,Bromley,19:30,1hr 30mins,BR1 3NS,51.409196,0.0145,Bromley Methodist Church (1St Floor),College Rd,paths.post.spoken,Monday,False,False,False,True,Last Mon each month 'open'.,,"Carpark access is via North St, BR1 1SB. Vehicles must be registered on entry to the church or parking fines will be issued.",Cork,Republic of Ireland,England,Alcoholics Anonymous
c663400b-b4ca-5704-b817-8e97d1696f04,Chacewater,19:30,1hr 30mins,TR4 8PY,50.256664,-5.156671,The WI Hall,Chacewater Main Car Park,sounding.padding.abstracts,Monday,False,True,False,True,'Open' mtgs on request.,,,Cork,Republic of Ireland,England,Alcoholics Anonymous
87620422-a740-5025-8580-4a107b388f33,Chichester,19:30,1hr 30mins,PO19 1NX,50.838072,-0.775324,1St Floor,"Quaker House,Priory Rd",tells.monkey.drape,Friday,False,False,False,True,1st Fri each month 'open'.,,,Cork,Republic of Ireland,England,Alcoholics Anonymous
f4075d10-8a5e-54fc-8e2a-faf642c14e18,Chichester Emotions In Recovery Physical & Online,18:00,1hr 15mins,PO19 1XB,50.832571,-0.77641,St Richard's Church,Cawley Rd,water.list.porch,Sunday,False,True,False,False,,,Parallel zoom mtg - https://us02web.zoom.us/j/510144171?pwd=UzBiUldwMCtBZEVJdVM3aGFHbWk1Zz09 Password: Recovery,Cork,Republic of Ireland,England,Alcoholics Anonymous
c46c189c-783e-53a6-bf5b-8495ebbde4c8,Sturminster Newton,11:00,1hr 30mins,DT10 1DR,50.933045,-2.304247,Stourvale Day Centre,Bath Rd,wipe.miracle.placidly,Sunday,False,True,False,True,First Sun each month 'open'.,,,Coventry and Warwickshire,Midlands,England,Alcoholics Anonymous
a08c6c5c-af6d-536a-a846-d0fced1a7545,Bournemouth Sacred Heart,20:00,1hr 15mins,BH1 1BZ,50.721097,-1.877644,Sacred Heart Church,Richmond Hill,fame.pots.decide,Monday,False,False,False,False,,,,Donegal,Republic of Ireland,England,Alcoholics Anonymous
5a3d094a-c795-5bf5-abc2-7d41670527fd,Newcastle Pogoda Ducha Polish Speaking,15:00,1hr 30mins,NE4 7JN,54.967175,-1.625817,George Street Social,45-51 George St,voter.groom.needed,Saturday,False,False,False,False,,,,Down,Northern Ireland,England,Alcoholics Anonymous
1f6767b3-b46d-5258-a93b-dfd9db988f59,Doncaster Living Sober Hybrid,18:50,1hr 40mins,DN1 1BZ,53.522647,-1.135192,Sober Social,18 Priory Place,faster.push.facing,Monday,False,True,False,True,All mtgs 'open'.,,Zoom Meeting ID : 814 4489 1739  Passcode : SYNED,Dublin,Republic of Ireland,England,Alcoholics Anonymous
34408087-a5d8-5016-a62e-9b4d8b57169f,Hayle,19:30,1hr 30mins,TR27 4BT,50.188273,-5.418783,St Elwyn's Church Hall,Hayle Terrace,shortage.commoners.sums,Friday,False,True,False,True,'Open' mtgs on request.,,,Dumbarton,South West Scotland,England,Alcoholics Anonymous
e67a5136-c193-55da-961e-6ef9b97ff9b2,Colne,19:30,1hr 15mins,BB8 0SY,53.856159,-2.170889,Open Door Project,1 Great George St,down.starter.attitudes,Tuesday,False,False,False,True,'Open' mtgs on request.,,,Durham and Cleveland,North East,England,Alcoholics Anonymous
0ee3dca7-29a1-590c-9d5b-4144483a48a6,Winchester AA Study Group,19:00,1hr,SO23 8BW,51.064393,-1.314832,St Peters Church,Jewry St,explained.chipper.microfilm,Saturday,False,True,False,True,All mtgs 'open'.,,,Durham and Cleveland,North East,England,Alcoholics Anonymous
fbaca1fb-0a09-5e83-badb-e8bb28008593,Bristol Clifton Hybrid,20:00,1hr,BS8 4BT,51.45509,-2.620468,Randall Rm,"Church Of All Saints,68 Prembroke Rd,Clifton",sadly.once.notes,Wednesday,False,False,False,True,'Open' mtgs on request.,,Parallel meeting on Zoom ID: 865 9432 0775 No Password Email: cliftonwednesday@gmail.com,East London,London (North),England,Alcoholics Anonymous
b10de03d-a64b-5eef-9c64-a56c57c755fe,Hull Back To Basics,19:00,1hr,HU9 1TL,53.741269,-0.32392,Victoria Dock Village Hall & Community Centre,South Bridge Rd,range.useful.monday,Wednesday,False,True,False,True,'Open' mtgs on request.,,,East London,London (North),England,Alcoholics Anonymous
99a98e83-bc5e-5a0c-95db-60a2acdcb1db,Goudhurst,20:00,1hr,TN17 1BL,51.114128,0.462033,Goudhurst Church Hall Rooms,Back Lane,bright.perfectly.sweeper,Friday,False,True,True,True,Last Fri each month 'open'.,,The hall is open at 7.30pm for coffee and fellowship before the meeting starts at 8pm.,Essex,Eastern,England,Alcoholics Anonymous
da1b0c13-df12-501a-b594-a53548adc486,Peterborough Share,19:15,1hr 30mins,PE1 5EN,52.578797,-0.230011,East Community Centre,Padholme Rd,finger.supply.gross,Friday,False,True,False,True,'Open' on request.,,Maximum 15 persons permitted (first come basis),Fenland,Eastern,England,Alcoholics Anonymous
4be35df0-1ea1-5378-9688-31c5337c04ab,Chacewater Physical & Online,11:00,1hr 40mins,TR4 8PY,50.256664,-5.156671,The WI Hall,Chacewater Main Car Park,sounding.padding.abstracts,Sunday,False,True,False,True,'Open' mtgs on request.,,Zoom Meeting ID: 3542714206170689  Password: 170689,Galway,Republic of Ireland,England,Alcoholics Anonymous
e9e15011-52a5-5f98-960b-c1d9b8d3b6e0,Bath On Awakening Physical & Online,07:30,1hr,BA1 5LJ,51.384381,-2.360562,St Michael's Without,"Broad St,Bath",spoon.tower.trace,Friday,False,False,False,False,,,Also held on Zoom - Meeting ID: 89892261733 Passcode: 473497,Glasgow South,Glasgow,England,Alcoholics Anonymous
b3578fcc-c892-5ff9-b0a1-07be80749ba8,St Helier Steps & Traditions,19:00,1hr 30mins,JE2 4WR,49.1857482,-2.1020187,Salvation Army,"1St Floor,Minden Place",hydrant.pops.direct,Monday,False,True,False,False,,,Maximum of 20 attendees.,Liverpool City,North West,England,Alcoholics Anonymous
5e3766e7-cc1f-52e5-a3a4-57dbad392a16,Harefield,18:30,1hr,UB9 6BX,51.603473,-0.482039,St Mary's Church,High St,royal.vent.fool,Friday,False,True,False,True,Last Friday each month 'open'.,,,London North Middlesex,London (North),England,Alcoholics Anonymous
05ccfcee-5373-5311-81b9-bbe90f141393,Harefield,12:30,,UB9 6BX,51.603473,-0.482039,St Mary's Church,High St,branded.item.thigh,Sunday,False,False,False,True,All mtgs 'open'.,,,London North Middlesex,London (North),England,Alcoholics Anonymous
73258a86-d523-5e5a-b60f-444d8631c41f,Rushden Share,20:00,,NN10 6AG,52.29808,-0.601238,St Peter's RC Church Lounge,Higham Rd,reprints.nicely.genius,Thursday,False,False,True,True,All mtgs 'open'.,,Postcode for parking across the road on Peck Way NN10 6BD.,London North Middlesex,London (North),England,Alcoholics Anonymous
d92a45af-178b-533e-baad-78bd3422eaa0,Bognor Back To Basics Steps/Discussion,19:30,1hr 30mins,PO21 1JX,50.784073,-0.669666,Our Lady Of Sorrows Catholic Church,Clarence Rd (Albert Rd Entrance Through Car Park At Back Of Church),remedy.layers.brain,Saturday,False,True,False,True,All mtgs 'open'.,,,London South,London (South),England,Alcoholics Anonymous
4c7d3f5a-df3d-5d80-88a4-0b9c733dc47e,Ripon Living Sober,19:00,1hr,HG4 1QE,54.131608,-1.52055,St John The Baptist Church,Bondgate,years.collected.primary,Monday,False,True,False,True,Last Mon each month 'open'.,,Maximum of 15 attendees. Contact email: harrogaterecoveryonline@gmail.com,London South West,London (South),England,Alcoholics Anonymous
7b9184b3-68a8-5b37-9fed-118901cc8623,"Winsford Big Book Study/Experience, Strength & Hope",19:00,2hrs 30mins,CW7 2JS,53.189172,-2.541067,St Josephs RC Church,Woodford Lane,styled.majority.snuck,Wednesday,False,True,False,False,,,"Big book study from 19:00 to 19:45. Experience, strength & hope meeting from 20:00 till 21:30",London South West,London (South),England,Alcoholics Anonymous
9a796cc2-d6dd-57de-a2b3-c6166c330af6,Men's Gratitude In Action - Big Book Study,20:30,1hr,SW19 4AA,51.421863,-0.21078,Trinity United Reformed Church,Mansel Rd,mild.universally.shack,Tuesday,False,True,False,True,All mtgs 'open'.,,,London West End,London (North),England,Alcoholics Anonymous
d87f19a7-16be-58d2-8ab5-b01fe4c0be49,Orpington Chip - The Road To Recovery,10:30,1hr 15mins,BR5 4AL,51.383912,0.108859,St Andrew’S Parish Church,80 Lower Rd,shade.sizes.rash,Tuesday,False,True,False,True,All mtgs 'open'.,,,Manchester,North West,England,Alcoholics Anonymous
f241491a-5e42-5670-a73b-456cda36d026,Clapham Manor Street Hybrid,19:30,1hr,SW4 6BX,51.463848,-0.135053,St Peter's Church Hall,Clapham Manor St,grows.draw.complains,Thursday,False,False,False,True,All mtgs 'open'.,,Also held on zoom - Meeting ID: 813 9316 5339  Passcode: 897 064,Mid Surrey,South East,England,Alcoholics Anonymous
13a5d4c7-b20a-5004-9f9d-78cd9b961d2d,Rhodes Town,10:30,,,36.4340533,28.2176379,Old Hospital,"Queen Olga,Red Cross St 3,Rhodes 85100 (Erithro Stavro)",chains.musician.cherry,Saturday,False,False,False,False,,,This meeting is through the summer only from 15th April til 15th November.,North East Surrey,South East,England,Alcoholics Anonymous
3a61c670-a331-5146-8f2a-b584c555f88f,Stockport There Is A Solution,19:30,1hr 30mins,SK3 8EB,53.398329,-2.161918,Kimberley Street Day Centre,Kimberley St,breed.path.option,Tuesday,False,True,False,True,2nd Tues each month 'open'.,,,North Herts and North Beds,Eastern,England,Alcoholics Anonymous
2d0af5ce-3270-5af2-b43d-3447322b7084,Southwick Big Book Study,18:00,1hr,BN42 4TE,50.834498,-0.233927,Southwick Community Centre,Southwick St,rail.pencil.descended,Wednesday,False,True,False,True,All mtgs 'open'.,,,North West,North West,England,Alcoholics Anonymous
5e542d8e-331d-5b23-800b-d152f3cfcdb3,Hayle Living Sober,19:30,1hr,TR27 4BT,50.188273,-5.418783,St Elwyn's Church Hall,Hayle Terrace,chuckle.distorts.dark,Wednesday,False,True,False,True,All mtgs 'open'.,,,North Yorkshire,North East,England,Alcoholics Anonymous
0a5bedeb-f43b-5aa2-90b6-b1d6fe0fce1b,Leeds Druga Szansa Za Rogiem Polish Speaking,19:30,1hr,LS12 2RE,53.810679,-1.606559,323 Armley Ridge Rd,323 Armley Ridge Rd,influencing.hush.doing,Tuesday,False,True,False,True,Last Tues each month 'open'.,,,Nottinghamshire or Leicestershire,Midlands,England,Alcoholics Anonymous
9051286b-5228-54ed-9c66-48f234294c93,Leeds Keep It Simple,13:00,1hr 30mins,LS9 8HH,53.79707,-1.533172,Yorkshire Dance - Martha's Meeting Rm,"1St Floor,St Peter's Building,3 St Peter's Sq",fever.lands.aware,Saturday,False,True,False,True,Last Sat each mnth 'open'.,,,Nottinghamshire or Leicestershire,Midlands,England,Alcoholics Anonymous
17ab8a11-17e2-5fdf-8245-774a18a2214f,Markyate AA Literature,20:00,1hr,AL3 8JB,51.835963,-0.46583,Markyate Baptist Church,13 Buckwood Rd,rugs.legs.issue,Wednesday,False,True,False,False,,,,Potteries and District,Midlands,England,Alcoholics Anonymous
8460837c-9d4c-5070-a0f6-8890a82a57bc,Cambridge Przebudzenie Polish Speaking,19:00,2hrs,CB4 1AS,52.215784,0.131355,Polonia House,231 Chesterton Rd,relax.police.metals,Saturday,False,False,False,False,,,,Severn,South Midlands,England,Alcoholics Anonymous
34d4e185-3a5f-57f0-b5f4-7744e939ba3b,"The Three Legacy Audio Study Group Of The 12 Steps, 12 Traditions & 12 Concepts",11:00,1hr 40mins,TR4 8PY,50.256664,-5.156671,The WI Hall,Chacewater Main Car Park,sounding.padding.abstracts,Sunday,False,True,True,True,All mtgs 'open'.,,Chit system available.,Shropshire,Wales and Borders,England,Alcoholics Anonymous
c9df27ee-2c05-50c2-8564-34188a60b467,Telford Right Now Polish Speaking,18:15,2hrs,TF1 3BX,52.704343,-2.518933,TACT Strickland House,Wellington,brain.vans.flattery,Saturday,False,False,True,True,All mtgs 'open'.,,Chit system available.,Somerset,South West,England,Alcoholics Anonymous
4cb8d68c-1c45-54a6-b3b6-7f6517db427e,Neston Acceptance Is The Answer,12:00,1hr 30mins,CH64 4AD,53.281274,-3.056514,Saint Michael & All Angels,"Marshlands Rd,Little Neston",harshest.blemishes.cornering,Thursday,False,False,False,False,,,,Swansea and District,Wales and Borders,England,Alcoholics Anonymous
ecf744f0-3199-592b-8d40-0ff22cb88b41,Chester Handbridge Lunchtime,12:30,1hr 30mins,CH4 7HL,53.182272,-2.889728,Saint Mary Without-The-Walls,"Overleigh Rd,Handbridge,,",player.rinse.take,Monday,False,True,False,True,'Open' mtgs on request.,,,Tyrone,Northern Ireland,England,Alcoholics Anonymous
45e9a8fd-9c18-52ab-81dd-3c28ed67e4ff,Oswaldtwistle Step Study,19:30,1hr 30mins,BB5 3PA,53.73756,-2.404296,Immanuel Parish Hall,Cricketers Close,certified.clocked.unfit,Monday,False,True,False,True,'Open' mtgs on request.,,,Tyrone,Northern Ireland,England,Alcoholics Anonymous
b9cc8e5a-b066-5211-9615-10b94632e1a5,Crawley Step & Tradition Hybrid,19:00,1hr 30mins,RH10 8ER,51.120692,-0.180254,St Pauls Methodist Church,Woodfield Rd,adjust.shapes.radio,Thursday,False,True,False,False,,,Zoom meeting ID 533-088-344 Password: S8XgFU,West Kent,South East,England,Alcoholics Anonymous
7fbfbf5c-522f-5698-b3f4-06e729a2ef13,Pimlico Newcomers,07:30,1hr,SW1V 2RT,51.490582,-0.132778,St Margarets Drop In Centre,1 Carey Pl,other.boom.panel,Thursday,False,True,False,True,All mtgs 'open'.,,What three Words	///thin.below.tolls,Wiltshire and Bath,South Midlands,England,Alcoholics Anonymous
59dcf599-839c-5c15-937b-865bfa656fdd,Belfast Lisburn Road,18:00,,BT9 6GF,54.578299,-5.951099,,"62 Lisburn Road,Belfast,Co. Antrim",forget.lanes.paused,Sunday,False,False,False,True,,,"To request link to online meeting email U19@alcoholicsanonymous.ie
The first Monday night meeting of every month is an Open Meeting. Trad meeting last Wednesday of the month.
Meeting rooms are fully accessible for those with impaired mobility.",,,Northern Ireland,Alcoholics Anonymous
747e3551-b2e9-51c3-89b4-06fa7dc599eb,Brocagh,20:30,,BT71 5DY,54.558216,-6.603959,Old School,"Mountjoy Road,Brocagh,Dungannon,Co. Tyrone",scrap.streetcar.meaty,Thursday,False,False,False,False,,,,,,Northern Ireland,Alcoholics Anonymous
3b557687-d53b-5b11-9cfb-2ac3d1bb607b,Brocagh,20:30,,BT71 5DY,54.558216,-6.603959,Old School,"Mountjoy Road,Brocagh,Dungannon,Co. Tyrone",scrap.streetcar.meaty,Sunday,False,False,False,False,,,,,,Northern Ireland,Alcoholics Anonymous
912c4c5c-b5be-58f0-a5ac-e1a163e7e871,Limavady,20:00,,BT49 0NA,55.047582,-6.939103,LCDI,"Limavady Health Centre,Scroggy Road,Limavady,Co. Derry",without.blown.decrease,Sunday,False,False,False,False,,,,,,Northern Ireland,Alcoholics Anonymous
da3fbe29-6c40-535a-a089-633f99ac5677,Lisnaskea Lunchtime,13:00,,BT92 0JB,54.255784,-7.448187,The Archdale Centre,"147 Main Street,Lisnaskea,Co. Fermanagh",vibes.pupils.sketches,Thursday,False,False,False,False,,,Entrance at the back door.,,,Northern Ireland,Alcoholics Anonymous
a9efcfd5-7688-5cee-b56a-14efb92c7b19,Loughgiel,20:00,,BT44 9JN,55.059707,-6.314022,Loughgiel Millennium Centre,"38 Lough Road,Loughgiel,Ballymena",chuck.resolves.spared,Friday,False,False,False,False,,,"Step Meeting 1st Friday of Month
Loughgiel Group of AA (Formerly Cloughmills Group AA)",,,Northern Ireland,Alcoholics Anonymous
0989bfba-5277-515b-97a1-7f76168f4b96,Newcastle 1,12:30,,BT33 0EY,54.198889,-5.888792,,"5 Causeway Road,Newcastle,Co. Down",horseshoe.barefoot.mergers,Monday,False,False,False,False,,,,,,Northern Ireland,Alcoholics Anonymous
2cfbdd87-4a29-5f72-ae54-942831679efa,Newcastle 1,12:30,,BT33 0EY,54.198889,-5.888792,,"5 Causeway Road,Newcastle,Co. Down",horseshoe.barefoot.mergers,Tuesday,False,False,False,False,,,,,,Northern Ireland,Alcoholics Anonymous
9812b568-a50b-5d7f-b401-77e9d7eee185,Newcastle 1,12:30,,BT33 0EY,54.198889,-5.888792,,"5 Causeway Road,Newcastle,Co. Down",horseshoe.barefoot.mergers,Wednesday,False,False,False,False,,,,,,Northern Ireland,Alcoholics Anonymous
0f56d69d-8405-5605-9c52-21efe3f99683,Newcastle 1,12:30,,BT33 0EY,54.198889,-5.888792,,"5 Causeway Road,Newcastle,Co. Down",horseshoe.barefoot.mergers,Thursday,False,False,False,False,,,,,,Northern Ireland,Alcoholics Anonymous
c4146892-a33c-5169-8df4-98984de78a20,Newcastle 1,20:30,,BT33 0EY,54.198889,-5.888792,,"5 Causeway Road,Newcastle,Co. Down",horseshoe.barefoot.mergers,Thursday,False,False,False,False,,,,,,Northern Ireland,Alcoholics Anonymous
7ed427da-0a13-5ffa-b2e0-f8aca7bbf680,Newry Trevor Hill,20:00,,BT34 1DN,54.178255,-6.334944,,"11C Trevor Hill,3Rd Floor,Newry,Co. Down",tells.cake.chats,Wednesday,False,False,False,False,,,,,,Northern Ireland,Alcoholics Anonymous
95d567d9-c9f1-57c3-95a6-174a9d62bd76,Newry Trevor Hill,19:30,,BT34 1DN,54.178255,-6.334944,,"11C Trevor Hill,3Rd Floor,Newry,Co. Down",tells.cake.chats,Friday,False,False,False,False,,,,,,Northern Ireland,Alcoholics Anonymous
4acb484b-a87e-501f-8213-e3a627e4a857,Newry Water Street,10:30,,BT34 1AT,54.174585,-6.338506,Newry Cathedral,"38-40 Hill Street,Newry,Co. Armagh",goats.zealous.empire,Monday,False,False,False,False,,,,,,Northern Ireland,Alcoholics Anonymous
ee7ff4a7-67f8-5767-8db3-d7c92a5398d4,Rostrevor,19:15,,BT34 3BB,54.102505,-6.194955,Harmony Hall,"Church Street,Rostrevor,Co. Down",quilting.highlighted.kingpin,Tuesday,False,False,False,False,,,Behind School house Restaurant,,,Northern Ireland,Alcoholics Anonymous
c1ea9255-2a18-534e-b813-daba777b9f58,Rostrevor,20:30,,BT34 3BB,54.102505,-6.194955,Harmony Hall,"Church Street,Rostrevor,Co. Down",quilting.highlighted.kingpin,Friday,False,False,False,False,,Steps,Behind School house Restaurant,,,Northern Ireland,Alcoholics Anonymous
c0569bba-8f44-5a52-ba9a-c593fe08567b,Rostrevor,10:30,,BT34 3BB,54.102505,-6.194955,Harmony Hall,"Church Street,Rostrevor,Co. Down",quilting.highlighted.kingpin,Sunday,False,False,False,False,,,Behind School house Restaurant,,,Northern Ireland,Alcoholics Anonymous
12de13f6-faec-562c-ba0e-93dd811476c3,Ballycastle,20:30,,BT54 6AX,55.1995653,-6.255014,Ballycastle Presbyterian Church,"1 Castle Street,Ballycastle,Co. Antrim,BT 546AS",striving.lifeguard.annual,Wednesday,False,False,False,False,,,,Antrim,Northern Ireland,Northern Ireland,Alcoholics Anonymous
bbf1e00f-f397-5092-946a-48737a3e78a5,Lisburn Bridge,19:30,,BT28 1XP,54.513169,-6.044006,Bridge Community Centre,"50 Railway Street,Lisburn,Co. Antrim",craft.bank.enter,Wednesday,False,False,False,False,,,,Antrim,Northern Ireland,Northern Ireland,Alcoholics Anonymous
2e45eb59-2083-5338-a981-ba8ed70f657b,Lisburn Bridge,19:30,,BT28 1XP,54.513169,-6.044006,Bridge Community Centre,"50 Railway Street,Lisburn,Co. Antrim",craft.bank.enter,Friday,False,False,False,False,,,,Antrim,Northern Ireland,Northern Ireland,Alcoholics Anonymous
6bcc7af1-83ed-5593-ba4e-cfe81fb7d967,Lisburn Central Group,19:00,,BT28 1EP,54.510741,-6.04948,St. Patrick's Church,"Parochial Rooms,29 Chapel Hill,Lisburn,Co. Antrim",legs.tamed.eating,Monday,False,False,False,False,,,To request link to online meeting email U30@alcoholicsanonymous.ie,Antrim,Northern Ireland,Northern Ireland,Alcoholics Anonymous
d522ee10-478d-59d5-be61-993f2a49720b,Lisburn Central Group,12:30,,BT28 1EP,54.510741,-6.04948,St. Patrick's Church,"Parochial Rooms,29 Chapel Hill,Lisburn,Co. Antrim",legs.tamed.eating,Wednesday,False,False,False,False,,,To request link to online meeting email U30@alcoholicsanonymous.ie,Antrim,Northern Ireland,Northern Ireland,Alcoholics Anonymous
70287ada-29a3-5c6a-bb7e-8e7a9272c5f6,Lisburn Central Group,19:00,,BT28 1EP,54.510741,-6.04948,St. Patrick's Church,"Parochial Rooms,29 Chapel Hill,Lisburn,Co. Antrim",legs.tamed.eating,Saturday,False,False,False,False,,,To request link to online meeting email U30@alcoholicsanonymous.ie,Antrim,Northern Ireland,Northern Ireland,Alcoholics Anonymous
76949b9d-dd90-5eaa-be47-3d31d228b960,Lisnaskea First,20:30,,BT92 0JE,54.252308,-7.442695,Oak Healthy Centre,"Lite House,179 Cross Street,Lisnaskea,Co. Fermanagh",mint.amuse.expansion,Tuesday,False,False,False,False,,,,Antrim,Northern Ireland,Northern Ireland,Alcoholics Anonymous
9785e77f-07d2-5e8d-adc5-85bfe5b4e372,Lisnaskea First,20:30,,BT92 0JE,54.252308,-7.442695,Oak Healthy Centre,"Lite House,179 Cross Street,Lisnaskea,Co. Fermanagh",mint.amuse.expansion,Friday,False,False,False,False,,,,Antrim,Northern Ireland,Northern Ireland,Alcoholics Anonymous
81a3bcfa-c1d4-501a-951b-f351cb3a48de,Omagh Country Group,20:30,,BT79 7QP,54.692109,-7.087182,Old School House,"277 Crockanboy Road,Greencastle,Omagh,Co. Tyrone",spring.sparrows.cashier,Wednesday,False,False,False,False,,,,Argyll,Highland and Islands,Northern Ireland,Alcoholics Anonymous
7ecdb881-21e3-5287-9dea-ec8cf7bb4119,Omagh Killyclogher,20:30,,BT79 7LT,54.60895,-7.269869,St. Mary's Primary School Killyclogher,"Omagh,Co. Tyrone",defeat.boater.questions,Thursday,False,False,False,False,,Steps,,Argyll,Highland and Islands,Northern Ireland,Alcoholics Anonymous
de84212d-4569-5736-86c7-d74f42048a54,Belfast Crumlin Road,20:30,,BT14 7GE,54.61262,-5.962703,,"432 Crumlin Road,Belfast,Co. Antrim",badge.wants.rare,Wednesday,False,False,False,False,,,,Armagh,Northern Ireland,Northern Ireland,Alcoholics Anonymous
82c608b4-5448-567f-9ef6-98a9016ee6b0,Newtownabbey Abbey Group,20:30,,BT37 0SL,54.676235,-5.89353,Whiteabbey Methodist Church Hall,"566-568 Shore Road,Newtownabbey,Co. Antrim",acclaim.rebel.meanders,Sunday,False,False,False,False,,,,Armagh,Northern Ireland,Northern Ireland,Alcoholics Anonymous
de89f518-4d6d-56e0-ac2a-089e75579054,Warrenpoint Burren,20:30,,BT34 3PU,54.127607,-6.26376,,"84 Milltown Street,Burren,Warrenpoint,Co. Down",traders.fatigued.tree,Tuesday,False,False,False,False,,,,Black Country,Midlands,Northern Ireland,Alcoholics Anonymous
1792a29f-8bc1-546d-ad45-bf01d17d6c19,Warrenpoint Burren,13:00,,BT34 3PU,54.127607,-6.26376,,"84 Milltown Street,Burren,Warrenpoint,Co. Down",traders.fatigued.tree,Thursday,False,False,False,False,,,,Black Country,Midlands,Northern Ireland,Alcoholics Anonymous
fc43187b-4249-5784-a4f7-3f84d9f90605,Belfast Antrim Road,20:30,,BT15 2BP,54.609617,-5.935021,Ashton Centre,"5 Churchill Street,Belfast,Co. Antrim",pots.obey.horses,Tuesday,False,False,False,True,,,,"Blackpool, Fylde and Wyre",North West,Northern Ireland,Alcoholics Anonymous
30d1b596-a44d-525b-bc3e-72f6722cc517,Belfast Antrim Road,20:30,,BT15 2BP,54.609617,-5.935021,Ashton Centre,"5 Churchill Street,Belfast,Co. Antrim",pots.obey.horses,Friday,False,False,False,False,,Steps,,"Blackpool, Fylde and Wyre",North West,Northern Ireland,Alcoholics Anonymous
1b73972e-92db-5b98-8cdd-3476ea02faa6,Belfast Antrim Road,20:30,,BT15 2BP,54.609617,-5.935021,Ashton Centre,"5 Churchill Street,Belfast,Co. Antrim",pots.obey.horses,Saturday,False,False,False,False,,,,"Blackpool, Fylde and Wyre",North West,Northern Ireland,Alcoholics Anonymous
e539caf6-84bc-58da-834c-31b771679e21,Belfast Antrim Road,20:30,,BT15 2BP,54.609617,-5.935021,Ashton Centre,"5 Churchill Street,Belfast,Co. Antrim",pots.obey.horses,Sunday,False,False,False,False,,,,"Blackpool, Fylde and Wyre",North West,Northern Ireland,Alcoholics Anonymous
b28957e2-e2a9-5db1-9592-b2fbbac07a3a,Holywood AA Group,20:00,,BT18 9DP,54.640637,-5.834955,,"52A Church View,Holywood,Co. Down",scale.performed.stubble,Tuesday,False,False,False,False,,,"To request link/codes to online meeting, email U118@alcoholicsanonymous.ie",Brighton Area,South East,Northern Ireland,Alcoholics Anonymous
0602bc84-e92d-508a-a4d8-6bd250d724fc,Holywood AA Group,19:00,,BT18 9DP,54.640637,-5.834955,,"52A Church View,Holywood,Co. Down",scale.performed.stubble,Saturday,False,False,False,False,,Steps,"To request link/codes to online meeting, email U118@alcoholicsanonymous.ie",Brighton Area,South East,Northern Ireland,Alcoholics Anonymous
17355b37-99fb-504d-ac88-2a5fc57fd534,Holywood AA Group,19:00,,BT18 9DP,54.640637,-5.834955,,"52A Church View,Holywood,Co. Down",scale.performed.stubble,Sunday,False,False,False,False,,Tradition,"To request link/codes to online meeting, email U118@alcoholicsanonymous.ie",Brighton Area,South East,Northern Ireland,Alcoholics Anonymous
a0f1a7b9-0979-581c-9904-e1a0e92cf81e,Richhill,20:30,,BT61 9PJ,54.371936,-6.550398,Womens Inistitute Hall,"Main Street,Richhill,Co. Armagh",drummers.modes.coach,Sunday,False,False,False,False,,,,Cardiff and District,Wales and Borders,Northern Ireland,Alcoholics Anonymous
3e6385a9-6ec2-5e7e-98be-e5f9aac2fd83,Belfast East End,20:30,,BT4 1AF,54.598491,-5.899419,Skainos Centre,"239 Newtownards Road,Belfast,Co. Antrim",freed.pencil.silly,Saturday,False,False,False,True,,,"Zoom Meeting: To request link to online meeting email U17@alcoholicsanonymous.ie
Last Sunday of month 20.30 is an Open meeting",Cornwall,South West,Northern Ireland,Alcoholics Anonymous
d485bf13-5ef3-5859-9682-3437e2d590fb,Maghera Group,20:30,,BT45 5DA,54.755587,-6.608932,Maghera Cross Community Link,"49 St. Lurachs Road,Maghera,Co. Derry",crinkled.defend.remarks,Wednesday,False,False,False,False,,,,Derry,Northern Ireland,Northern Ireland,Alcoholics Anonymous
7275a56b-6c6b-5d70-a6ed-2f325aef5844,Creggan,20:30,,BT48 9QE,54.996329,-7.34452,St. Mary's Church,"1 Fanad Drive,Creggan,Derry",loudly.text.photos,Thursday,False,False,False,False,,Steps,,Down,Northern Ireland,Northern Ireland,Alcoholics Anonymous
e0e0d2a8-8f60-5f05-9b98-5352d80c1e97,Creggan,20:30,,BT48 9QE,54.996329,-7.34452,St. Mary's Church,"1 Fanad Drive,Creggan,Derry",loudly.text.photos,Sunday,False,False,False,False,,,,Down,Northern Ireland,Northern Ireland,Alcoholics Anonymous
d5999268-6b84-54f5-b844-d4ac27b10279,Hilltown,20:30,,BT34 5UY,54.201049,-6.131519,Parochial House,"17 Castlewellan Road,Ballymaghery,Hilltown,Co. Down",migrants.amid.expressed,Sunday,False,False,False,False,,,,Down,Northern Ireland,Northern Ireland,Alcoholics Anonymous
760b9c4b-75e5-5d8d-8204-aaf4608952b9,Waterside First Derry Group,20:00,,BT47 6BG,54.99552,-7.307191,Rossdowney House,"Glendermott Road,Waterside,Derry",cages.boat.cove,Monday,False,False,False,False,,Steps,,Down,Northern Ireland,Northern Ireland,Alcoholics Anonymous
08ca7732-7791-539c-893d-0b3901e8e144,Waterside First Derry Group,20:00,,BT47 6BG,54.99552,-7.307191,Rossdowney House,"Glendermott Road,Waterside,Derry",cages.boat.cove,Wednesday,False,False,False,False,,Steps,,Down,Northern Ireland,Northern Ireland,Alcoholics Anonymous
180d31f5-c7f4-5c71-990e-08f4bc689814,Waterside First Derry Group,20:00,,BT47 6BG,54.99552,-7.307191,Rossdowney House,"Glendermott Road,Waterside,Derry",cages.boat.cove,Friday,False,False,False,False,,Tradition,,Down,Northern Ireland,Northern Ireland,Alcoholics Anonymous
01c91ef4-7c52-5fe3-aa10-74f42a654a26,Belfast Dunmurry,20:00,,BT17 9RR,54.551727,-5.998139,Fullerton Park,"Glenburn Road,Dunmurry,Belfast,Co. Antrim",frozen.work.lasted,Wednesday,False,False,False,False,,,,Dublin,Republic of Ireland,Northern Ireland,Alcoholics Anonymous
9971b914-50b3-5913-8cfa-f85622e2b388,Belfast Dunmurry,20:00,,BT17 9RR,54.551727,-5.998139,Fullerton Park,"Glenburn Road,Dunmurry,Belfast,Co. Antrim",frozen.work.lasted,Sunday,False,False,False,False,,Steps,,Dublin,Republic of Ireland,Northern Ireland,Alcoholics Anonymous
354acc29-25d7-50cd-9be0-200d0a478c34,Belfast East End,12:00,,BT4 1AF,54.598491,-5.899419,Skainos Centre,"239 Newtownards Road,Belfast,Co. Antrim",freed.pencil.silly,Monday,False,False,False,True,,,"Zoom Meeting: To request link to online meeting email U17@alcoholicsanonymous.ie
Last Sunday of month 20.30 is an Open meeting",Dublin,Republic of Ireland,Northern Ireland,Alcoholics Anonymous
64cbe395-8241-52c1-87d8-3495beedb078,Belfast East End,20:30,,BT4 1AF,54.598491,-5.899419,Skainos Centre,"239 Newtownards Road,Belfast,Co. Antrim",freed.pencil.silly,Monday,False,False,False,True,,,"Zoom Meeting: To request link to online meeting email U17@alcoholicsanonymous.ie
Last Sunday of month 20.30 is an Open meeting",Dublin,Republic of Ireland,Northern Ireland,Alcoholics Anonymous
f2683533-e8e7-54ff-ac71-302dd71dea5c,Derry City Queen Street,11:30,,BT48 7EG,55.000638,-7.324338,,"12 Queen Street (Up The Lane And Yard),Derry",lifted.plenty.sang,Monday,False,False,False,False,,Steps,,Dublin,Republic of Ireland,Northern Ireland,Alcoholics Anonymous
872d4944-74c3-5bb2-89de-52c213191392,Derry City Queen Street,11:30,,BT48 7EG,55.000638,-7.324338,,"12 Queen Street (Up The Lane And Yard),Derry",lifted.plenty.sang,Tuesday,False,False,False,False,,,,Dublin,Republic of Ireland,Northern Ireland,Alcoholics Anonymous
5cb33bbf-8773-5ca1-811c-f6612fb77104,Derry City Queen Street,20:30,,BT48 7EG,55.000638,-7.324338,,"12 Queen Street (Up The Lane And Yard),Derry",lifted.plenty.sang,Tuesday,False,False,False,False,,Steps,,Dublin,Republic of Ireland,Northern Ireland,Alcoholics Anonymous
22414971-a76c-5c43-bae0-9298aaa5c159,Derry City Queen Street,11:30,,BT48 7EG,55.000638,-7.324338,,"12 Queen Street (Up The Lane And Yard),Derry",lifted.plenty.sang,Wednesday,False,False,False,False,,,,Dublin,Republic of Ireland,Northern Ireland,Alcoholics Anonymous
54faac72-5acb-573c-b01e-28362dcfc51e,Derry City Queen Street,11:30,,BT48 7EG,55.000638,-7.324338,,"12 Queen Street (Up The Lane And Yard),Derry",lifted.plenty.sang,Thursday,False,False,False,False,,Tradition,,Dublin,Republic of Ireland,Northern Ireland,Alcoholics Anonymous
7cf09b50-7e81-5279-9993-3e4b561c17ea,Derry City Queen Street,20:30,,BT48 7EG,55.000638,-7.324338,,"12 Queen Street (Up The Lane And Yard),Derry",lifted.plenty.sang,Thursday,False,False,False,False,,,,Dublin,Republic of Ireland,Northern Ireland,Alcoholics Anonymous
5fb33185-b443-5fc5-885b-4c587f4bd233,Derry City Queen Street,11:30,,BT48 7EG,55.000638,-7.324338,,"12 Queen Street (Up The Lane And Yard),Derry",lifted.plenty.sang,Friday,False,False,False,False,,Steps,,Dublin,Republic of Ireland,Northern Ireland,Alcoholics Anonymous
c02dddec-e4de-5536-ae95-5000f3eea18b,Derry City Queen Street,11:30,,BT48 7EG,55.000638,-7.324338,,"12 Queen Street (Up The Lane And Yard),Derry",lifted.plenty.sang,Saturday,False,False,False,False,,,,Dublin,Republic of Ireland,Northern Ireland,Alcoholics Anonymous
66fe7e9f-a08c-536e-ad07-dc8470023408,Derry City Queen Street,17:30,,BT48 7EG,55.000638,-7.324338,,"12 Queen Street (Up The Lane And Yard),Derry",lifted.plenty.sang,Sunday,False,False,False,False,,,,Dublin,Republic of Ireland,Northern Ireland,Alcoholics Anonymous
9a34ba12-26aa-5a1e-b856-a517ab870fbc,Derry Foyle Group,20:30,,BT48 6AB,54.9980276,-7.32088,First Floor,"33 Shipquay Street,Derry",native.dose.trails,Monday,False,False,False,False,,Big Book,Up 4 Steps. Bell push left side of door. Lift inside,Dublin,Republic of Ireland,Northern Ireland,Alcoholics Anonymous
771f6fdd-7c80-5ed2-b21f-b9253ac1898a,Derry Foyle Group,20:30,,BT48 6AB,54.9980276,-7.32088,First Floor,"33 Shipquay Street,Derry",native.dose.trails,Wednesday,False,False,False,False,,Tradition,Up 4 Steps. Bell push left side of door. Lift inside,Dublin,Republic of Ireland,Northern Ireland,Alcoholics Anonymous
b193c308-2fa7-5770-8d05-6604df942ec1,Derry Foyle Group,20:30,,BT48 6AB,54.9980276,-7.32088,First Floor,"33 Shipquay Street,Derry",native.dose.trails,Friday,False,False,False,False,,Steps,Up 4 Steps. Bell push left side of door. Lift inside,Dublin,Republic of Ireland,Northern Ireland,Alcoholics Anonymous
c4b2e095-4e9d-5232-b7f3-772c0538561d,Derry Foyle Group,11:30,,BT48 6AB,54.9980276,-7.32088,First Floor,"33 Shipquay Street,Derry",native.dose.trails,Sunday,False,False,False,False,,,Up 4 Steps. Bell push left side of door. Lift inside,Dublin,Republic of Ireland,Northern Ireland,Alcoholics Anonymous
f97e334a-6f49-5d1f-aa0a-a616ada33ed1,Derry Galliagh Three Legacies,20:30,,BT48 8JS,55.031147,-7.316944,,"52A Leafair Park,Galliagh,Derry",vibes.trucks.sits,Thursday,False,False,False,False,,Steps,,Dublin,Republic of Ireland,Northern Ireland,Alcoholics Anonymous
3ef3cf4c-c3ee-5070-a17b-06e43e733baa,Derry Galliagh Three Legacies,20:30,,BT48 8JS,55.031147,-7.316944,,"52A Leafair Park,Galliagh,Derry",vibes.trucks.sits,Sunday,False,False,False,False,,,,Dublin,Republic of Ireland,Northern Ireland,Alcoholics Anonymous
ad245306-6388-538a-a353-9c43835f2137,Derry Leafair,20:30,,BT48 8JS,55.031147,-7.316944,,"52A Leafair Park,Galliagh,Derry",vibes.trucks.sits,Wednesday,False,False,False,False,,Steps,,Dublin,Republic of Ireland,Northern Ireland,Alcoholics Anonymous
7a0496bf-3bf1-5d32-8995-210074d802bf,Derry Leafair,20:30,,BT48 8JS,55.031147,-7.316944,,"52A Leafair Park,Galliagh,Derry",vibes.trucks.sits,Saturday,False,False,False,False,,Big Book,,Dublin,Republic of Ireland,Northern Ireland,Alcoholics Anonymous
3a8fddc4-cf35-59e8-ac44-502ebb850261,Draperstown,20:30,,BT45 7AG,54.795579,-6.781544,Community Hub,"The Business Centre Workspace,,Draperstown,Co. Derry",houseboat.spike.butterfly,Friday,False,False,False,False,,,,Dublin,Republic of Ireland,Northern Ireland,Alcoholics Anonymous
c40cfd22-8f47-53b9-bc1b-15321cb54dd2,Draperstown,11:30,,BT45 7AG,54.795579,-6.781544,Community Hub,"The Business Centre Workspace,,Draperstown,Co. Derry",houseboat.spike.butterfly,Sunday,False,False,False,False,,,,Dublin,Republic of Ireland,Northern Ireland,Alcoholics Anonymous
9bdcdfaf-fa2a-548b-97ee-c520fc86d9dc,Lurgan Aghagallon,20:30,,BT67 0AE,54.507052,-6.30594,Cranagh Hall,"Whitehall Road,Aghagallon,Lurgan,Co. Armagh",inhabited.upholds.servicing,Thursday,False,False,False,False,,,,Dublin,Republic of Ireland,Northern Ireland,Alcoholics Anonymous
864a1f4c-525c-554b-933c-1f3db75c07ee,Lurgan Pinebank 1,20:00,,BT66 6EU,54.462939,-6.334476,Roxy Heel Bar,"41A Church Place,Lurgan,Co. Armagh",sushi.leader.sculpture,Sunday,False,False,False,False,,,Above Roxy Heel Bar,Dublin,Republic of Ireland,Northern Ireland,Alcoholics Anonymous
e975e49f-a9d7-55ff-b582-2bf783dbd264,Warrenpoint Burren,20:00,,BT34 3PU,54.127607,-6.26376,,"84 Milltown Street,Burren,Warrenpoint,Co. Down",traders.fatigued.tree,Saturday,False,False,False,False,,Steps,,East Herts or West Essex,Eastern,Northern Ireland,Alcoholics Anonymous
81054f80-37a5-51f8-88d0-b9afda45f856,Cookstown,20:00,,BT80 9LU,54.630307,-6.758448,,"19 Cookstown Enterprise Centre (Behind 040 Cookstown Limited),Derryloran Industrial Estate,,Cookstown,Co. Tyrone",deduct.plump.sectors,Tuesday,False,False,False,False,,,,East Kent,South East,Northern Ireland,Alcoholics Anonymous
223a1398-fe26-5fde-aec4-1fa02bd15886,Cookstown,20:00,,BT80 9LU,54.630307,-6.758448,,"19 Cookstown Enterprise Centre (Behind 040 Cookstown Limited),Derryloran Industrial Estate,,Cookstown,Co. Tyrone",deduct.plump.sectors,Thursday,False,False,False,False,,Steps,,East Kent,South East,Northern Ireland,Alcoholics Anonymous
0b7c5fce-b606-5555-a20d-56fb9ed44eeb,Belfast Lisburn Road,20:00,,BT9 6GF,54.578299,-5.951099,,"62 Lisburn Road,Belfast,Co. Antrim",forget.lanes.paused,Wednesday,False,False,False,True,,Steps,"To request link to online meeting email U19@alcoholicsanonymous.ie
The first Monday night meeting of every month is an Open Meeting. Trad meeting last Wednesday of the month.
Meeting rooms are fully accessible for those with impaired mobility.",East Lancs,North West,Northern Ireland,Alcoholics Anonymous
ff6a0e2a-1a86-5607-b55b-77b0e167a62b,Belfast Lisburn Road,20:00,,BT9 6GF,54.578299,-5.951099,,"62 Lisburn Road,Belfast,Co. Antrim",forget.lanes.paused,Thursday,False,False,False,True,,Beginner,"To request link to online meeting email U19@alcoholicsanonymous.ie
The first Monday night meeting of every month is an Open Meeting. Trad meeting last Wednesday of the month.
Meeting rooms are fully accessible for those with impaired mobility.",East Lancs,North West,Northern Ireland,Alcoholics Anonymous
7671085c-cb4b-5a40-b57c-2723957b33bc,Belfast Lisburn Road,12:30,,BT9 6GF,54.578299,-5.951099,,"62 Lisburn Road,Belfast,Co. Antrim",forget.lanes.paused,Saturday,False,False,False,True,,,"To request link to online meeting email U19@alcoholicsanonymous.ie
The first Monday night meeting of every month is an Open Meeting. Trad meeting last Wednesday of the month.
Meeting rooms are fully accessible for those with impaired mobility.",East Lancs,North West,Northern Ireland,Alcoholics Anonymous
2f06eef0-007f-5d3b-b6e5-ee7dfebe6a9f,Newry Canal Quay Group,20:30,,BT35 6AL,54.178342,-6.338616,,"14 Canal Quay,Newry,Co. Down",slug.punt.facing,Monday,False,False,False,False,,,,Fenland,Eastern,Northern Ireland,Alcoholics Anonymous
2fb4087d-12ea-583d-8974-741451c48938,Belfast East End,12:00,,BT4 1AF,54.598491,-5.899419,Skainos Centre,"239 Newtownards Road,Belfast,Co. Antrim",freed.pencil.silly,Saturday,False,False,False,True,,,"Zoom Meeting: To request link to online meeting email U17@alcoholicsanonymous.ie
Last Sunday of month 20.30 is an Open meeting",Forth Valley,Scotland,Northern Ireland,Alcoholics Anonymous
6034e2b4-580d-5b2b-927f-c1e8567a299a,Belfast East End,14:30,,BT4 1AF,54.598491,-5.899419,Skainos Centre,"239 Newtownards Road,Belfast,Co. Antrim",freed.pencil.silly,Saturday,False,False,False,True,,Beginner,"Zoom Meeting: To request link to online meeting email U17@alcoholicsanonymous.ie
Last Sunday of month 20.30 is an Open meeting",Forth Valley,Scotland,Northern Ireland,Alcoholics Anonymous
bd98d4fb-928c-5e30-a503-63c3df92ee98,Belleek Group,20:30,,BT93 3GE,54.4793247,-8.089211,Stepping Stones Centre,"Old Station Road,,Belleek,Fermanagh,BT9 33FY",glances.upward.freehold,Friday,False,False,False,False,,Steps,,Glasgow North West,Glasgow,Northern Ireland,Alcoholics Anonymous
156666b5-f0c2-5aa1-bcd2-407a91a38c03,Rostrevor,20:30,,BT34 3BB,54.102505,-6.194955,Harmony Hall,"Church Street,Rostrevor,Co. Down",quilting.highlighted.kingpin,Sunday,False,False,False,False,,,Behind School house Restaurant,Glasgow North West,Glasgow,Northern Ireland,Alcoholics Anonymous
9799d047-c872-5d2c-9469-8e17c0dad359,Belfast Crumlin Road,11:00,,BT14 7GE,54.61262,-5.962703,,"432 Crumlin Road,Belfast,Co. Antrim",badge.wants.rare,Saturday,False,False,False,False,,,,Lanarkshire,Scotland,Northern Ireland,Alcoholics Anonymous
16e51408-a496-5fe7-9c3e-a43bf4cfccdb,Belfast Lisburn Road,18:00,,BT9 6GF,54.578299,-5.951099,,"62 Lisburn Road,Belfast,Co. Antrim",forget.lanes.paused,Saturday,False,False,False,True,,Big Book,"To request link to online meeting email U19@alcoholicsanonymous.ie
The first Monday night meeting of every month is an Open Meeting. Trad meeting last Wednesday of the month.
Meeting rooms are fully accessible for those with impaired mobility.",London Chelsea,London (North),Northern Ireland,Alcoholics Anonymous
1a41eb8c-a631-5ec1-b8e0-8b9de33c7ca2,Strabane,11:00,,BT82 8HG,54.825149,-7.460626,St. Vincent De Paul,"18 Barrack Street,Strabane,Co. Tyrone",bowls.mallets.blasted,Wednesday,False,False,False,False,,,,London North East,London (North),Northern Ireland,Alcoholics Anonymous
69886dc1-c14d-5c23-a131-c705b4fa2334,Dungiven Step Meeting,20:30,,BT47 4LD,54.928565,-6.927762,Hands That Talk,"116 Main Street,Dungiven,Co. Derry",encloses.propose.hogs,Thursday,False,False,False,False,,Steps,,London South West,London (South),Northern Ireland,Alcoholics Anonymous
477286f8-0bc7-5d08-a0ea-42c9b2718577,Belfast East End,20:30,,BT4 1AF,54.598491,-5.899419,Skainos Centre,"239 Newtownards Road,Belfast,Co. Antrim",freed.pencil.silly,Thursday,False,False,False,True,,,"Zoom Meeting: To request link to online meeting email U17@alcoholicsanonymous.ie
Last Sunday of month 20.30 is an Open meeting",London West End,London (North),Northern Ireland,Alcoholics Anonymous
40d63193-00bd-58d3-a4d7-d51d3d5319c4,Belfast East End,12:00,,BT4 1AF,54.598491,-5.899419,Skainos Centre,"239 Newtownards Road,Belfast,Co. Antrim",freed.pencil.silly,Friday,False,False,False,True,,,"Zoom Meeting: To request link to online meeting email U17@alcoholicsanonymous.ie
Last Sunday of month 20.30 is an Open meeting",London West End,London (North),Northern Ireland,Alcoholics Anonymous
f5caa12e-224d-52fd-a579-f56e5577b75b,South Down Recover,18:30,,BT33 0ES,54.2135253,-5.8886405,,"1 Savoy Lane,Newcastle,Down",ranking.bulges.daydream,Friday,False,False,False,False,,Big Book,,London West End,London (North),Northern Ireland,Alcoholics Anonymous
37f03a4a-7bc0-5959-8a3d-1b9610d0e863,Belfast Lisburn Road,20:00,,BT9 6GF,54.578299,-5.951099,,"62 Lisburn Road,Belfast,Co. Antrim",forget.lanes.paused,Friday,False,False,False,True,,,"To request link to online meeting email U19@alcoholicsanonymous.ie
The first Monday night meeting of every month is an Open Meeting. Trad meeting last Wednesday of the month.
Meeting rooms are fully accessible for those with impaired mobility.",Manchester,North West,Northern Ireland,Alcoholics Anonymous
48314739-7817-57d9-bf14-d378a5e4c0fa,Waterside First Derry Group,15:00,,BT47 6BG,54.99552,-7.307191,Rossdowney House,"Glendermott Road,Waterside,Derry",cages.boat.cove,Sunday,False,False,False,False,,Big Book,,Merseyside and South West Lancs,North West,Northern Ireland,Alcoholics Anonymous
174577d1-9d9c-55e9-aaf8-f79dfe2244b7,Enniskillen Saturday Night,20:30,,BT74 6AA,54.344231,-7.632963,St. Michael's Centrre,"Belmore Street,Enniskillen,Co. Fermanagh",slanting.surfaces.tropic,Saturday,False,False,False,False,,,,Mid Surrey,South East,Northern Ireland,Alcoholics Anonymous
a065b646-c44d-5bd6-a8f3-78c31bfb8dc2,Omagh Killyclogher,20:30,,BT79 7LT,54.60895,-7.269869,St. Mary's Primary School Killyclogher,"Omagh,Co. Tyrone",defeat.boater.questions,Saturday,False,False,False,False,,,,Mid Surrey,South East,Northern Ireland,Alcoholics Anonymous
1d439860-108d-5d65-ab9f-f6785bfad368,Newry Water Street,10:30,,BT34 1AT,54.174585,-6.338506,Newry Cathedral,"38-40 Hill Street,Newry,Co. Armagh",goats.zealous.empire,Friday,False,False,False,False,,,,Milton Keynes,Eastern,Northern Ireland,Alcoholics Anonymous
902ad2a2-b48a-54b2-9d65-3d8022997dc7,Newry Canal Quay Group,20:00,,BT35 6AL,54.178342,-6.338616,,"14 Canal Quay,Newry,Co. Down",slug.punt.facing,Tuesday,False,False,False,False,,,,North and East Ayrshire,South West Scotland,Northern Ireland,Alcoholics Anonymous
afc31e94-eb46-5e4b-81fb-9ff329a4dc5a,Belfast East End,12:00,,BT4 1AF,54.598491,-5.899419,Skainos Centre,"239 Newtownards Road,Belfast,Co. Antrim",freed.pencil.silly,Thursday,False,False,False,True,,,"Zoom Meeting: To request link to online meeting email U17@alcoholicsanonymous.ie
Last Sunday of month 20.30 is an Open meeting",North East Surrey,South East,Northern Ireland,Alcoholics Anonymous
19b856a5-0900-5873-8b40-bacdd9ccb95d,Newcastle 1,20:30,,BT33 0EY,54.198889,-5.888792,,"5 Causeway Road,Newcastle,Co. Down",horseshoe.barefoot.mergers,Saturday,False,False,False,False,,Steps,,Northdown,South East,Northern Ireland,Alcoholics Anonymous
d1385c41-22ce-58e6-9e07-a6b80ea359bc,Newcastle 1,12:00,,BT33 0EY,54.198889,-5.888792,,"5 Causeway Road,Newcastle,Co. Down",horseshoe.barefoot.mergers,Sunday,False,False,False,False,,,,Northdown,South East,Northern Ireland,Alcoholics Anonymous
dd7fbda8-afad-50a0-b3da-8cd3b29df26c,Belfast East End,20:30,,BT4 1AF,54.598491,-5.899419,Skainos Centre,"239 Newtownards Road,Belfast,Co. Antrim",freed.pencil.silly,Friday,False,False,False,True,,,"Zoom Meeting: To request link to online meeting email U17@alcoholicsanonymous.ie
Last Sunday of month 20.30 is an Open meeting",Northumberland,North East,Northern Ireland,Alcoholics Anonymous
0e28da74-f4a7-562b-887a-8e4514fef04e,Portadown Drumcree,20:30,,BT62 1HA,54.430918,-6.454729,Mayfair Business Centre Garvaghy Road,"Portadown,Co. Armagh",void.bend.headed,Monday,False,False,False,False,,,Last Wednesday of the month is a Step Meeting,Poole and District,South West,Northern Ireland,Alcoholics Anonymous
6335c9a3-8bb9-546b-bd69-7e8510abbf5e,Portadown Drumcree,20:30,,BT62 1HA,54.430918,-6.454729,Mayfair Business Centre Garvaghy Road,"Portadown,Co. Armagh",void.bend.headed,Wednesday,False,False,False,False,,,Last Wednesday of the month is a Step Meeting,Poole and District,South West,Northern Ireland,Alcoholics Anonymous
2f69136c-7ed3-50f2-9ffc-af0913d259fe,Portadown Drumcree,20:30,,BT62 1HA,54.430918,-6.454729,Mayfair Business Centre Garvaghy Road,"Portadown,Co. Armagh",void.bend.headed,Friday,False,False,False,False,,Big Book,Last Wednesday of the month is a Step Meeting,Poole and District,South West,Northern Ireland,Alcoholics Anonymous
3b532ec7-5087-516e-9083-0c0397d25503,Strabane,20:30,,BT82 8HG,54.825149,-7.460626,St. Vincent De Paul,"18 Barrack Street,Strabane,Co. Tyrone",bowls.mallets.blasted,Thursday,False,False,False,False,,,,Potteries and District,Midlands,Northern Ireland,Alcoholics Anonymous
e71c8b12-288f-54a1-8d98-c10ec715802e,Strabane,20:30,,BT82 8HG,54.825149,-7.460626,St. Vincent De Paul,"18 Barrack Street,Strabane,Co. Tyrone",bowls.mallets.blasted,Sunday,False,False,False,False,,Steps,,Potteries and District,Midlands,Northern Ireland,Alcoholics Anonymous
71632116-5c38-5323-a23b-10c38b2695ee,Strabane Sion Mills,20:30,,BT82 9NR,54.783774,-7.481274,Sion Mills Community Association,"2 Garden Road,Strabane,Co. Tyrone",generals.galleries.lifeboats,Tuesday,False,False,False,False,,Steps,,Potteries and District,Midlands,Northern Ireland,Alcoholics Anonymous
0fa74527-9657-5729-8dec-4fc7b84275fe,Lurgan Pinebank 1,20:00,,BT66 6EU,54.462939,-6.334476,Roxy Heel Bar,"41A Church Place,Lurgan,Co. Armagh",sushi.leader.sculpture,Tuesday,False,False,False,False,,Tradition,Above Roxy Heel Bar,Shropshire,Wales and Borders,Northern Ireland,Alcoholics Anonymous
65a2b0c4-2e45-5121-9868-e6ac7884169a,Lurgan Pinebank 1,20:00,,BT66 6EU,54.462939,-6.334476,Roxy Heel Bar,"41A Church Place,Lurgan,Co. Armagh",sushi.leader.sculpture,Friday,False,False,False,False,,Steps,Above Roxy Heel Bar,Shropshire,Wales and Borders,Northern Ireland,Alcoholics Anonymous
9e460173-7de7-5f3a-964f-af8dd284b6c2,Lurgan Pinebank 1,11:30,,BT66 6EU,54.462939,-6.334476,Roxy Heel Bar,"41A Church Place,Lurgan,Co. Armagh",sushi.leader.sculpture,Sunday,False,False,False,False,,Big Book,Above Roxy Heel Bar,Shropshire,Wales and Borders,Northern Ireland,Alcoholics Anonymous
4da2907f-225d-5bb2-8e24-96d1a1491439,Newry Canal Quay Group,20:30,,BT35 6AL,54.178342,-6.338616,,"14 Canal Quay,Newry,Co. Down",slug.punt.facing,Thursday,False,False,False,False,,,,Shropshire,Wales and Borders,Northern Ireland,Alcoholics Anonymous
595caeb6-a380-5450-ab95-955951fbeeff,Sixmilecross & Beragh,20:30,,BT79 0TA,54.550499,-7.16102,The Cornerstone,"34 Main Street,Beragh,Co. Tyrone",picked.firming.includes,Monday,False,False,False,False,,,,Shropshire,Wales and Borders,Northern Ireland,Alcoholics Anonymous
ee48bc48-1ea8-58d9-9806-d5a8651088e5,Belfast East End,20:30,,BT4 1AF,54.598491,-5.899419,Skainos Centre,"239 Newtownards Road,Belfast,Co. Antrim",freed.pencil.silly,Tuesday,False,False,False,True,,,"Zoom Meeting: To request link to online meeting email U17@alcoholicsanonymous.ie
Last Sunday of month 20.30 is an Open meeting",Somerset,South West,Northern Ireland,Alcoholics Anonymous
bbb37196-a5c1-5e43-b605-f11d6d26824c,Newry Canal Quay Group,20:30,,BT35 6AL,54.178342,-6.338616,,"14 Canal Quay,Newry,Co. Down",slug.punt.facing,Friday,False,False,False,False,,,,South East Wales,Wales and Borders,Northern Ireland,Alcoholics Anonymous
b60cc516-da25-5f91-b50b-d93b530aa455,Newry Trevor Hill,20:00,,BT34 1DN,54.178255,-6.334944,,"11C Trevor Hill,3Rd Floor,Newry,Co. Down",tells.cake.chats,Monday,False,False,False,False,,,,South East Wales,Wales and Borders,Northern Ireland,Alcoholics Anonymous
60c350ad-ef76-5f11-983c-7d4f72665d89,Newry Water Street,10:30,,BT34 1AT,54.174585,-6.338506,Newry Cathedral,"38-40 Hill Street,Newry,Co. Armagh",goats.zealous.empire,Wednesday,False,False,False,False,,,,South East Wales,Wales and Borders,Northern Ireland,Alcoholics Anonymous
5c0988f7-d7c9-5b30-b2f6-088a27f5e489,Newry Water Street,10:30,,BT34 1AT,54.174585,-6.338506,Newry Cathedral,"38-40 Hill Street,Newry,Co. Armagh",goats.zealous.empire,Thursday,False,False,False,False,,Tradition,,South East Wales,Wales and Borders,Northern Ireland,Alcoholics Anonymous
a7d2800b-5a94-522a-bf87-19d8dc577998,Enniskillen Recovery,13:00,,BT74 7DP,54.346837,-7.642259,The Aishling Centre,"37 Darling Street,Enniskillen,Co. Fermanagh",hazelnuts.hopeless.outdoors,Friday,False,False,False,False,,,,South Midlands,South Midlands,Northern Ireland,Alcoholics Anonymous
d0a5c3ea-6342-5625-adf6-de7f9599d010,Belfast East End,12:00,,BT4 1AF,54.598491,-5.899419,Skainos Centre,"239 Newtownards Road,Belfast,Co. Antrim",freed.pencil.silly,Sunday,False,False,False,True,,,"Zoom Meeting: To request link to online meeting email U17@alcoholicsanonymous.ie
Last Sunday of month 20.30 is an Open meeting",Southdown,South East,Northern Ireland,Alcoholics Anonymous
ef62e0cf-b831-55a9-aa5a-1e00c6d9e1f1,Belfast East End,20:30,,BT4 1AF,54.598491,-5.899419,Skainos Centre,"239 Newtownards Road,Belfast,Co. Antrim",freed.pencil.silly,Sunday,False,False,False,True,,Steps,"Zoom Meeting: To request link to online meeting email U17@alcoholicsanonymous.ie
Last Sunday of month 20.30 is an Open meeting",Southdown,South East,Northern Ireland,Alcoholics Anonymous
2729ca54-6657-5064-a2e6-4e0ac08fbf41,Belfast Lisburn Road,20:00,,BT9 6GF,54.578299,-5.951099,,"62 Lisburn Road,Belfast,Co. Antrim",forget.lanes.paused,Monday,False,False,False,True,,,"To request link to online meeting email U19@alcoholicsanonymous.ie
The first Monday night meeting of every month is an Open Meeting. Trad meeting last Wednesday of the month.
Meeting rooms are fully accessible for those with impaired mobility.",Southdown,South East,Northern Ireland,Alcoholics Anonymous
6927c461-d1c9-52f0-a14c-b2bdad039109,Belfast Lisburn Road,20:00,,BT9 6GF,54.578299,-5.951099,,"62 Lisburn Road,Belfast,Co. Antrim",forget.lanes.paused,Tuesday,False,False,False,True,,Steps,"To request link to online meeting email U19@alcoholicsanonymous.ie
The first Monday night meeting of every month is an Open Meeting. Trad meeting last Wednesday of the month.
Meeting rooms are fully accessible for those with impaired mobility.",Southdown,South East,Northern Ireland,Alcoholics Anonymous
1dbc5a67-bb1e-53f3-b0ab-89e747f93145,Belfast Lisburn Road,12:30,,BT9 6GF,54.578299,-5.951099,,"62 Lisburn Road,Belfast,Co. Antrim",forget.lanes.paused,Wednesday,False,False,False,True,,,"To request link to online meeting email U19@alcoholicsanonymous.ie
The first Monday night meeting of every month is an Open Meeting. Trad meeting last Wednesday of the month.
Meeting rooms are fully accessible for those with impaired mobility.",Southdown,South East,Northern Ireland,Alcoholics Anonymous
50e28b8b-7f49-5fdd-baf3-0877d52e6495,Belfast St. Patrick’S Early Birds,18:00,,BT1 2FL,54.605295,-5.931866,St. Patrick's Parish Office,"St. Patrick's Church,197 Donegall Street,Belfast,Belfast",judge.hers.handed,Tuesday,False,False,False,False,,,"Entrance via Donegall Lane
To request link to online meeting email U276@alcoholicsanonymous.ie",Southdown,South East,Northern Ireland,Alcoholics Anonymous
b46ad061-d56e-5f20-86f0-3a3005d75c60,Belfast St. Patrick’S Early Birds,08:00,,BT1 2FL,54.605295,-5.931866,St. Patrick's Parish Office,"St. Patrick's Church,197 Donegall Street,Belfast,Belfast",judge.hers.handed,Saturday,False,False,False,False,,,"Entrance via Donegall Lane
To request link to online meeting email U276@alcoholicsanonymous.ie",Southdown,South East,Northern Ireland,Alcoholics Anonymous
c6fa5bf2-e657-56be-995f-b64b73b55f46,Enniskillen Recovery,13:00,,BT74 7DP,54.346837,-7.642259,The Aishling Centre,"37 Darling Street,Enniskillen,Co. Fermanagh",hazelnuts.hopeless.outdoors,Monday,False,False,False,False,,,,Southdown,South East,Northern Ireland,Alcoholics Anonymous
12a7a370-da2a-5445-aa50-1bca7cc60fb0,Newry Canal Quay Group,20:30,,BT35 6AL,54.178342,-6.338616,,"14 Canal Quay,Newry,Co. Down",slug.punt.facing,Sunday,False,False,False,False,,,,Southdown,South East,Northern Ireland,Alcoholics Anonymous
fb3410c0-ca08-52a3-a3b8-35709e0e3062,Newry Water Street,10:30,,BT34 1AT,54.174585,-6.338506,Newry Cathedral,"38-40 Hill Street,Newry,Co. Armagh",goats.zealous.empire,Tuesday,False,False,False,False,,Steps,,Southdown,South East,Northern Ireland,Alcoholics Anonymous
196f3bf0-434a-5e08-9864-db4096f2466d,Newcastle 1,12:30,,BT33 0EY,54.198889,-5.888792,,"5 Causeway Road,Newcastle,Co. Down",horseshoe.barefoot.mergers,Friday,False,False,False,False,,,,Thames Valley,South Midlands,Northern Ireland,Alcoholics Anonymous
3a2440c7-732f-55a3-a08c-7a961072ecea,Newcastle 1,12:30,,BT33 0EY,54.198889,-5.888792,,"5 Causeway Road,Newcastle,Co. Down",horseshoe.barefoot.mergers,Saturday,False,False,False,False,,,,Thames Valley,South Midlands,Northern Ireland,Alcoholics Anonymous
05714a83-7c63-5cbf-834b-a4b347fa570f,Belfast East End,12:00,,BT4 1AF,54.598491,-5.899419,Skainos Centre,"239 Newtownards Road,Belfast,Co. Antrim",freed.pencil.silly,Tuesday,False,False,False,True,,,"Zoom Meeting: To request link to online meeting email U17@alcoholicsanonymous.ie
Last Sunday of month 20.30 is an Open meeting",West Dorset,South West,Northern Ireland,Alcoholics Anonymous
bbb3bc84-5b7e-5831-bbef-37277ac4edaf,Larne,20:00,,BT40 1RQ,54.85317,-5.813474,Church Of God,"3 Princess Gardens,Larne,Co. Antrim",thighs.visitor.fail,Monday,False,False,False,False,,,,West Riding,North East,Northern Ireland,Alcoholics Anonymous
c7e4dbc3-4ccc-55a9-9429-409224afe2f5,Larne,20:00,,BT40 1RQ,54.85317,-5.813474,Church Of God,"3 Princess Gardens,Larne,Co. Antrim",thighs.visitor.fail,Friday,False,False,False,False,,,,West Riding,North East,Northern Ireland,Alcoholics Anonymous
f5f20db9-bc51-5908-a695-1ea7d6af32e8,Belfast East End,12:00,,BT4 1AF,54.598491,-5.899419,Skainos Centre,"239 Newtownards Road,Belfast,Co. Antrim",freed.pencil.silly,Wednesday,False,False,False,True,,,"Zoom Meeting: To request link to online meeting email U17@alcoholicsanonymous.ie
Last Sunday of month 20.30 is an Open meeting",Wicklow,Republic of Ireland,Northern Ireland,Alcoholics Anonymous
e436e3d5-8c93-527d-9b56-7e564fbd45fc,Belfast East End,20:30,,BT4 1AF,54.598491,-5.899419,Skainos Centre,"239 Newtownards Road,Belfast,Co. Antrim",freed.pencil.silly,Wednesday,False,False,False,True,,,"Zoom Meeting: To request link to online meeting email U17@alcoholicsanonymous.ie
Last Sunday of month 20.30 is an Open meeting",Wicklow,Republic of Ireland,Northern Ireland,Alcoholics Anonymous
9c33ebd4-1333-5c6a-8d29-663858370ef5,(Cork City) Grattan Street,12:45,,T12 DW62,51.8991478,-8.4802403,Grattan Street Community Centre,Cork City,closed.lofts.visual,Wednesday,False,False,False,False,,,,,,Republic of Ireland,Alcoholics Anonymous
95176e27-ac41-537d-8442-f93b1118ef32,(Cork City) Grattan Street,10:00,,T12 DW62,51.8991478,-8.4802403,Grattan Street Community Centre,Cork City,closed.lofts.visual,Friday,False,False,False,False,,,,,,Republic of Ireland,Alcoholics Anonymous
a26f2bdc-4e60-5fec-9bb0-71acdde7313c,(Cork City) Grattan Street,12:45,,T12 DW62,51.8991478,-8.4802403,Grattan Street Community Centre,Cork City,closed.lofts.visual,Friday,False,False,False,False,,,,,,Republic of Ireland,Alcoholics Anonymous
32a909dc-047b-51c9-ae89-1a08e6d3e5ac,(Cork City) Grattan Street,12:45,,T12 DW62,51.8991478,-8.4802403,Grattan Street Community Centre,Cork City,closed.lofts.visual,Sunday,False,False,False,False,,,,,,Republic of Ireland,Alcoholics Anonymous
47417c96-8c2c-5c28-a938-603b2616058e,(Cork City) Lough AA Group,18:00,,T12 VF5C,51.8904495,-8.4806423,Lough Community Centre,"Greenmount,Cork City,Cork",risks.glad.words,Monday,False,False,False,False,,,Zoom Meeting: To request link to online meeting email M88@alcoholicsanonymous.ie,,,Republic of Ireland,Alcoholics Anonymous
5244a137-3c01-5e27-b53c-81a70eb48bf9,(Cork City) Rock Steps,18:00,,T23 F577,51.9018231,-8.4813712,Rock Steps,"Community Centre,Blarney Street,Cork City",market.enable.brand,Friday,False,False,False,False,,,,,,Republic of Ireland,Alcoholics Anonymous
6c20c784-d09d-5da0-a314-6ee3f88ede1a,(Dublin City) Capel Street LGBT Group,19:00,,D01 R290,53.3497619,-6.2694819,Outhouse,"LGBT,Community Resource Ctr.,105 Capel Street,Dublin City,Dublin 1",paying.boring.joined,Monday,False,False,False,False,,,"For online meeting link and physical attendance details 
email L276@alcoholicsanonymous.ie
On a Bank Holiday - Sunday & Monday Meetings are at 6:30pm",,,Republic of Ireland,Alcoholics Anonymous
39b6e7f6-9a5f-574e-b219-e14a45f88569,(Dublin City) Molesworth Place,07:30,,D02 K023,53.3408214,-6.2571933,St. Ann's Parish Centre,"Molesworth Hall,Molesworth Lane,Off Molesworth Street,Dublin City,Dublin 2",lasted.passes.seat,Friday,False,False,False,False,,,To request link to online meeting email L10@alcoholicsanonymous.ie,,,Republic of Ireland,Alcoholics Anonymous
291487a4-fdca-5320-b4f1-b43d9f82af4d,(Galway City) Mervue Primary Purpose,18:15,,H91 X5P6,53.2821023,-9.0171052,C/O COPE Centre,",1 Walter Macken Place,Mervue,Galway City",wider.plus.power,Monday,False,False,False,False,,Big Book,,,,Republic of Ireland,Alcoholics Anonymous
7f8f615f-bc45-56b2-9130-78376150ccff,(Galway City) Mervue Primary Purpose,18:15,,H91 X5P6,53.2821023,-9.0171052,C/O COPE Centre,",1 Walter Macken Place,Mervue,Galway City",wider.plus.power,Wednesday,False,False,False,False,,,,,,Republic of Ireland,Alcoholics Anonymous
a411ead7-3c2c-51b1-9176-c7a3f2dd95ea,(Limerick City) Catherine Street New Rosbrien Group,13:00,,,52.6607961,-8.6290522,Christ Church,"Hanratty's Lane,Catherine Street,Limerick City",soil.flown.incomes,Saturday,False,False,False,False,,,,,,Republic of Ireland,Alcoholics Anonymous
f53e1727-8da4-528f-9697-dee5bb4020eb,(Limerick City) Ennis Road Salesians Group,19:00,,V94 C9KR,52.668551,-8.6654906,Holy Rosary,"Church Hall,(Side Of Church),Ennis Road,Limerick City",farms.advice.leave,Sunday,False,False,False,False,,Steps,,,,Republic of Ireland,Alcoholics Anonymous
d5d9c85e-673d-5507-87d9-0b8a7e745f2b,(Limerick City) Fairgreen Group,20:30,,V94 YYK1,52.6583419,-8.624919,,"291 Hyde Road,Limerick City",upon.spine.views,Tuesday,False,False,False,False,,,,,,Republic of Ireland,Alcoholics Anonymous
a8f88dee-0f6a-59e6-b23e-71f0f4da4167,(Limerick City) Mulgrave Street,20:30,,,52.6575755,-8.6132147,St. Joseph's Hospital,"The Lodge,Mulgrave Street,Limerick City",salads.froze.shares,Saturday,False,False,False,False,,,Zoom Meeting: To request link to online meeting email M131@alcoholicsanonymous.ie,,,Republic of Ireland,Alcoholics Anonymous
02dcda37-8dd1-5637-930a-f52cbebd2950,(Limerick City) Sarsfield Group,18:00,,V94 EDP4,52.6473557,-8.6185786,Lough Gur Room,"(3Rd Floor),Maldron Hotel,Roxboro Road,Limerick City",loads.notice.cycles,Monday,False,False,False,False,,,,,,Republic of Ireland,Alcoholics Anonymous
fbee6841-84e9-5cf4-960b-1396e51643c1,(Limerick City) Sarsfield Group,13:00,,V94 EDP4,52.6473557,-8.6185786,Lough Gur Room,"(3Rd Floor),Maldron Hotel,Roxboro Road,Limerick City",loads.notice.cycles,Tuesday,False,False,False,False,,,,,,Republic of Ireland,Alcoholics Anonymous
e2118b1a-4658-5d00-af40-7819e8fedb98,(Limerick City) Sarsfield Group,18:00,,V94 EDP4,52.6473557,-8.6185786,Lough Gur Room,"(3Rd Floor),Maldron Hotel,Roxboro Road,Limerick City",loads.notice.cycles,Tuesday,False,False,False,False,,,,,,Republic of Ireland,Alcoholics Anonymous
f2ee773e-3f62-574c-a07f-1e3b1e7c5823,(Limerick City) Sarsfield Group,11:00,,V94 EDP4,52.6473557,-8.6185786,Lough Gur Room,"(3Rd Floor),Maldron Hotel,Roxboro Road,Limerick City",loads.notice.cycles,Wednesday,False,False,False,False,,Steps,,,,Republic of Ireland,Alcoholics Anonymous
30d1e2cb-817e-56e2-8366-02a027c72ba4,(Limerick City) Sarsfield Group,18:00,,V94 EDP4,52.6473557,-8.6185786,Lough Gur Room,"(3Rd Floor),Maldron Hotel,Roxboro Road,Limerick City",loads.notice.cycles,Wednesday,False,False,False,False,,,,,,Republic of Ireland,Alcoholics Anonymous
c26e8ee1-dcf4-5c4a-bc9b-2d188a4e4f7c,(Limerick City) Sarsfield Group,13:00,,V94 EDP4,52.6473557,-8.6185786,Lough Gur Room,"(3Rd Floor),Maldron Hotel,Roxboro Road,Limerick City",loads.notice.cycles,Thursday,False,False,False,False,,,,,,Republic of Ireland,Alcoholics Anonymous
1bd655fa-32e7-5411-bd5a-0ebcdba87781,(Limerick City) Sarsfield Group,18:00,,V94 EDP4,52.6473557,-8.6185786,Lough Gur Room,"(3Rd Floor),Maldron Hotel,Roxboro Road,Limerick City",loads.notice.cycles,Thursday,False,False,False,False,,,,,,Republic of Ireland,Alcoholics Anonymous
568d2811-6ed4-5e47-a350-1d01c672e2c0,(Limerick City) Sarsfield Group,16:00,,V94 EDP4,52.6473557,-8.6185786,Lough Gur Room,"(3Rd Floor),Maldron Hotel,Roxboro Road,Limerick City",loads.notice.cycles,Sunday,False,False,False,False,,,,,,Republic of Ireland,Alcoholics Anonymous
a98b09c8-3cbe-59dc-9e25-c6224787bef1,Buncrana Amazing Grace,20:00,,F93 EY27,55.1333396,-7.4559853,St. Teresa's Hall,"St. Mary's Road,Buncrana,Co. Donegal",excel.perfectly.steamy,Sunday,False,False,False,False,,,Parking at rear of Church or on St. Mary's Road,,,Republic of Ireland,Alcoholics Anonymous
9e7ab325-51d7-5cd6-b24c-c12865c617fd,Castlemahon,20:30,,,52.4306979,-9.0100733,Holistic Centre,"Castlemahon,Co. Limerick",twitches.costumes.sharer,Thursday,False,False,False,False,,,,,,Republic of Ireland,Alcoholics Anonymous
5bbe89b4-1296-5b60-883e-8c1d810dff14,Clontarf St Anthony’S Group,20:30,,D03 DPK7,53.3643118,-6.2139525,St. Anthony's House,"Rear Of St. Anthony's Church,St. Lawrence Road,Clontarf,Dublin 3,0",clever.image.motor,Thursday,False,False,False,False,,Steps,,,,Republic of Ireland,Alcoholics Anonymous
d8817d1a-3d24-561f-898a-50f17c71b6a3,Drogheda AA Reflections,13:00,,A92 XP84,53.7167821,-6.35121,St. Peter's Church Of Ireland,"St. Peter's Street,Drogheda,Co. Louth",projects.serve.bearings,Tuesday,False,False,False,False,,,,,,Republic of Ireland,Alcoholics Anonymous
132ead67-a432-569b-9ce8-b500eab5a223,Drogheda AA Reflections,13:00,,A92 XP84,53.7167821,-6.35121,St. Peter's Church Of Ireland,"St. Peter's Street,Drogheda,Co. Louth",projects.serve.bearings,Wednesday,False,False,False,False,,,,,,Republic of Ireland,Alcoholics Anonymous
f5dce606-4584-5999-b7f7-ef6a2efb7a49,Drogheda AA Reflections,13:00,,A92 XP84,53.7167821,-6.35121,St. Peter's Church Of Ireland,"St. Peter's Street,Drogheda,Co. Louth",projects.serve.bearings,Thursday,False,False,False,False,,,,,,Republic of Ireland,Alcoholics Anonymous
d0398f53-e85b-5946-945e-de7f0839dc3c,Drogheda AA Reflections,13:00,,A92 XP84,53.7167821,-6.35121,St. Peter's Church Of Ireland,"St. Peter's Street,Drogheda,Co. Louth",projects.serve.bearings,Friday,False,False,False,False,,,,,,Republic of Ireland,Alcoholics Anonymous
d1ffc14d-4ff8-5f9d-8167-bdfe147aaa39,"Drogheda After Dark, The Stables  Group",20:30,,A92 RF2P,53.7148545,-6.3492071,The Stables,"Batchelors Lane,Drogheda,Co. Louth",haggle.outreach.agreed,Wednesday,False,False,False,False,,,,,,Republic of Ireland,Alcoholics Anonymous
a81ae360-8113-579b-b273-717ba22b30bc,"Drogheda After Dark, The Stables  Group",12:00,,A92 RF2P,53.7148545,-6.3492071,The Stables,"Batchelors Lane,Drogheda,Co. Louth",haggle.outreach.agreed,Sunday,False,False,False,False,,,,,,Republic of Ireland,Alcoholics Anonymous
d46342ce-20d2-592d-a141-fec07963ee27,"Drogheda After Dark, The Stables  Group",20:30,,A92 RF2P,53.7148545,-6.3492071,The Stables,"Batchelors Lane,Drogheda,Co. Louth",haggle.outreach.agreed,Sunday,False,False,False,False,,,,,,Republic of Ireland,Alcoholics Anonymous
f9562ee9-fe94-5cf0-a961-b441c5e40050,Drogheda Akron,12:00,,,53.7148554,-6.3492047,The Stables Bachelors Lane,"Drogheda,Co. Louth",haggle.outreach.agreed,Sunday,False,False,False,False,,,,,,Republic of Ireland,Alcoholics Anonymous
4c9e7040-2a0c-58f8-befb-3b3a9339445f,Glasthule,20:30,,A96 FW66,53.2878404,-6.1249343,Parish Centre St. Joseph's Church Summerhill Road,"Glasthule,Co. Dublin",lyrically.ecologist.romance,Thursday,False,False,False,False,,,"Tradition meeting 1st Thurs of every month.
The meeting is at the rear of the church left side as you walk in",,,Republic of Ireland,Alcoholics Anonymous
8789b741-3687-5a0b-9bb5-a203b365f3d3,Glenamaddy,21:00,,,53.5999433,-8.5670781,Lunchroom,"Community School,Dunmore Road,Glenamaddy,Co. Galway,F45 EO46",spoonfuls.quiver.variation,Monday,False,False,False,False,,Tradition,,,,Republic of Ireland,Alcoholics Anonymous
459132bc-a749-5d52-97b6-3a9fc82a4cf4,Glenealy,20:30,,A67 F858,52.9686658,-6.1443437,Community Hall,"Glenealy,Co. Wicklow",january.wavelength.apologetic,Wednesday,False,False,False,False,,,,,,Republic of Ireland,Alcoholics Anonymous
1fad1ba8-2826-5d37-8701-467ed7635aa9,Gorey,13:00,,Y25 T3Y6,52.6742257,-6.2981578,Christ Church Old School,"Charlotte Row,Gorey,Co. Wexford",vineyards.appear.nervously,Monday,False,False,False,False,,Steps,Meeting in Big Hall downstairs,,,Republic of Ireland,Alcoholics Anonymous
2d447a92-9dd5-5ee1-bc93-b31084669242,Gorey,13:00,,Y25 T3Y6,52.6742257,-6.2981578,Christ Church Old School,"Charlotte Row,Gorey,Co. Wexford",vineyards.appear.nervously,Tuesday,False,False,False,False,,,Meeting in Big Hall downstairs,,,Republic of Ireland,Alcoholics Anonymous
0faeb0a6-1c2b-5cd2-a9b9-6966ff706d2b,Gorey,13:00,,Y25 T3Y6,52.6742257,-6.2981578,Christ Church Old School,"Charlotte Row,Gorey,Co. Wexford",vineyards.appear.nervously,Wednesday,False,False,False,False,,,Meeting in Big Hall downstairs,,,Republic of Ireland,Alcoholics Anonymous
f5ed0caa-9cc8-524c-b89b-65384ad86a66,Kells Handball Group,20:30,,A82 H702,53.7281438,-6.8814683,Handball Alley,"Church Lane,Kells,Co. Meath",chauffeur.infrequent.willing,Tuesday,False,False,False,False,,,,,,Republic of Ireland,Alcoholics Anonymous
f8a826b8-6a48-521b-9b69-82990fa5a5ce,Kells Handball Group,20:30,,A82 H702,53.7281438,-6.8814683,Handball Alley,"Church Lane,Kells,Co. Meath",chauffeur.infrequent.willing,Thursday,False,False,False,False,,,,,,Republic of Ireland,Alcoholics Anonymous
56336aa5-a40b-5f71-b0fb-5b0ebb2d4070,Kells Handball Group,20:30,,A82 H702,53.7281438,-6.8814683,Handball Alley,"Church Lane,Kells,Co. Meath",chauffeur.infrequent.willing,Friday,False,False,False,False,,,,,,Republic of Ireland,Alcoholics Anonymous
f5e91e00-e8d0-570d-bb58-75fe2df3ac94,Kilkenny 2,20:30,,,52.6383997,-7.249699,Social Service Centre,"Waterford Road,Kilkenny,Kilkenny",desired.fishes.fizzled,Thursday,False,False,False,False,,,Open subject to Government and HSE guidelines,,,Republic of Ireland,Alcoholics Anonymous
b05bdc27-1e36-5b3c-b697-b38e8aa2e688,Kilkenny 2,20:30,,,52.6383997,-7.249699,Social Service Centre,"Waterford Road,Kilkenny,Kilkenny",desired.fishes.fizzled,Saturday,False,False,False,False,,,Open subject to Government and HSE guidelines,,,Republic of Ireland,Alcoholics Anonymous
87d3e1a3-f976-580e-98ff-689a390da506,Letterkenny Primary Purpose,12:30,,F92 K060,54.9491782,-7.7324493,Letterkenny Community Centre,"Pearse Road,Letterkenny,Co. Donegal",galleries.fonts.printing,Tuesday,False,False,False,False,,Tradition,,,,Republic of Ireland,Alcoholics Anonymous
0b35a8f3-0569-534a-abf5-05382e5ee234,Letterkenny Primary Purpose,12:30,,F92 K060,54.9491782,-7.7324493,Letterkenny Community Centre,"Pearse Road,Letterkenny,Co. Donegal",galleries.fonts.printing,Wednesday,False,False,False,False,,Big Book,,,,Republic of Ireland,Alcoholics Anonymous
cd1ae71e-dc3e-5f2d-b96f-6acc4ec452fd,Letterkenny Primary Purpose,12:30,,F92 K060,54.9491782,-7.7324493,Letterkenny Community Centre,"Pearse Road,Letterkenny,Co. Donegal",galleries.fonts.printing,Thursday,False,False,False,False,,,,,,Republic of Ireland,Alcoholics Anonymous
d7fd8e02-24b2-5ca3-8500-03ac9f51fc4c,Letterkenny Primary Purpose,12:30,,F92 K060,54.9491782,-7.7324493,Letterkenny Community Centre,"Pearse Road,Letterkenny,Co. Donegal",galleries.fonts.printing,Friday,False,False,False,False,,Steps,,,,Republic of Ireland,Alcoholics Anonymous
9d770728-5c4a-5d3f-8903-992b444d8d2e,Letterkenny Primary Purpose,16:00,,F92 K060,54.9491782,-7.7324493,Letterkenny Community Centre,"Pearse Road,Letterkenny,Co. Donegal",galleries.fonts.printing,Sunday,False,False,False,False,,,,,,Republic of Ireland,Alcoholics Anonymous
6a579be9-7c31-5391-935b-255e86377a73,Listowel Third Legacy Group,20:30,,V31 EC62,52.4504338,-9.4710214,Family Resource Centre,"John B. Keane Road,Listowel,Co. Kerry",agile.pampering.wildly,Wednesday,False,False,False,False,,,,,,Republic of Ireland,Alcoholics Anonymous
31fb82ce-f18c-5078-a00c-092c21cf1f1e,Loughrea Club Rea Group,13:00,,,53.1989136,-8.5660931,Loughrea Family,"Resource Ctr.,Piggott Street,Loughrea,Co. Galway",heads.roadblock.mourns,Monday,False,False,False,False,,,,,,Republic of Ireland,Alcoholics Anonymous
b7a1cfc4-8fea-534f-9027-a35e1b5ffbe7,Mohill,21:00,,,53.9206056,-7.8618152,L.A.P.W.D. Office,"Station Road,Mohill,Co. Leitrim",paramedics.saltwater.helpfully,Sunday,False,False,False,False,,,L.A.P.W.D. = Leitrim Association of People With Disabilities,,,Republic of Ireland,Alcoholics Anonymous
c23f73a4-b111-5afb-a811-5941c9846a4a,Nenagh Portroe,20:30,,E45 D522,52.8833378,-8.3503217,The Old School,"Portroe,Nenagh,Co. Tipperary",sedation.tastefully.unwell,Tuesday,False,False,False,False,,,,,,Republic of Ireland,Alcoholics Anonymous
f91826f3-72c0-53fd-aa0b-2cf4e224a06f,New Inn Rockwell,20:00,,E25 ED60,52.458026,-7.8920437,Rockwell College,"New Inn,Co. Tipperary",hothouse.pings.investments,Wednesday,False,False,False,False,,,,,,Republic of Ireland,Alcoholics Anonymous
81bb8135-cd9f-51f0-838b-f58344187e4b,Newbridge Serenity,13:00,,W12 R622,53.1811721,-6.7994942,Newbridge Parish Centre Station Road,"Newbridge,Co. Kildare",rescuer.doll.bachelor,Wednesday,False,False,False,False,,,,,,Republic of Ireland,Alcoholics Anonymous
af5c5704-6d18-594a-b203-f2727a38b702,Newcastle,20:30,,A63 N611,53.067736,-6.0620971,Newcastle Community Centre,"Newcastle Village,Co. Wicklow",cooperative.toothpaste.carry,Friday,False,False,False,False,,,,,,Republic of Ireland,Alcoholics Anonymous
bdeaedce-20c4-53e4-bf3f-bc9be215f03d,Oranmore Good Morning Oranmore,08:30,,H91 EVX4,53.2656398,-8.9311164,Oranmore Parish Office,"Oranmore Church Grounds,Oranmore,Co. Galway",triumphant.apologetic.regency,Thursday,False,False,False,False,,,,,,Republic of Ireland,Alcoholics Anonymous
90503f2b-7ed6-5120-82d6-918ef752e6da,Rathdrum One Day At A Time,20:30,,,52.9318721,-6.2342906,Rathdrum Development Association Hall,"Fair Green,Rathdrum,Co. Wicklow",quickened.legroom.blinders,Friday,False,False,False,False,,,,,,Republic of Ireland,Alcoholics Anonymous
5dd8135d-0da7-5734-a164-21264e2613b1,Rathdrum One Day At A Time,20:30,,,52.9318721,-6.2342906,Rathdrum Development Association Hall,"Fair Green,Rathdrum,Co. Wicklow",quickened.legroom.blinders,Sunday,False,False,False,False,,,,,,Republic of Ireland,Alcoholics Anonymous
d7b04e71-f4da-5cea-850a-10e65c763894,Rosscarbery,20:30,,P85 TP80,51.5769523,-9.0326761,Rosscarbery Social Centre,"Barrack Lane,Rosscarbery,Co. Cork",daylight.juicy.exceed,Wednesday,False,False,False,False,,,,,,Republic of Ireland,Alcoholics Anonymous
528336aa-4e0b-5811-b844-782346d28602,Rosscarbery,20:30,,P85 TP80,51.5769523,-9.0326761,Rosscarbery Social Centre,"Barrack Lane,Rosscarbery,Co. Cork",daylight.juicy.exceed,Saturday,False,False,False,False,,,,,,Republic of Ireland,Alcoholics Anonymous
7a9a5b05-72d7-5c15-99d3-18749c46c8e9,Rosscarbery,11:00,,P85 TP80,51.5769523,-9.0326761,Rosscarbery Social Centre,"Barrack Lane,Rosscarbery,Co. Cork",daylight.juicy.exceed,Sunday,False,False,False,False,,,,,,Republic of Ireland,Alcoholics Anonymous
78a10b05-2909-5527-8835-cbe033870486,St Marys Resource Centre Navan,20:00,,,53.651497,-6.685869,The Resource Centre,"St. Mary's Church,Fair Green,Navan,Co. Meath",chair.froth.goodbye,Tuesday,False,False,False,False,,,,,,Republic of Ireland,Alcoholics Anonymous
6187473f-4ead-52bc-b977-271b71634e4b,St Marys Resource Centre Navan,11:30,,,53.651497,-6.685869,The Resource Centre,"St. Mary's Church,Fair Green,Navan,Co. Meath",chair.froth.goodbye,Sunday,False,False,False,False,,,,,,Republic of Ireland,Alcoholics Anonymous
5a7b8ff3-ece0-519e-b176-7a80a7490922,Tallaght A Daily Reprieve,11:30,,D24 TC7H,53.2948594,-6.3427074,St Aengus Community Centre,"Castletymon Road,Tallaght,Dublin 24",apron.vague.spark,Wednesday,False,False,False,False,,,,,,Republic of Ireland,Alcoholics Anonymous
c264d6b2-4ce4-50b0-bbd0-64d47bc3cb88,Tallaght A Daily Reprieve,20:00,,D24 TC7H,53.2948594,-6.3427074,St Aengus Community Centre,"Castletymon Road,Tallaght,Dublin 24",apron.vague.spark,Wednesday,False,False,False,False,,Steps,,,,Republic of Ireland,Alcoholics Anonymous
e981233d-baf6-51dd-b18e-3f770bf109d8,Trim Athboy Road Group,18:30,,C15 Y9VA,53.5529484,-6.8018407,The Mens Shed,",Eamon Duggan Ind. Estate,Trim,Co. Meath",jellyfish.respects.chinos,Thursday,False,False,False,False,,,,,,Republic of Ireland,Alcoholics Anonymous
2dda1263-6567-54bb-abda-57789463485a,Two Birds One Phone Group,20:00,,D09 E338,53.3981734,-6.243982,Santry Community Centre,"Domville Court,Coolock Lane,,Santry,Dublin 9",spider.rice.shuts,Thursday,False,False,False,False,,Big Book,,,,Republic of Ireland,Alcoholics Anonymous
4c048a46-a459-5386-9302-7ff564a16181,Wexford Town Parish Hall,20:30,,Y35 P9CF,52.3375373,-6.4650602,FDYS Centre,"Francis Street,Wexford Town",slurps.unusual.keyboard,Sunday,False,False,False,False,,,,,,Republic of Ireland,Alcoholics Anonymous
12a2dd65-5ca0-546b-8837-fa0a1c55e47b,Wicklow,18:30,,A67 FX65,52.9794746,-6.0451453,The De La Salle Pastoral Centre,"St. Patrick's Church Grounds,Wicklow",stuck.animals.udder,Saturday,False,False,False,False,,,,,,Republic of Ireland,Alcoholics Anonymous
cf631a1f-889a-5ada-a0ed-ea20c4c01709,(Cork City) Magazine Road Solas Group,11:00,,T12 V6P4,51.8904992,-8.4918668,,"110 Horgan's Buildings,Magazine Road,Cork City",weedy.pouch.fires,Tuesday,False,False,False,False,,,"Zoom Meeting: 
To request link to online meeting, email M64@alcoholicsanonymous.ie",Aberdeen and District,East of Scotland,Republic of Ireland,Alcoholics Anonymous
61928e0f-35ba-5eda-a645-68ad2b829936,(Cork City) Magazine Road Solas Group,17:15,,T12 V6P4,51.8904992,-8.4918668,,"110 Horgan's Buildings,Magazine Road,Cork City",weedy.pouch.fires,Thursday,False,False,False,False,,,"Zoom Meeting: 
To request link to online meeting, email M64@alcoholicsanonymous.ie",Aberdeen and District,East of Scotland,Republic of Ireland,Alcoholics Anonymous
7c4465aa-f9ae-523d-bec2-5d9aec8c5870,(Cork City) Magazine Road Solas Group,17:15,,T12 V6P4,51.8904992,-8.4918668,,"110 Horgan's Buildings,Magazine Road,Cork City",weedy.pouch.fires,Saturday,False,False,False,False,,,"Zoom Meeting: 
To request link to online meeting, email M64@alcoholicsanonymous.ie",Aberdeen and District,East of Scotland,Republic of Ireland,Alcoholics Anonymous
3ff5c70d-c5ee-51bc-838d-f479b922a9ff,(Cork City) Magazine Road Solas Group,09:30,,T12 V6P4,51.8904992,-8.4918668,,"110 Horgan's Buildings,Magazine Road,Cork City",weedy.pouch.fires,Sunday,False,False,False,False,,,"Zoom Meeting: 
To request link to online meeting, email M64@alcoholicsanonymous.ie",Aberdeen and District,East of Scotland,Republic of Ireland,Alcoholics Anonymous
87af1edc-c426-5b55-8d36-009bfccdef59,(Cork City) Magazine Road Solas Group,20:00,,T12 V6P4,51.8904992,-8.4918668,,"110 Horgan's Buildings,Magazine Road,Cork City",weedy.pouch.fires,Sunday,False,False,False,False,,,"Zoom Meeting: 
To request link to online meeting, email M64@alcoholicsanonymous.ie",Aberdeen and District,East of Scotland,Republic of Ireland,Alcoholics Anonymous
d10fd72f-3ab3-5669-ad15-9989efddf044,(Cork City) Marlboro Street Cork 2Nd Group,20:30,,T12 HN4V,51.8972185,-8.4723288,YMCA Building,"11/12 Marlboro Street,Cork City",apple.verbs.jump,Tuesday,False,False,False,False,,Steps & Tradition,,Aberdeen and District,East of Scotland,Republic of Ireland,Alcoholics Anonymous
88f5892f-e9e1-5f0f-b85a-051627a13f47,(Cork City) Marlboro Street Cork 2Nd Group,20:30,,T12 HN4V,51.8972185,-8.4723288,YMCA Building,"11/12 Marlboro Street,Cork City",apple.verbs.jump,Thursday,False,False,False,False,,,,Aberdeen and District,East of Scotland,Republic of Ireland,Alcoholics Anonymous
8c1b0c36-77c3-54ca-a74f-7e74c9328a0b,(Cork City) Marlboro Street Cork 2Nd Group,20:30,,T12 HN4V,51.8972185,-8.4723288,YMCA Building,"11/12 Marlboro Street,Cork City",apple.verbs.jump,Saturday,False,False,False,False,,,,Aberdeen and District,East of Scotland,Republic of Ireland,Alcoholics Anonymous
6539896f-697a-5967-8466-18d316e02832,(Cork City) Mayfield,20:30,,,51.9113729,-8.4422311,Roseville House,"Old Youghal Road,Mayfield,Cork City",much.pram.editor,Monday,False,False,False,False,,Steps,Bank Holidays mtg at 12.30,Aberdeen and District,East of Scotland,Republic of Ireland,Alcoholics Anonymous
bf0d2f68-e342-5e80-978d-efbc4e8579e1,(Cork City) Mayfield,20:30,,,51.9113729,-8.4422311,Roseville House,"Old Youghal Road,Mayfield,Cork City",much.pram.editor,Tuesday,False,False,False,False,,,Bank Holidays mtg at 12.30,Aberdeen and District,East of Scotland,Republic of Ireland,Alcoholics Anonymous
22ae1350-3e78-55b1-abe4-4d4f6bc356d1,(Cork City) Mayfield,20:30,,,51.9113729,-8.4422311,Roseville House,"Old Youghal Road,Mayfield,Cork City",much.pram.editor,Wednesday,False,False,False,False,,,Bank Holidays mtg at 12.30,Aberdeen and District,East of Scotland,Republic of Ireland,Alcoholics Anonymous
d6410078-eac5-58e2-9fd9-feb35865e222,(Cork City) Mayfield,20:30,,,51.9113729,-8.4422311,Roseville House,"Old Youghal Road,Mayfield,Cork City",much.pram.editor,Thursday,False,False,False,False,,,Bank Holidays mtg at 12.30,Aberdeen and District,East of Scotland,Republic of Ireland,Alcoholics Anonymous
dad5e08f-f42d-5958-a604-91fb1d0bc692,(Cork City) Mayfield,20:30,,,51.9113729,-8.4422311,Roseville House,"Old Youghal Road,Mayfield,Cork City",much.pram.editor,Friday,False,False,False,False,,,Bank Holidays mtg at 12.30,Aberdeen and District,East of Scotland,Republic of Ireland,Alcoholics Anonymous
71a0746a-edaa-5322-974f-a12f64f44310,(Cork City) Mayfield,15:45,,,51.9113729,-8.4422311,Roseville House,"Old Youghal Road,Mayfield,Cork City",much.pram.editor,Saturday,False,False,False,False,,,Bank Holidays mtg at 12.30,Aberdeen and District,East of Scotland,Republic of Ireland,Alcoholics Anonymous
697af37c-f92d-532d-a113-94a2429a4903,(Cork City) Mayfield,20:30,,,51.9113729,-8.4422311,Roseville House,"Old Youghal Road,Mayfield,Cork City",much.pram.editor,Saturday,False,False,False,False,,,Bank Holidays mtg at 12.30,Aberdeen and District,East of Scotland,Republic of Ireland,Alcoholics Anonymous
87872ab0-9063-507f-95a4-76e6fc20b8ea,(Cork City) Mayfield,12:30,,,51.9113729,-8.4422311,Roseville House,"Old Youghal Road,Mayfield,Cork City",much.pram.editor,Sunday,False,False,False,False,,,Bank Holidays mtg at 12.30,Aberdeen and District,East of Scotland,Republic of Ireland,Alcoholics Anonymous
d28190c8-9ab4-563e-8ab0-b4cdcdcbe305,(Cork City) Mayfield,20:30,,,51.9113729,-8.4422311,Roseville House,"Old Youghal Road,Mayfield,Cork City",much.pram.editor,Sunday,False,False,False,False,,,Bank Holidays mtg at 12.30,Aberdeen and District,East of Scotland,Republic of Ireland,Alcoholics Anonymous
4f99a01b-2b02-57a5-b5f2-5b761a4d3c96,(Cork City) Patrick’S Hill Cork First Group,13:00,,T23 CF64,51.9023358,-8.4697923,Basement Flat,"12A St. Patrick's Hill,Cork City",police.strike.racing,Monday,False,False,False,False,,,,Aberdeen and District,East of Scotland,Republic of Ireland,Alcoholics Anonymous
cb2a02b0-e108-5015-bbdb-c1766e55c862,(Cork City) Patrick’S Hill Cork First Group,20:30,,T23 CF64,51.9023358,-8.4697923,Basement Flat,"12A St. Patrick's Hill,Cork City",police.strike.racing,Monday,False,False,False,False,,,,Aberdeen and District,East of Scotland,Republic of Ireland,Alcoholics Anonymous
b614c65e-a275-5fde-a8f3-e0e42611728a,(Cork City) Patrick’S Hill Cork First Group,13:00,,T23 CF64,51.9023358,-8.4697923,Basement Flat,"12A St. Patrick's Hill,Cork City",police.strike.racing,Tuesday,False,False,False,False,,,,Aberdeen and District,East of Scotland,Republic of Ireland,Alcoholics Anonymous
389e71ae-9b31-5ffd-bdea-35673a9817be,(Cork City) Patrick’S Hill Cork First Group,20:30,,T23 CF64,51.9023358,-8.4697923,Basement Flat,"12A St. Patrick's Hill,Cork City",police.strike.racing,Tuesday,False,False,False,False,,,,Aberdeen and District,East of Scotland,Republic of Ireland,Alcoholics Anonymous
f6855d4b-0930-5fa0-b404-41b7fa04e1b8,Monaghan 1St Monaghan,20:30,,,54.2486543,-6.9669979,The Learning Network  Ctr,"The Diamond Building,The Diamond,Monaghan",bubblegum.storms.thanksgiving,Saturday,False,False,False,False,,,Step meeting 1st Thursday of month.,Aberdeen and District,East of Scotland,Republic of Ireland,Alcoholics Anonymous
888da7d2-6107-5392-bd4a-b834b85558ab,(Dublin City) Wellington Street,20:30,,D07 FDN8,53.3562553,-6.2688073,CROSSCARE,"24 - 26 Wellington Street Upper,Dublin City,Dublin 7",soccer.plank.leap,Wednesday,False,False,False,False,,,,Angus and District,East of Scotland,Republic of Ireland,Alcoholics Anonymous
78b9646e-e377-5df2-937c-6b9690d13f76,(Galway City) Bohermore AA Group,20:30,,,53.28002,-9.04305,Community Centre,"Bohermore,Galway City",glaze.modest.grace,Saturday,False,False,False,False,,,,Angus and District,East of Scotland,Republic of Ireland,Alcoholics Anonymous
881bd1b1-a70a-5471-bc25-c4ec3bdd2d26,Duagh,20:30,,V31 E196,52.4128407,-9.3856907,The Presbytery,"Duagh,Co. Kerry",adopts.miss.oneself,Thursday,False,False,False,False,,,,Angus and District,East of Scotland,Republic of Ireland,Alcoholics Anonymous
a50a5758-ee8a-5c94-9af7-e629e3b4c12c,Dublin Airport 1St Airport,14:00,,,53.4286293,-6.2415409,The Sacristy,"Our Lady Queen Of Heaven Church,Swords,Co. Dublin",microwave.wizard.certified,Wednesday,False,False,False,False,,,"Physical Meetings effective from March 1st 2023 onwards.
Zoom Meeting 
To request link to online meeting email L18@alcoholicsanonymous.ie",Angus and District,East of Scotland,Republic of Ireland,Alcoholics Anonymous
2c5e2b9e-8fa3-5e89-a506-c585fb177e7f,Dublin Central Mission,13:00,,D01 A3CH,53.3488319,-6.2578182,Dublin Central Mission,"Lower Abbey Street,Dublin City,Dublin 1",motion.loft.remind,Monday,False,False,False,False,,Big Book,,Angus and District,East of Scotland,Republic of Ireland,Alcoholics Anonymous
da429080-2434-5e2d-ba4f-02d6f1a7d278,Dublin Central Mission,13:00,,D01 A3CH,53.3488319,-6.2578182,Dublin Central Mission,"Lower Abbey Street,Dublin City,Dublin 1",motion.loft.remind,Wednesday,False,False,False,True,,,,Angus and District,East of Scotland,Republic of Ireland,Alcoholics Anonymous
ebace0c4-b4c0-590f-8c78-a51f4c945a84,Dublin Central Mission,13:00,,D01 A3CH,53.3488319,-6.2578182,Dublin Central Mission,"Lower Abbey Street,Dublin City,Dublin 1",motion.loft.remind,Thursday,False,False,False,False,,Steps,,Angus and District,East of Scotland,Republic of Ireland,Alcoholics Anonymous
c345edbf-b9bc-5030-8f59-d3c8e6722b3a,Dublin Central Mission,11:00,,D01 A3CH,53.3488319,-6.2578182,Dublin Central Mission,"Lower Abbey Street,Dublin City,Dublin 1",motion.loft.remind,Saturday,False,False,False,True,,,,Angus and District,East of Scotland,Republic of Ireland,Alcoholics Anonymous
1e4edf77-0334-54a6-b40c-22a5468798bb,(Dublin City) Sherrard Street Unity,13:30,,D01 X6A0,53.3587285,-6.2594524,,"26 Upper Sherrard Street,Dublin City,Dublin 1",live.asking.needed,Sunday,False,False,False,False,,,"Russian Language is spoken at Sunday 13.30 meeting
To request link to online meeting email L15@alcoholicsanonymous.ie",Antrim,Northern Ireland,Republic of Ireland,Alcoholics Anonymous
80fb6285-b13f-5efc-ba5d-fc8489e42d05,(Dublin City) Sherrard Street Unity,18:00,,D01 X6A0,53.3587285,-6.2594524,,"26 Upper Sherrard Street,Dublin City,Dublin 1",live.asking.needed,Sunday,False,False,False,False,,,"Russian Language is spoken at Sunday 13.30 meeting
To request link to online meeting email L15@alcoholicsanonymous.ie",Antrim,Northern Ireland,Republic of Ireland,Alcoholics Anonymous
7f55ecc9-d5b3-53e4-a086-f8882b8cf085,Ballintubber,12:00,,,53.7469629,-9.2989675,Celtic Furrow,"Ballintubber,Co. Mayo",task.controlling.paralegal,Sunday,False,False,False,False,,,,Antrim,Northern Ireland,Republic of Ireland,Alcoholics Anonymous
9dd7acf3-9a65-5211-a56d-a739154b45a0,Ballycragh,20:30,,D24 A2C5,53.2734435,-6.3459118,Holy Rosary School,"Old Court Avenue,Ballycragh,Dublin 24",flank.edge.arrive,Tuesday,False,False,False,False,,,,Antrim,Northern Ireland,Republic of Ireland,Alcoholics Anonymous
843da257-fc73-5d40-adde-1a42d1bc02d2,Ballycragh,20:30,,D24 A2C5,53.2734435,-6.3459118,Holy Rosary School,"Old Court Avenue,Ballycragh,Dublin 24",flank.edge.arrive,Thursday,False,False,False,False,,Steps,,Antrim,Northern Ireland,Republic of Ireland,Alcoholics Anonymous
cc3658d4-2885-57fb-be24-a34e7c7c6333,Ballyfermot Road Serenity,12:30,,D10 W449,53.3425309,-6.3614098,Main Hall Civic Centre,"Ballyfermot Road,Ballyfermot,Dublin 10",fully.brief.plant,Monday,False,False,False,False,,,No Monday meetings on Bank Holidays.,Antrim,Northern Ireland,Republic of Ireland,Alcoholics Anonymous
bcffeb4d-6ade-5a87-976e-392d004eab8f,Ballyfermot Road Serenity,12:30,,D10 W449,53.3425309,-6.3614098,Main Hall Civic Centre,"Ballyfermot Road,Ballyfermot,Dublin 10",fully.brief.plant,Friday,False,False,False,False,,Steps,No Monday meetings on Bank Holidays.,Antrim,Northern Ireland,Republic of Ireland,Alcoholics Anonymous
eea2c0fe-6919-57c2-8098-eaa50ddce777,Ballyhaunis Sunday Night Group,20:30,,F35 PF60,53.7629994,-8.762378,Family Resource Centre,"Friary Grounds,Abbey Quarter,Ballyhaunis,Co. Mayo",searched.saloons.curries,Sunday,False,False,False,False,,,,Antrim,Northern Ireland,Republic of Ireland,Alcoholics Anonymous
cfaee173-eb7e-5667-83ef-024407cb199e,Ballyroan,20:30,,,53.2878309,-6.3035723,Church Annex On Left Hand Side Of The Church,"Ballyroan,Dublin 14",broken.rate.prefer,Thursday,False,False,False,False,,,Please note that the meeting is now in The ANNEX on the left hand side of the church.,Antrim,Northern Ireland,Republic of Ireland,Alcoholics Anonymous
dbe5a5ff-6308-5780-a13b-d119f815c8ea,Ballysax Suncroft,20:30,,R56 VP63,53.1066567,-6.8589979,Suncroft Community Centre,"Suncroft Curragh,Co. Kildare",cobra.strapless.helpfully,Sunday,False,False,False,False,,,,Antrim,Northern Ireland,Republic of Ireland,Alcoholics Anonymous
ec729034-f68d-5413-8ab2-1d0bf6aa9e4a,Knocklyon Iona Big Book,20:00,,D16 XT18,53.2832873,-6.317023,Iona Pastoral Centre,"Idrone Avenue,Knocklyon,Dublin 16",ripe.format.fats,Wednesday,False,False,False,False,,Big Book,Theme of Service,Antrim,Northern Ireland,Republic of Ireland,Alcoholics Anonymous
461c2f9e-ee57-5813-834d-32c768ef0afa,Mountmellick ‘Keep It Simple’ Group,20:30,,R32 KV60,53.113897,-7.3191522,,"1 Davitt Road,Mountmellick,Co. Laois",researchers.zany.annul,Sunday,False,False,False,False,,,,Antrim,Northern Ireland,Republic of Ireland,Alcoholics Anonymous
11d2d039-d1f0-563a-b502-925eefb4c510,Moyvane ‘New Hope’,20:30,,V31 K778,52.4629023,-9.3697475,Knockanure Community Centre,"Knockanure,Moyvane,Co. Kerry",lambs.tones.inflexible,Tuesday,False,False,False,False,,,Christmas Day Meeting - 12.00 (noon),Antrim,Northern Ireland,Republic of Ireland,Alcoholics Anonymous
4e4723fe-53f5-5b5b-9689-8526a4b13be8,Mullingar Mid-Day,13:00,,N91 XK06,53.5263964,-7.352828,Block B,"Mullingar Army Barracks,Ashe Road,Mullingar,Co. Westmeath",conga.fall.ranks,Monday,False,False,False,False,,,,Antrim,Northern Ireland,Republic of Ireland,Alcoholics Anonymous
9ded4b5d-3b94-5289-b05a-e3ce419251d0,Mullingar Mid-Day,18:00,,N91 XK06,53.5263964,-7.352828,Block B,"Mullingar Army Barracks,Ashe Road,Mullingar,Co. Westmeath",conga.fall.ranks,Monday,False,False,False,False,,,,Antrim,Northern Ireland,Republic of Ireland,Alcoholics Anonymous
1ee2dace-89ae-57bf-8ee6-0895047ffade,Mullingar Mid-Day,13:00,,N91 XK06,53.5263964,-7.352828,Block B,"Mullingar Army Barracks,Ashe Road,Mullingar,Co. Westmeath",conga.fall.ranks,Wednesday,False,False,False,False,,Steps,,Antrim,Northern Ireland,Republic of Ireland,Alcoholics Anonymous
219eb3e6-68a3-563d-8b8f-6844f522ffa7,Mullingar Mid-Day,13:00,,N91 XK06,53.5263964,-7.352828,Block B,"Mullingar Army Barracks,Ashe Road,Mullingar,Co. Westmeath",conga.fall.ranks,Friday,False,False,False,False,,,,Antrim,Northern Ireland,Republic of Ireland,Alcoholics Anonymous
d1708b6d-25ab-546e-9941-7293b2b28979,Mullingar Mid-Day,13:00,,N91 XK06,53.5263964,-7.352828,Block B,"Mullingar Army Barracks,Ashe Road,Mullingar,Co. Westmeath",conga.fall.ranks,Saturday,False,False,False,False,,,,Antrim,Northern Ireland,Republic of Ireland,Alcoholics Anonymous
edaa2437-d5c1-5bb0-ac3f-d22aab964cac,Mullingar Mid-Day,18:00,,N91 XK06,53.5263964,-7.352828,Block B,"Mullingar Army Barracks,Ashe Road,Mullingar,Co. Westmeath",conga.fall.ranks,Saturday,False,False,False,False,,,,Antrim,Northern Ireland,Republic of Ireland,Alcoholics Anonymous
50ffa5d9-b731-5b45-a115-f35c218ab341,Mullingar Mid-Day,11:30,,N91 XK06,53.5263964,-7.352828,Block B,"Mullingar Army Barracks,Ashe Road,Mullingar,Co. Westmeath",conga.fall.ranks,Sunday,False,False,False,False,,,,Antrim,Northern Ireland,Republic of Ireland,Alcoholics Anonymous
eea9ad5b-622b-58c8-bd28-dc20f627054d,(Galway City) Salthill Good Morning Galway,08:30,,,53.2607945,-9.0749884,Conference  Room,"Back Room Of Salthill Church,Salthill Village,Galway City",sleep.jabs.gained,Thursday,False,False,False,False,,Big Book,,Argyll,Highland and Islands,Republic of Ireland,Alcoholics Anonymous
360c4276-afe8-5da6-aaed-0e879ca39ea7,(Dublin City) Capel Street LGBT Group,18:30,,D01 R290,53.3497619,-6.2694819,Outhouse,"LGBT,Community Resource Ctr.,105 Capel Street,Dublin City,Dublin 1",paying.boring.joined,Sunday,False,False,False,False,,,"For online meeting link and physical attendance details 
email L276@alcoholicsanonymous.ie
On a Bank Holiday - Sunday & Monday Meetings are at 6:30pm",Armagh,Northern Ireland,Republic of Ireland,Alcoholics Anonymous
41ad6008-b6ac-5276-8597-03a72921ebad,(Galway City) St. Josephs,20:00,,H91 YA40,53.1052788,-9.6637949,St Josephs Church,"Sacristy,Presentation Road,Galway City,Galway",nodding.scoreboard.postures,Monday,False,False,False,False,,,,Armagh,Northern Ireland,Republic of Ireland,Alcoholics Anonymous
420161b6-32eb-5e35-8dae-f546237f618c,(Galway City) St. Josephs,20:00,,H91 YA40,53.1052788,-9.6637949,St Josephs Church,"Sacristy,Presentation Road,Galway City,Galway",nodding.scoreboard.postures,Friday,False,False,False,False,,Steps & Tradition,,Armagh,Northern Ireland,Republic of Ireland,Alcoholics Anonymous
329262c0-b829-52ba-ae7c-1562848db8d8,(Galway City) Taylor’S Hill Croi Nua,17:45,,H91 WY2A,53.2675277,-9.074338,Croi Nua Spirituality Centre,"Rosary Lane,Taylor's Hill,Galway City",output.edges.bubble,Monday,False,False,False,False,,Steps & Tradition,"To request link to online meeting, email C120@alcoholicsanonymous.ie",Armagh,Northern Ireland,Republic of Ireland,Alcoholics Anonymous
1af2f709-4ad1-554c-8199-8ccbd1e8d27f,(Galway City) The Abbey,20:00,,H91 XKF4,53.2751085,-9.0549744,Galway Diocesan Pastoral Centre,"Newtownsmith,Galway City",ample.bleat.soccer,Monday,False,False,False,False,,,,Armagh,Northern Ireland,Republic of Ireland,Alcoholics Anonymous
ebffdab8-bca5-51db-922b-a03bc7e062a4,(Galway City) The Abbey,20:00,,H91 XKF4,53.2751085,-9.0549744,Galway Diocesan Pastoral Centre,"Newtownsmith,Galway City",ample.bleat.soccer,Wednesday,False,False,False,False,,,,Armagh,Northern Ireland,Republic of Ireland,Alcoholics Anonymous
3fd7d62a-d950-56fc-8fbf-2a555415c9b8,(Galway City) Tir Na Nóg Physical Group,22:00,,H91 H992,53.2723509,-9.0512706,,"4 St. Augustine Street,(Youth Service),Galway,Co. Galway",faces.every.wings,Saturday,False,False,False,False,,,,Armagh,Northern Ireland,Republic of Ireland,Alcoholics Anonymous
16453fb4-e224-5f3a-acfe-3ce622f47cd0,(Galway City) Tir Na Nóg Physical Group,10:00,,H91 H992,53.2723509,-9.0512706,,"4 St. Augustine Street,(Youth Service),Galway,Co. Galway",faces.every.wings,Sunday,False,False,False,False,,,,Armagh,Northern Ireland,Republic of Ireland,Alcoholics Anonymous
5d76835a-a822-5fb5-a425-d97266c7f379,(Dublin City) Sherrard Street Unity,20:30,,D01 X6A0,53.3587285,-6.2594524,,"26 Upper Sherrard Street,Dublin City,Dublin 1",live.asking.needed,Saturday,False,False,False,False,,,"Russian Language is spoken at Sunday 13.30 meeting
To request link to online meeting email L15@alcoholicsanonymous.ie",Ayrshire and South West Scotland,South West Scotland,Republic of Ireland,Alcoholics Anonymous
8bf50a81-784a-5e14-ba1b-a9879262a6df,Kimmage Road Mount Argus,20:30,,D6W C425,53.3192733,-6.2912167,Mount Argus Community Centre,"179 Lower Kimmage Road,Kimmage,Dublin 6W",toast.edit.closed,Sunday,False,False,False,False,,,,Ayrshire and South West Scotland,South West Scotland,Republic of Ireland,Alcoholics Anonymous
2e830cf5-c204-533c-9cb4-e2d9757a54bd,(Cork City) Rutland Street 6 O’Clock Group,18:00,,T12 CX32,51.894202,-8.4692779,South Parish,"Community Centre,Rutland Street,Cork City",dose.monks.loss,Thursday,False,False,False,False,,Beginner,,Birmingham,Midlands,Republic of Ireland,Alcoholics Anonymous
4a772cce-cbeb-50a3-99fb-42de85b07b26,Borrisokane,20:30,,,53.0010665,-8.1181203,Borrisokane Community Centre,"Birr Road,Borrisokane,Co. Tipperary",realist.choppers.goodly,Monday,False,False,False,False,,,,Birmingham,Midlands,Republic of Ireland,Alcoholics Anonymous
96834013-daf9-5784-ad5c-00215b36a72c,Fairview St Vincent’S Hospital Group,19:30,,D03 E165,53.3632439,-6.2392921,Our Lady's  Hall,"Behind The Church,Fairview,Dublin3",intro.counts.behave,Friday,False,False,False,False,,,"Behind the Church 
Corner of  Fairview Strand and Phillipsburgh Avenue. 
Ring bell on the left of the door
Zoom Meeting
To request link to online meeting email 
L41@alcoholicsanonymous.ie",Birmingham,Midlands,Republic of Ireland,Alcoholics Anonymous
d056e8fa-2c76-598b-95f0-514ee0a5ffd0,Clogheen Unity,20:30,,E21 NH50,52.2760027,-7.9968354,Reading Room,"Main Street,Clogheen,Co. Tipperary",evolved.miles.consults,Sunday,False,False,False,False,,,Next to St. Paul's Community Centre,Black Country,Midlands,Republic of Ireland,Alcoholics Anonymous
4d09543d-610a-5ae5-a4d9-13802f2c6317,Donegal Town Promises U267,20:30,,F94 KN92,54.6552067,-8.108877,The Mustard Seed,"New Road,Donegal Town,Co. Donegal",appetite.postcard.blend,Thursday,False,False,False,False,,Beginner,To request link to online meetings email U267@alcoholicsanonymous.ie,Black Country,Midlands,Republic of Ireland,Alcoholics Anonymous
d90c73d1-0d5e-5500-a394-dc16491ad29f,Donegal Town Promises U267,20:30,,F94 KN92,54.6552067,-8.108877,The Mustard Seed,"New Road,Donegal Town,Co. Donegal",appetite.postcard.blend,Saturday,False,False,False,False,,,To request link to online meetings email U267@alcoholicsanonymous.ie,Black Country,Midlands,Republic of Ireland,Alcoholics Anonymous
45c9b5df-93ea-5100-a261-12bd2f6b09ee,Drimnagh,20:00,,,53.32924,-6.31912,Mother Mcauley Centre Curlew Road (Old Folks Centre),"Drimnagh,Dublin 12",follow.dots.yoga,Monday,False,False,False,False,,,,Borders and East Lothian,Scotland,Republic of Ireland,Alcoholics Anonymous
1eccaaaa-4497-5977-9618-3287a7c84199,Finglas,20:30,,,53.3824437,-6.3004998,St. Helena's Resource Centre,"St. Helena's Road,Finglas,Dublin 11",able.card.heavy,Monday,False,False,False,False,,,,Borders and East Lothian,Scotland,Republic of Ireland,Alcoholics Anonymous
a4d5304a-c6d4-52b5-8552-4324b3be0361,Carlow,20:30,,R93 T4C6,52.8400665,-6.9230888,St. Catherine's Community Services,",St. Josephs Road,Carlow,Carlow",pram.cashier.rush,Monday,False,False,False,False,,Steps,Zoom Meeting: To request link to online meeting email L2@alcoholicsanonymous.ie,Bournemouth District,South West,Republic of Ireland,Alcoholics Anonymous
1ade3405-a500-5abb-afbd-bce2051aa55c,Carlow,13:00,,R93 T4C6,52.8400665,-6.9230888,St. Catherine's Community Services,",St. Josephs Road,Carlow,Carlow",pram.cashier.rush,Wednesday,False,False,False,False,,,Zoom Meeting: To request link to online meeting email L2@alcoholicsanonymous.ie,Bournemouth District,South West,Republic of Ireland,Alcoholics Anonymous
52eff0e9-b858-5a72-87d7-b97693774f4a,Carlow,20:30,,R93 T4C6,52.8400665,-6.9230888,St. Catherine's Community Services,",St. Josephs Road,Carlow,Carlow",pram.cashier.rush,Thursday,False,False,False,False,,,Zoom Meeting: To request link to online meeting email L2@alcoholicsanonymous.ie,Bournemouth District,South West,Republic of Ireland,Alcoholics Anonymous
411f99ed-8da1-5f7e-8999-0367b70d0411,Birr Thursday Group,20:30,,R42 T284,53.095931,-7.9077607,Basement,"The Priest's House,John's Mall,Birr,Co. Offaly",mythic.sage.acoustics,Thursday,False,False,False,False,,,,Brighton Area,South East,Republic of Ireland,Alcoholics Anonymous
0511c501-0fd8-5661-9527-1f9b797a9a40,Newport,21:00,,F28 ED89,53.887071,-9.5432552,Holy Family National School,"Glenhest Road,Newport,Co. Mayo",solves.deduce.areas,Tuesday,False,False,False,False,,,,Brighton Area,South East,Republic of Ireland,Alcoholics Anonymous
